timestamp(unix),attitude_roll(radians),attitude_pitch(radians),attitude_yaw(radians),rotation_rate_x(radians/s),rotation_rate_y(radians/s),rotation_rate_z(radians/s),gravity_x(G),gravity_y(G),gravity_z(G),user_acc_x(G),user_acc_y(G),user_acc_z(G),magnetic_field_x(microteslas),magnetic_field_y(microteslas),magnetic_field_z(microteslas),latitude(degree),longitude(degree),altitude(meter),speed(m/s),course(degree),timestamp(unix)
1478503922.40,1.019653,-1.148780,-0.185587,0.001141,-0.005161,-0.011551,0.348949,0.912265,-0.214492,-0.002483,-0.001148,-0.002091,9.219177,36.270630,13.812866,,,,,,
,,,,,,,,,,,,,,,,37.392598,-122.003843,10.924927,-1.000000,-1.000000,1478503922.40
,,,,,,,,,,,,,,,,37.391756,-122.011203,10.924927,1.560000,-1.000000,1478503688.00
,,,,,,,,,,,,,,,,37.392598,-122.003843,10.924927,-1.000000,-1.000000,1478503922.40
,,,,,,,,,,,,,,,,37.392598,-122.003843,10.924927,-1.000000,-1.000000,1478503922.40
1478503922.42,1.019133,-1.148949,-0.185953,-0.005269,-0.010456,-0.011578,0.348706,0.912334,-0.214593,-0.000165,0.000492,-0.003455,9.069214,36.345825,13.736694,,,,,,
1478503922.44,1.018454,-1.149210,-0.186177,-0.006386,-0.025337,-0.011562,0.348358,0.912441,-0.214705,-0.002182,-0.003368,-0.002169,9.144958,36.345215,14.112305,,,,,,
1478503922.46,1.017454,-1.149599,-0.186481,-0.004284,-0.037035,-0.013662,0.347841,0.912600,-0.214866,-0.005099,-0.005648,0.002601,9.144958,36.345215,14.112305,,,,,,
1478503922.48,1.016755,-1.150009,-0.186561,0.002149,-0.023236,-0.012583,0.347373,0.912768,-0.214912,-0.002692,-0.002688,0.009163,9.145386,36.570312,14.037231,,,,,,
1478503922.50,1.017049,-1.150400,-0.186341,0.013973,0.007557,-0.012565,0.347133,0.912927,-0.214623,0.001073,0.005698,0.012841,9.145630,36.494995,14.262207,,,,,,
1478503922.52,1.017017,-1.150688,-0.186829,0.013985,0.016917,-0.012683,0.346902,0.913045,-0.214495,-0.001657,0.004054,0.005755,8.994629,36.270447,14.036255,,,,,,
1478503922.54,1.016100,-1.150765,-0.187916,0.010719,-0.003272,-0.012671,0.346646,0.913076,-0.214777,-0.003414,-0.004079,-0.004248,9.370056,36.269897,14.264038,,,,,,
1478503922.56,1.014787,-1.150758,-0.188777,-0.003202,-0.031925,-0.016961,0.346368,0.913073,-0.215235,-0.000314,-0.006656,-0.002050,9.370056,36.269897,14.264038,,,,,,
1478503922.58,1.013912,-1.151240,-0.188880,-0.011727,-0.038270,-0.020192,0.345806,0.913270,-0.215305,-0.003811,-0.001618,0.004490,9.367249,35.821106,13.439209,,,,,,
1478503922.60,1.013259,-1.151880,-0.188888,-0.004272,-0.030860,-0.015905,0.345170,0.913530,-0.215222,-0.005967,0.000288,0.008206,9.218872,36.270874,13.662964,,,,,,
1478503922.62,1.012684,-1.152228,-0.189076,0.006402,-0.017081,-0.011609,0.344776,0.913672,-0.215252,0.003033,0.008310,0.003292,9.367310,35.896240,13.364258,,,,,,
1478503922.64,1.012361,-1.152460,-0.189379,0.006468,-0.000069,-0.012700,0.344527,0.913766,-0.215251,-0.000807,0.006537,0.003230,9.591309,35.671509,13.140991,,,,,,
1478503922.66,1.011593,-1.152527,-0.190178,0.010714,-0.004335,-0.012670,0.344310,0.913793,-0.215483,-0.001185,-0.006292,-0.003145,9.591309,35.671509,13.140991,,,,,,
1478503922.68,1.010626,-1.152538,-0.191047,0.007495,-0.009802,-0.014901,0.344092,0.913798,-0.215810,-0.002677,-0.018534,-0.000468,9.368286,36.271240,13.364014,,,,,,
1478503922.70,1.009833,-1.152406,-0.191504,0.000017,-0.023591,-0.019177,0.344024,0.913744,-0.216147,0.009370,-0.012758,0.000632,9.218750,36.346130,13.512939,,,,,,
1478503922.72,1.009548,-1.152383,-0.191346,-0.002185,-0.028914,-0.010663,0.343979,0.913735,-0.216256,0.008041,-0.002511,0.000527,9.592651,36.046143,13.365845,,,,,,
1478503922.74,1.008895,-1.152318,-0.191484,0.005243,-0.025760,-0.004240,0.343889,0.913708,-0.216513,0.003661,-0.000805,0.000265,9.517334,35.896118,13.365356,,,,,,
1478503922.76,1.008034,-1.152386,-0.191859,0.013764,-0.027912,-0.005254,0.343650,0.913736,-0.216776,-0.000342,0.010580,0.001886,9.517334,35.896118,13.365356,,,,,,
1478503922.78,1.006851,-1.152581,-0.192592,0.015929,-0.031095,-0.012690,0.343242,0.913815,-0.217087,0.003300,0.006351,0.000031,9.517944,36.196228,13.290283,,,,,,
1478503922.80,1.005663,-1.152371,-0.192984,-0.002241,-0.052295,-0.014884,0.343146,0.913730,-0.217597,0.008646,-0.023502,-0.006723,9.518311,36.120850,13.590210,,,,,,
1478503922.82,1.004032,-1.151861,-0.193194,-0.034252,-0.070263,-0.016094,0.343184,0.913523,-0.218406,0.011171,-0.031336,-0.018257,9.142883,36.121338,13.362427,,,,,,
1478503922.84,1.002996,-1.152346,-0.192694,-0.054411,-0.060810,-0.026954,0.342583,0.913720,-0.218524,-0.008614,-0.019585,-0.008634,9.592468,36.046265,13.290894,,,,,,
1478503922.86,1.001487,-1.154019,-0.192824,-0.057442,-0.067127,-0.056769,0.340966,0.914398,-0.218216,-0.027214,-0.022888,-0.004578,9.592468,36.046265,13.290894,,,,,,
1478503922.88,0.998412,-1.155799,-0.193400,-0.086429,-0.151004,-0.067447,0.338924,0.915117,-0.218382,-0.022915,-0.057573,-0.014177,9.593567,36.270935,13.515747,,,,,,
1478503922.90,0.997773,-1.158375,-0.189413,-0.177443,-0.276167,-0.063499,0.336803,0.916153,-0.217320,-0.018367,-0.063812,-0.031887,9.742859,36.196228,13.216797,,,,,,
1478503922.92,0.996466,-1.162125,-0.182513,-0.348171,-0.351106,-0.060067,0.333632,0.917650,-0.215891,-0.048094,-0.049669,-0.083761,9.592957,36.121033,13.440796,,,,,,
1478503922.94,1.003794,-1.167455,-0.167736,-0.391506,-0.276522,-0.073192,0.331074,0.919755,-0.210810,-0.070820,0.020202,-0.059560,9.367981,36.121155,13.439087,,,,,,
1478503922.96,1.008200,-1.173628,-0.156224,-0.372219,-0.302046,-0.104987,0.327191,0.922160,-0.206318,-0.081631,0.102742,-0.067639,9.367981,36.121155,13.439087,,,,,,
1478503922.98,1.013459,-1.179570,-0.145989,-0.285976,-0.115109,-0.163345,0.323615,0.924442,-0.201692,-0.028144,0.135861,-0.058806,9.819824,36.495361,13.817261,,,,,,
1478503923.00,1.019689,-1.183977,-0.140266,-0.166016,0.154292,-0.119534,0.321392,0.926114,-0.197537,0.039403,0.001666,0.041043,9.369751,36.495605,13.813843,,,,,,
1478503923.02,1.028495,-1.186246,-0.137904,0.032370,0.361890,-0.042115,0.321318,0.926967,-0.193614,0.039079,-0.032512,0.085795,9.144653,36.119995,14.262451,,,,,,
1478503923.04,1.029969,-1.185487,-0.144507,0.153575,0.340188,-0.015868,0.322206,0.926682,-0.193503,0.044630,-0.034135,0.036581,9.518616,35.820007,14.115356,,,,,,
1478503923.06,1.028900,-1.184535,-0.150802,0.104121,0.183031,-0.031868,0.322755,0.926324,-0.194301,0.060378,-0.033242,0.028316,9.518616,35.820007,14.115356,,,,,,
1478503923.08,1.027042,-1.184759,-0.155203,0.045349,0.078024,-0.061837,0.322216,0.926408,-0.194794,0.054966,-0.049043,0.035934,9.369629,36.044800,14.339111,,,,,,
1478503923.10,1.025626,-1.185693,-0.158042,0.006982,0.057964,-0.070533,0.321200,0.926759,-0.194801,0.040189,-0.050310,0.048424,9.145142,36.345093,14.187256,,,,,,
1478503923.12,1.025878,-1.187180,-0.158832,-0.048469,0.040072,-0.071875,0.320070,0.927317,-0.194005,0.023467,-0.032298,0.052511,8.545532,36.269958,14.482788,,,,,,
1478503923.14,1.028085,-1.189340,-0.156592,-0.117943,-0.018182,-0.067910,0.318781,0.928123,-0.192264,0.002538,-0.029777,0.057483,8.994202,36.120483,14.036377,,,,,,
1478503923.16,1.036051,-1.192803,-0.147364,-0.171546,-0.077713,-0.052211,0.317536,0.929407,-0.188079,-0.017044,-0.044657,0.081405,8.994202,36.120483,14.036377,,,,,,
1478503923.18,1.041377,-1.195247,-0.139716,-0.185636,-0.091543,-0.021397,0.316571,0.930306,-0.185238,-0.028973,-0.056710,0.105511,8.919739,36.195190,14.185669,,,,,,
1478503923.20,1.053449,-1.198044,-0.125915,-0.159275,-0.067271,0.034064,0.316521,0.931329,-0.180115,-0.023736,-0.048608,0.109329,9.146118,36.494690,14.487183,,,,,,
1478503923.22,1.060820,-1.198313,-0.117097,-0.141333,-0.025955,0.084132,0.317622,0.931427,-0.177654,-0.019068,-0.026458,0.104794,8.996277,36.344299,14.786255,,,,,,
1478503923.24,1.069109,-1.197947,-0.108090,-0.133871,0.005885,0.101156,0.319382,0.931293,-0.175180,-0.008637,-0.005008,0.082238,8.920227,36.044556,14.635742,,,,,,
1478503923.26,1.077643,-1.197612,-0.099143,-0.142266,0.008072,0.081946,0.321140,0.931171,-0.172596,0.003185,0.033795,0.068180,8.920227,36.044556,14.635742,,,,,,
1478503923.28,1.088215,-1.199154,-0.087463,-0.141084,-0.087482,0.008647,0.321675,0.931732,-0.168524,0.012935,0.058853,0.059897,8.469910,35.819519,14.782593,,,,,,
1478503923.30,1.089471,-1.201185,-0.082276,-0.128282,-0.231963,-0.075158,0.320208,0.932468,-0.167244,0.034223,0.019726,0.073371,9.370789,36.043884,14.939087,,,,,,
1478503923.32,1.094911,-1.204017,-0.071208,-0.149680,-0.323361,-0.116704,0.318765,0.933487,-0.164289,0.047812,-0.034958,0.090406,9.370483,35.968994,14.864136,,,,,,
1478503923.34,1.092485,-1.207795,-0.066365,-0.171020,-0.361537,-0.132730,0.315232,0.934835,-0.163438,0.055449,-0.070394,0.087235,9.144531,35.518921,14.937622,,,,,,
1478503923.36,1.096330,-1.211016,-0.055510,-0.183771,-0.341302,-0.127502,0.313178,0.935974,-0.160847,0.047906,-0.081833,0.079137,9.144531,35.518921,14.937622,,,,,,
1478503923.38,1.095590,-1.214902,-0.049051,-0.196645,-0.351907,-0.119041,0.309822,0.937335,-0.159414,0.018944,-0.034870,0.065648,9.369629,35.443665,15.089355,,,,,,
1478503923.40,1.097849,-1.219132,-0.038059,-0.234344,-0.487846,-0.129684,0.306649,0.938801,-0.156906,0.013877,-0.022938,0.047775,9.370911,35.968689,15.089111,,,,,,
1478503923.42,1.095695,-1.224485,-0.027381,-0.329584,-0.686269,-0.172485,0.301837,0.940631,-0.155265,0.045621,-0.052737,0.043342,9.296143,36.118835,15.013550,,,,,,
1478503923.44,1.097278,-1.231575,-0.009644,-0.489624,-0.785657,-0.189180,0.296140,0.943014,-0.151742,0.088824,-0.088949,0.082757,9.446167,35.818115,15.389771,,,,,,
1478503923.46,1.105767,-1.240109,0.015556,-0.601331,-0.760824,-0.199413,0.290214,0.945819,-0.145608,0.066003,-0.038074,0.080713,9.446167,35.818115,15.389771,,,,,,
1478503923.48,1.120115,-1.249501,0.046642,-0.670554,-0.782974,-0.218961,0.284263,0.948827,-0.137554,0.049812,0.010310,0.041362,9.594849,35.293091,15.391235,,,,,,
1478503923.50,1.138340,-1.259823,0.083802,-0.807355,-0.917541,-0.223766,0.277816,0.952036,-0.128239,0.061448,0.000692,0.009098,9.821167,35.367188,15.917847,,,,,,
1478503923.52,1.166109,-1.271237,0.134124,-0.994367,-1.079600,-0.221353,0.271262,0.955467,-0.116190,0.049569,-0.022560,0.022150,9.821655,35.441956,16.067749,,,,,,
1478503923.54,1.202951,-1.282984,0.196798,-1.101539,-1.212196,-0.192998,0.264866,0.958867,-0.102076,0.049816,-0.025655,0.051875,10.346375,35.066101,16.446899,,,,,,
1478503923.56,1.251367,-1.293313,0.272806,-1.156268,-1.256736,-0.154906,0.260079,0.961748,-0.086023,0.070289,-0.005037,0.082223,10.346375,35.066101,16.446899,,,,,,
1478503923.58,1.304098,-1.302178,0.352569,-1.162855,-1.185610,-0.083729,0.256017,0.964138,-0.069946,0.043452,0.010929,0.121536,10.420349,34.315491,16.822876,,,,,,
1478503923.60,1.361483,-1.308106,0.436209,-1.123945,-1.179507,0.000571,0.254012,0.965695,-0.053958,-0.001952,0.041889,0.121829,10.947021,34.013428,18.027100,,,,,,
1478503923.62,1.419672,-1.311493,0.521927,-1.141599,-1.279459,0.042142,0.253484,0.966569,-0.038602,-0.020635,0.074615,0.077298,11.097595,33.787476,18.628296,,,,,,
1478503923.64,1.483659,-1.313674,0.614710,-1.233106,-1.281256,0.023545,0.253334,0.967126,-0.022131,-0.028740,0.084144,0.057714,11.996704,33.111511,19.010376,,,,,,
1478503923.66,1.556639,-1.314362,0.715982,-1.324793,-1.256551,0.048552,0.253608,0.967301,-0.003591,-0.021888,0.082428,0.052220,11.996704,33.111511,19.010376,,,,,,
1478503923.68,1.632648,-1.311716,0.820344,-1.340148,-1.234322,0.131465,0.255701,0.966626,0.015836,-0.004603,0.110980,0.096164,12.745483,32.510803,19.166260,,,,,,
1478503923.70,1.705583,-1.306299,0.919692,-1.292900,-1.110104,0.141116,0.259053,0.965224,0.035130,0.027400,0.096849,0.113353,13.646606,31.833252,20.598267,,,,,,
1478503923.72,1.774393,-1.299266,1.012691,-1.286309,-1.032537,0.152743,0.262666,0.963362,0.054229,0.026076,0.052233,0.065995,13.871094,31.082153,21.275391,,,,,,
1478503923.74,1.841137,-1.288924,1.103879,-1.375502,-1.077074,0.251320,0.268052,0.960536,0.074284,0.011230,0.044865,0.049511,14.620544,30.481079,21.731201,,,,,,
1478503923.76,1.901481,-1.275103,1.190233,-1.373014,-1.163312,0.316399,0.275615,0.956600,0.094616,0.026342,0.048511,0.065266,14.620544,30.481079,21.731201,,,,,,
1478503923.78,1.948381,-1.260481,1.264257,-1.247272,-1.205130,0.287348,0.283849,0.952237,0.112579,0.029918,0.046618,0.081101,15.219543,29.730103,22.186157,,,,,,
1478503923.80,1.985777,-1.246965,1.328894,-1.180674,-1.207315,0.198299,0.291193,0.948023,0.128290,0.017797,-0.008967,0.089789,16.417603,28.228088,23.095947,,,,,,
1478503923.82,2.019319,-1.234912,1.390161,-1.142856,-1.246584,0.091053,0.297003,0.944119,0.142928,0.023249,-0.062482,0.102907,17.017029,27.777466,23.325684,,,,,,
1478503923.84,2.049112,-1.224633,1.448304,-1.081501,-1.259348,-0.017170,0.301213,0.940682,0.156170,0.014949,-0.085884,0.132526,17.690979,27.327026,23.405884,,,,,,
1478503923.86,2.075984,-1.216693,1.503399,-0.980504,-1.248811,-0.148629,0.303435,0.937958,0.167817,-0.022200,-0.075394,0.135558,17.690979,27.327026,23.405884,,,,,,
1478503923.88,2.098884,-1.212206,1.554125,-0.826078,-1.233091,-0.303221,0.303145,0.936392,0.176840,-0.063109,-0.067877,0.128031,18.214966,26.801453,23.560059,,,,,,
1478503923.90,2.119253,-1.211877,1.601290,-0.657515,-1.176975,-0.481216,0.299743,0.936277,0.183138,-0.045181,-0.088178,0.141951,19.637329,25.825989,23.421265,,,,,,
1478503923.92,2.137431,-1.216066,1.645555,-0.481756,-1.183619,-0.652689,0.293053,0.937740,0.186450,0.013374,-0.126735,0.165143,19.863342,26.125671,23.572754,,,,,,
1478503923.94,2.151323,-1.224546,1.685878,-0.257317,-1.216004,-0.786598,0.283775,0.940652,0.186134,0.078362,-0.174264,0.167000,19.937866,25.975769,23.498413,,,,,,
1478503923.96,2.159382,-1.237124,1.719778,-0.076702,-1.191997,-0.865479,0.272403,0.944846,0.181831,0.119977,-0.234458,0.176186,19.937866,25.975769,23.498413,,,,,,
1478503923.98,2.168410,-1.250832,1.754793,-0.106486,-1.234371,-0.896449,0.260018,0.949247,0.176979,0.085654,-0.326993,0.203316,20.535950,26.202271,22.302734,,,,,,
1478503924.00,2.181051,-1.263376,1.793243,-0.134442,-1.179125,-0.824300,0.247982,0.953117,0.173413,0.001347,-0.290398,0.219256,20.461792,26.953064,21.776855,,,,,,
1478503924.02,2.190161,-1.274164,1.826721,-0.074564,-1.137074,-0.665425,0.238006,0.956326,0.169686,-0.041198,-0.191769,0.247489,20.386780,27.103455,21.551270,,,,,,
1478503924.04,2.196529,-1.281892,1.855803,-0.164617,-1.060473,-0.531909,0.230923,0.958557,0.166864,0.078754,-0.016128,0.307821,20.611938,27.553955,21.102783,,,,,,
1478503924.06,2.211460,-1.287711,1.893589,-0.309352,-1.101384,-0.578416,0.223930,0.960198,0.166957,0.332146,0.015388,0.372258,20.611938,27.553955,21.102783,,,,,,
1478503924.08,2.230823,-1.295386,1.938320,-0.156458,-1.220676,-0.733875,0.214828,0.962314,0.166738,0.501862,0.250394,0.336558,20.759583,27.630798,19.828857,,,,,,
1478503924.10,2.215367,-1.306748,1.943495,0.567856,-0.965564,-0.234227,0.208625,0.965341,0.156818,0.332803,1.228537,0.051724,21.285645,28.230957,19.607422,,,,,,
1478503924.12,2.138644,-1.315255,1.888364,0.985211,-1.254353,-0.015400,0.213100,0.967527,0.135944,-0.297023,1.994265,-0.099475,21.586853,29.131531,19.084229,,,,,,
1478503924.14,2.046854,-1.333042,1.820625,1.232408,-1.250289,-0.361075,0.209332,0.971869,0.107934,-0.481275,-0.179404,0.152701,21.960388,29.508118,17.886963,,,,,,
1478503924.16,1.965261,-1.344471,1.752984,0.698246,-0.500370,-0.211863,0.207165,0.974498,0.086239,-0.038341,-0.675563,0.292362,21.960388,29.508118,17.886963,,,,,,
1478503924.18,1.920666,-1.357709,1.711859,0.824928,-0.223837,-0.555469,0.198667,0.977383,0.072490,0.111941,-0.446484,-0.038386,21.730835,29.737122,15.334961,,,,,,
1478503924.20,1.820665,-1.375290,1.621479,1.229894,-0.821542,-0.572560,0.188231,0.980949,0.048037,0.228548,-0.337761,-0.404314,22.632385,30.712280,14.891357,,,,,,
1478503924.22,1.699241,-1.394272,1.521964,0.951765,-1.392069,-0.878731,0.174163,0.984460,0.022494,0.204743,-0.050088,-0.401660,21.957703,31.614136,13.910767,,,,,,
1478503924.24,1.605504,-1.410518,1.463479,0.261748,-2.077066,-0.629193,0.159497,0.987183,0.005538,-0.101315,0.087158,-0.244719,21.731812,32.216064,12.708740,,,,,,
1478503924.26,1.593145,-1.418814,1.492965,-0.388047,-1.926559,-0.381771,0.151360,0.988473,0.003383,-0.201592,0.061576,0.157399,21.731812,32.216064,12.708740,,,,,,
1478503924.28,1.575343,-1.427451,1.500441,0.291542,-0.801759,-0.421264,0.142853,0.989744,0.000650,-0.195084,-0.268278,0.271476,22.027771,32.519470,10.310913,,,,,,
1478503924.30,1.448465,-1.431663,1.376108,1.116328,0.005251,-0.177383,0.137649,0.990337,-0.016923,-0.309997,-0.428432,0.081453,22.102173,32.895569,9.561279,,,,,,
1478503924.32,1.299888,-1.431070,1.229179,0.795843,-0.269045,-0.188307,0.134193,0.990254,-0.037270,-0.353248,-0.155247,-0.095771,22.178345,33.646057,9.186401,,,,,,
1478503924.34,1.273893,-1.432746,1.204397,-0.243070,0.159390,-0.081831,0.131591,0.990486,-0.040260,-0.329970,0.004509,0.079719,21.652527,33.872375,8.507324,,,,,,
1478503924.36,1.342549,-1.436036,1.263269,-0.371445,0.637135,-0.069425,0.130868,0.990934,-0.030400,-0.233957,0.168918,0.072621,21.652527,33.872375,8.507324,,,,,,
1478503924.38,1.341947,-1.439059,1.252412,0.283828,0.390763,-0.224060,0.127932,0.991335,-0.029799,-0.061556,0.199522,0.029265,22.328369,34.322266,8.362183,,,,,,
1478503924.40,1.265063,-1.441418,1.170237,0.527285,0.197595,-0.252234,0.123035,0.991642,-0.038833,0.064679,0.045101,-0.005158,21.728027,34.097473,8.432739,,,,,,
1478503924.42,1.191227,-1.442704,1.088726,0.450401,0.467865,-0.242423,0.118650,0.991807,-0.047331,0.059038,0.003127,0.028273,21.654602,34.697327,8.506958,,,,,,
1478503924.44,1.111053,-1.444037,0.995655,0.583862,0.671741,-0.346321,0.113293,0.991977,-0.056095,-0.021695,0.048077,0.052417,21.805664,35.222534,8.357788,,,,,,
1478503924.46,1.006506,-1.443951,0.875021,0.700618,0.822360,-0.364005,0.106893,0.991966,-0.067657,-0.162237,0.076378,0.098938,21.805664,35.222534,8.357788,,,,,,
1478503924.48,0.912966,-1.440836,0.762232,0.652382,0.964752,-0.236746,0.102551,0.991567,-0.079235,-0.251584,0.021632,0.146694,20.454834,35.449219,7.672485,,,,,,
1478503924.50,0.850292,-1.436042,0.680013,0.532162,0.925588,-0.113865,0.100958,0.990934,-0.088637,-0.170736,-0.050154,0.137587,19.930298,35.749756,7.518433,,,,,,
1478503924.52,0.807838,-1.431401,0.619035,0.429887,0.890868,-0.132471,0.100428,0.990300,-0.096019,0.026449,-0.057698,0.138561,19.931335,36.199829,7.443237,,,,,,
1478503924.54,0.765611,-1.428627,0.558816,0.394363,0.880560,-0.249745,0.098189,0.989911,-0.102154,0.205858,-0.070874,0.205669,19.182556,36.650085,7.512329,,,,,,
1478503924.56,0.710616,-1.426737,0.484268,0.462667,0.996443,-0.375157,0.093645,0.989641,-0.108814,0.291517,-0.113573,0.248737,19.182556,36.650085,7.512329,,,,,,
1478503924.58,0.647789,-1.423214,0.399589,0.556362,1.054540,-0.334280,0.088732,0.989129,-0.117259,0.234754,-0.179254,0.211116,19.333618,37.024902,7.588379,,,,,,
1478503924.60,0.603719,-1.416993,0.335665,0.512880,0.889509,-0.117110,0.086972,0.988196,-0.126117,0.186344,-0.217917,0.192554,18.809265,37.250183,7.584351,,,,,,
1478503924.62,0.598110,-1.407732,0.312891,0.472016,0.857067,0.267000,0.091412,0.986734,-0.134160,0.180591,-0.270075,0.229985,18.583435,36.950256,7.582764,,,,,,
1478503924.64,0.624010,-1.396004,0.324133,0.392258,0.628412,0.457455,0.101611,0.984763,-0.141130,0.220441,-0.153998,0.190767,18.585022,37.775635,7.357422,,,,,,
1478503924.66,0.639572,-1.387754,0.329008,0.254535,0.548658,0.119373,0.108640,0.983294,-0.146046,0.210696,0.050839,0.221012,18.585022,37.775635,7.357422,,,,,,
1478503924.68,0.638145,-1.387437,0.313574,-0.000436,0.789257,-0.199615,0.108617,0.983237,-0.146450,0.078471,0.187967,0.311108,18.659668,37.625671,7.358032,,,,,,
1478503924.70,0.639705,-1.390469,0.296351,0.014087,0.998632,-0.190273,0.107066,0.983785,-0.143889,0.085012,0.224162,0.446806,18.359253,37.400635,7.430908,,,,,,
1478503924.72,0.641566,-1.388750,0.278515,0.235483,0.900910,-0.044136,0.108345,0.983475,-0.145044,0.127052,0.118637,0.386316,18.210571,37.775330,7.654541,,,,,,
1478503924.74,0.636383,-1.387697,0.261125,0.019225,0.400002,-0.154205,0.108207,0.983284,-0.146436,0.157494,0.097526,0.081648,17.687988,38.074402,8.475586,,,,,,
1478503924.76,0.623313,-1.396045,0.245412,-0.431750,-0.029543,-0.509443,0.101489,0.984770,-0.141168,0.101056,0.071566,-0.275442,17.687988,38.074402,8.475586,,,,,,
1478503924.78,0.604223,-1.417950,0.229704,-1.112091,-0.221290,-0.850335,0.086498,0.988342,-0.125295,-0.114040,0.022446,-0.284816,17.912354,37.999634,8.252197,,,,,,
1478503924.80,0.650349,-1.453703,0.280547,-1.972137,-0.214655,-0.621946,0.070734,0.993152,-0.092979,-0.276011,-0.228794,-0.299309,17.538391,37.698425,9.149658,,,,,,
1478503924.82,0.976926,-1.487961,0.612696,-2.569942,-0.217461,0.255114,0.068574,0.996571,-0.046300,-0.354051,-0.445973,-0.222576,17.013611,37.473145,9.520752,,,,,,
1478503924.84,1.643347,-1.486032,1.285496,-2.635804,-0.162413,1.108397,0.084441,0.996410,0.006137,-0.473646,-0.381023,0.035718,16.792908,36.042297,13.494751,,,,,,
1478503924.86,1.996950,-1.445860,1.638672,-1.992156,0.266165,1.657370,0.113467,0.992206,0.051511,-0.312670,-0.100772,0.196536,16.792908,36.042297,13.494751,,,,,,
1478503924.88,2.064227,-1.400631,1.702285,-1.121460,0.117332,1.861442,0.149145,0.985557,0.080211,0.164194,0.223809,0.058141,18.668823,34.988831,15.234497,,,,,,
1478503924.90,2.059762,-1.365864,1.697574,-0.654987,-0.023507,1.292584,0.179655,0.979075,0.095587,0.582934,0.716894,-0.074744,19.492065,33.562012,16.141235,,,,,,
1478503924.92,2.085497,-1.346911,1.730444,-1.038469,-0.730526,0.210022,0.193255,0.975042,0.109295,0.909880,0.617258,-0.531536,20.690430,32.360413,16.825928,,,,,,
1478503924.94,2.198881,-1.329053,1.870447,-2.233465,-0.971920,0.029245,0.193708,0.970922,0.140668,0.411059,-0.579504,-0.391568,21.667236,31.832458,18.408447,,,,,,
1478503924.96,2.289554,-1.294311,1.979782,-2.004860,-0.823934,0.693459,0.205449,0.962021,0.179741,-0.096302,-0.241104,-0.127709,21.667236,31.832458,18.408447,,,,,,
1478503924.98,2.290689,-1.264811,2.006188,-0.758930,-1.457768,0.928009,0.226490,0.953551,0.198604,-0.170307,-0.142027,0.180928,22.490356,30.481018,19.165283,,,,,,
1478503925.00,2.230876,-1.248910,1.976340,0.056149,-1.580390,0.841127,0.249904,0.948640,0.193984,-0.175594,0.141493,0.249696,23.088135,29.205017,19.620483,,,,,,
1478503925.02,2.193476,-1.236723,1.964414,-0.536367,-1.086636,0.467739,0.266354,0.944715,0.191232,-0.101254,0.257113,0.052619,24.435303,28.605347,18.955933,,,,,,
1478503925.04,2.220670,-1.218962,2.010223,-1.417170,-0.700468,0.138703,0.274373,0.938742,0.208525,0.017085,0.166544,-0.133482,24.733276,28.080750,18.583374,,,,,,
1478503925.06,2.261869,-1.203847,2.070340,-1.107671,-0.843330,-0.201083,0.276454,0.933426,0.228667,0.077824,0.023437,-0.062514,24.733276,28.080750,18.583374,,,,,,
1478503925.08,2.279922,-1.202183,2.110805,-0.329814,-1.063224,-0.523275,0.273460,0.932828,0.234631,-0.031502,-0.022519,0.062884,26.458069,27.553894,19.196533,,,,,,
1478503925.10,2.280302,-1.213172,2.135645,0.183986,-1.198318,-0.820434,0.265577,0.936731,0.228043,-0.076582,-0.149103,0.116912,26.383179,27.629089,19.120972,,,,,,
1478503925.12,2.279109,-1.231566,2.160791,0.288682,-1.260935,-1.073115,0.252719,0.943011,0.216479,-0.070880,-0.237231,0.134702,26.455994,27.555481,18.146606,,,,,,
1478503925.14,2.287092,-1.251537,2.193023,0.232087,-0.984345,-1.067459,0.236729,0.949468,0.206081,-0.038472,-0.417165,0.202534,26.381287,28.607361,16.945435,,,,,,
1478503925.16,2.310744,-1.264694,2.226807,-0.104587,-0.028144,-0.697126,0.222544,0.953515,0.203181,0.088354,-0.671976,0.283757,26.381287,28.607361,16.945435,,,,,,
1478503925.18,2.355585,-1.268904,2.264353,-0.313727,0.599304,-0.462954,0.210370,0.954776,0.210114,0.213473,-0.448245,0.247681,26.007324,29.433289,16.417236,,,,,,
1478503925.20,2.401711,-1.269553,2.307927,-0.517248,-0.140930,-0.528944,0.200041,0.954968,0.219133,0.143999,-0.044308,0.007414,25.933289,29.808350,16.416504,,,,,,
1478503925.22,2.444730,-1.263935,2.365494,-0.944898,-0.714870,-0.435680,0.193872,0.953286,0.231644,-0.112832,0.266898,0.400314,25.259705,30.033020,16.861450,,,,,,
1478503925.24,2.471824,-1.255327,2.413043,-0.584151,-1.021573,-0.203299,0.192612,0.950651,0.243235,0.352447,0.113741,0.324316,25.785278,30.032349,17.165405,,,,,,
1478503925.26,2.463898,-1.256319,2.423360,0.257219,-0.704370,-0.159772,0.193943,0.950958,0.240966,0.811169,0.261703,0.160768,25.785278,30.032349,17.165405,,,,,,
1478503925.28,2.417108,-1.271241,2.385190,1.346631,-0.681760,0.087822,0.195574,0.955468,0.220979,0.452497,1.553352,-0.273530,25.635254,30.257812,16.864136,,,,,,
1478503925.30,2.336819,-1.292995,2.322440,1.325292,-1.045394,-0.451443,0.197639,0.961661,0.190125,-0.627403,1.761713,-0.439301,26.161072,30.933228,16.417603,,,,,,
1478503925.32,2.281100,-1.321664,2.288523,1.243631,-1.104201,-0.713669,0.186935,0.969127,0.160775,-0.609543,-0.524516,-0.308114,26.307007,30.710815,14.693726,,,,,,
1478503925.34,2.226272,-1.332398,2.241548,0.518781,-0.138204,0.237862,0.187207,0.971718,0.143940,-0.159024,-0.784477,0.030422,26.080627,32.064453,12.291504,,,,,,
1478503925.36,2.175955,-1.335320,2.192461,0.697833,-0.199300,0.191037,0.191874,0.972403,0.132726,-0.183100,-0.598349,-0.033575,26.080627,32.064453,12.291504,,,,,,
1478503925.38,2.101682,-1.343576,2.121664,0.973869,-0.255087,-0.029842,0.194264,0.974296,0.114054,-0.111516,-0.375480,-0.221796,26.604126,31.839905,11.845459,,,,,,
1478503925.40,2.048374,-1.362707,2.069253,0.925247,-0.055462,-1.002301,0.183476,0.978427,0.094955,-0.354832,0.183590,-0.525345,26.603210,32.065979,11.095459,,,,,,
1478503925.42,2.083903,-1.397836,2.103988,0.172472,0.235664,-1.926607,0.149937,0.985080,0.084481,-0.793705,0.612989,-0.203912,25.852600,33.193970,9.364258,,,,,,
1478503925.44,2.181623,-1.412913,2.191483,-0.133074,0.761092,-0.300402,0.128798,0.987562,0.090178,-0.519941,0.417467,0.311174,24.880127,34.019104,9.581543,,,,,,
1478503925.46,2.119568,-1.418536,2.101333,1.300433,1.775183,0.161537,0.129402,0.988431,0.079118,-0.251579,-0.133359,0.443709,24.880127,34.019104,9.581543,,,,,,
1478503925.48,1.960216,-1.434922,1.891511,1.773389,2.719347,-0.155587,0.125315,0.990783,0.051426,-0.240885,-0.585037,0.262447,24.656860,34.243347,10.179688,,,,,,
1478503925.50,1.825332,-1.446215,1.701686,1.032063,2.502691,-0.127395,0.120256,0.992250,0.031288,-0.338548,-0.461366,-0.212090,24.131836,34.469116,9.875732,,,,,,
1478503925.52,1.794719,-1.451014,1.630611,0.172035,1.804864,-0.125736,0.116513,0.992835,0.026535,-0.221204,-0.108267,-0.397339,22.709717,35.369324,10.239624,,,,,,
1478503925.54,1.866273,-1.452026,1.662957,-0.278343,2.203916,-0.112851,0.113356,0.992955,0.034504,-0.022200,0.235744,0.014415,22.336365,35.368225,11.061768,,,,,,
1478503925.56,1.922209,-1.457764,1.671018,0.355983,2.443692,-0.393952,0.105899,0.993619,0.038826,0.133222,0.388492,0.270455,22.336365,35.368225,11.061768,,,,,,
1478503925.58,1.846045,-1.470450,1.549061,1.012009,2.140636,-0.360079,0.096407,0.994970,0.027227,0.175123,0.120494,0.290797,20.389404,35.592407,12.247070,,,,,,
1478503925.60,1.671940,-1.479260,1.334058,1.111437,1.959256,-0.177227,0.090942,0.995813,0.009230,0.254380,-0.169687,0.169939,20.541809,36.041321,12.922974,,,,,,
1478503925.62,1.470191,-1.482041,1.093959,1.062809,1.830706,-0.138977,0.088191,0.996064,-0.008903,0.254735,-0.082047,0.011725,18.593323,36.717407,12.833008,,,,,,
1478503925.64,1.284996,-1.481583,0.872958,0.897601,1.710138,-0.192926,0.085481,0.996023,-0.025118,0.333556,-0.015692,0.067095,17.394409,37.318298,12.598755,,,,,,
1478503925.66,1.129490,-1.481240,0.685245,0.757154,1.502473,-0.337089,0.080868,0.995993,-0.038200,0.378971,-0.035177,0.137520,17.394409,37.318298,12.598755,,,,,,
1478503925.68,0.973639,-1.480260,0.500777,0.740899,1.368624,-0.367845,0.074766,0.995904,-0.050839,0.326037,-0.146280,0.220013,17.322327,38.217834,12.972778,,,,,,
1478503925.70,0.846492,-1.476945,0.345034,0.607325,1.442225,-0.261176,0.070188,0.995599,-0.062096,0.264529,-0.289285,0.288537,16.422363,38.518799,12.590820,,,,,,
1478503925.72,0.790878,-1.472629,0.259212,0.348474,1.551099,-0.032833,0.069682,0.995185,-0.068922,0.270116,-0.341240,0.323775,15.372375,38.819946,12.207886,,,,,,
1478503925.74,0.807724,-1.467412,0.243102,0.225957,1.680768,0.211132,0.074584,0.994661,-0.071326,0.224259,-0.267427,0.244773,14.699219,39.495239,12.277466,,,,,,
1478503925.76,0.818961,-1.461120,0.222514,0.326658,1.576516,0.062814,0.079951,0.993992,-0.074757,0.035085,-0.021518,0.059147,14.699219,39.495239,12.277466,,,,,,
1478503925.78,0.805775,-1.461753,0.174135,0.010797,1.886602,-0.360935,0.078504,0.994061,-0.075369,-0.077940,0.186542,0.133260,14.250977,39.719543,12.873901,,,,,,
1478503925.80,0.858573,-1.470883,0.183524,-0.542775,2.347327,-0.165617,0.075500,0.995013,-0.065187,-0.021789,-0.097369,0.386796,13.652771,40.169312,13.244141,,,,,,
1478503925.82,1.044448,-1.477211,0.321444,-0.808315,2.420789,0.260741,0.080801,0.995624,-0.046947,0.039210,-0.324924,0.351314,12.080017,39.867859,14.732544,,,,,,
1478503925.84,1.280304,-1.481473,0.516087,-0.958581,1.932698,-0.003338,0.085468,0.996013,-0.025550,0.079755,-0.096752,-0.028939,11.330994,39.191162,16.077148,,,,,,
1478503925.86,1.538842,-1.494651,0.740425,-1.081990,1.709189,-0.837178,0.076033,0.997102,-0.002430,-0.041014,0.231841,-0.283031,11.330994,39.191162,16.077148,,,,,,
1478503925.88,2.054716,-1.511434,1.229141,-1.728371,1.112337,-1.213461,0.052516,0.998239,0.027602,-0.195765,0.589774,-0.517501,10.734619,39.489380,17.497681,,,,,,
1478503925.90,2.662499,-1.486540,1.831690,-2.710452,-0.152411,-0.238657,0.038794,0.996453,0.074682,-0.240256,0.372627,-0.727544,9.162109,39.262756,19.060913,,,,,,
1478503925.92,2.787498,-1.425947,1.962876,-3.197935,-0.015814,0.962405,0.050050,0.989528,0.135388,0.013335,0.308248,-0.528958,7.738525,37.008179,22.576416,,,,,,
1478503925.94,2.770404,-1.363291,1.929010,-2.461526,1.216030,1.607534,0.074728,0.978548,0.191989,0.320703,0.128813,-0.214145,8.413147,34.979431,24.907593,,,,,,
1478503925.96,2.715706,-1.324174,1.847315,-0.802458,1.083315,1.473145,0.100857,0.969743,0.222322,0.662357,0.073501,-0.069658,8.413147,34.979431,24.907593,,,,,,
1478503925.98,2.664087,-1.316109,1.786236,0.212704,-0.055827,0.507506,0.115784,0.967742,0.223761,0.869217,-0.095763,-0.058341,9.164124,33.700867,27.013794,,,,,,
1478503926.00,2.623775,-1.309593,1.751869,-0.329332,-0.469134,0.754249,0.127827,0.966080,0.224388,0.620083,-0.298752,-0.146675,9.613892,32.723999,28.142700,,,,,,
1478503926.02,2.565312,-1.289402,1.701685,-0.554857,-0.432045,1.235172,0.151318,0.960669,0.232846,0.123004,-0.171775,-0.213864,10.437256,32.198853,27.924194,,,,,,
1478503926.04,2.515023,-1.266329,1.651120,-0.541416,0.089886,1.251483,0.175784,0.954007,0.242839,-0.106922,0.013507,-0.090709,11.634216,30.848083,28.083740,,,,,,
1478503926.06,2.479242,-1.242842,1.609040,-0.539716,0.227070,1.226800,0.198087,0.946703,0.253997,-0.297513,0.188520,-0.015807,11.634216,30.848083,28.083740,,,,,,
1478503926.08,2.450034,-1.221709,1.576493,-0.467583,-0.043782,0.954033,0.218132,0.939685,0.263457,-0.217003,0.118527,-0.084869,12.159424,30.471863,28.687866,,,,,,
1478503926.10,2.434482,-1.206972,1.564579,-0.385416,-0.312114,0.440740,0.231175,0.934543,0.270533,-0.024159,0.006101,-0.084299,13.658997,29.795166,29.299438,,,,,,
1478503926.12,2.426756,-1.202194,1.564447,-0.043174,-0.377328,0.019049,0.236183,0.932832,0.272108,0.126915,-0.055802,-0.016020,13.881042,28.594971,29.376709,,,,,,
1478503926.14,2.426633,-1.205163,1.569964,0.040330,-0.198448,-0.287340,0.234399,0.933898,0.269986,0.226539,-0.026503,0.021564,13.879761,28.295410,29.076904,,,,,,
1478503926.16,2.440105,-1.210578,1.588716,-0.017021,-0.248891,-0.514317,0.227474,0.935820,0.269252,0.262242,-0.100889,0.018147,13.879761,28.295410,29.076904,,,,,,
1478503926.18,2.456599,-1.218822,1.615673,0.038297,-0.581583,-0.688122,0.218114,0.938694,0.266984,0.284953,-0.261051,0.023620,14.631165,28.820068,29.082275,,,,,,
1478503926.20,2.470796,-1.229126,1.646994,0.080402,-0.830392,-0.746060,0.208278,0.942196,0.262463,0.314077,-0.481259,0.075123,13.882263,29.495728,28.851196,,,,,,
1478503926.22,2.481434,-1.237570,1.672006,0.073593,-0.442825,-0.462466,0.200588,0.944992,0.258370,0.400135,-0.662475,0.220634,14.405090,29.046326,28.255371,,,,,,
1478503926.24,2.488435,-1.247076,1.680359,0.493662,0.110623,-0.376904,0.193306,0.948058,0.252622,0.409630,-0.372222,0.184527,14.254395,29.272400,27.654175,,,,,,
1478503926.26,2.477825,-1.261209,1.669322,0.669697,-0.192111,-0.246672,0.187701,0.952459,0.239978,0.304837,0.022455,-0.065601,14.254395,29.272400,27.654175,,,,,,
1478503926.28,2.463113,-1.266399,1.663519,-0.099284,-0.571768,0.024322,0.188106,0.954028,0.233339,0.002919,0.003385,0.101408,14.104736,29.798096,27.202881,,,,,,
1478503926.30,2.462300,-1.255698,1.679923,-0.694139,-1.068682,0.152743,0.194699,0.950766,0.241115,0.141345,0.081156,0.153065,13.431946,30.848816,26.972168,,,,,,
1478503926.32,2.451332,-1.251862,1.690232,0.136086,-0.765848,-0.074152,0.199653,0.949570,0.241776,0.433816,0.167801,-0.015137,14.480652,30.323242,26.980347,,,,,,
1478503926.34,2.397024,-1.260557,1.642838,1.109914,-0.718127,0.613470,0.206879,0.952260,0.224502,0.134002,1.474711,-0.302505,14.781128,30.848755,26.532349,,,,,,
1478503926.36,2.298629,-1.274538,1.552501,1.552394,-0.393247,0.053352,0.217971,0.956435,0.194217,-0.515914,2.087418,-0.319781,14.781128,30.848755,26.532349,,,,,,
1478503926.38,2.227570,-1.300630,1.494864,1.279224,-0.859206,-0.476496,0.211370,0.963726,0.162955,-0.776067,-0.391415,-0.324393,15.080139,30.999634,25.859497,,,,,,
1478503926.40,2.176141,-1.308102,1.445552,0.493138,0.220028,0.279723,0.213539,0.965694,0.147771,-0.323005,-0.923000,0.054285,15.681702,32.951843,24.213013,,,,,,
1478503926.42,2.142538,-1.310555,1.401714,0.669121,0.426927,0.192022,0.216391,0.966328,0.139232,-0.202307,-0.534077,0.061619,15.681091,32.952271,23.912964,,,,,,
1478503926.44,2.091273,-1.316293,1.342840,0.827044,0.224691,0.037781,0.218427,0.967788,0.125201,-0.055906,-0.303009,-0.093814,15.679932,33.028320,23.237915,,,,,,
1478503926.46,2.053007,-1.333721,1.299963,0.891370,0.130519,-0.932546,0.208080,0.972029,0.108914,-0.231349,0.295412,-0.473660,15.679932,33.028320,23.237915,,,,,,
1478503926.48,2.076383,-1.362217,1.318564,0.168142,0.399321,-1.312697,0.181163,0.978326,0.100288,-0.762355,0.799140,-0.235451,15.681152,33.703613,23.012573,,,,,,
1478503926.50,2.101617,-1.373370,1.329952,0.422172,0.940918,-0.234852,0.169155,0.980575,0.099297,-0.548992,0.443849,0.219611,14.109314,35.279968,22.625000,,,,,,
1478503926.52,2.046884,-1.386591,1.241678,1.385684,2.090142,-0.178082,0.162796,0.983082,0.083946,-0.168976,-0.144032,0.381402,13.360596,35.805298,22.619141,,,,,,
1478503926.54,1.948600,-1.403134,1.089134,1.556489,2.745603,-0.209012,0.155109,0.985978,0.061558,-0.250660,-0.583573,0.095440,12.534180,35.957092,21.712891,,,,,,
1478503926.56,1.863727,-1.413431,0.952018,0.967195,2.340077,-0.066861,0.150041,0.987644,0.045254,-0.201189,-0.402408,-0.260586,12.534180,35.957092,21.712891,,,,,,
1478503926.58,1.840234,-1.416151,0.888725,0.261545,1.814845,0.046092,0.148473,0.988066,0.041001,-0.104711,-0.110869,-0.245896,11.110474,36.858582,21.251831,,,,,,
1478503926.60,1.871776,-1.415616,0.881577,0.016773,2.086842,-0.012085,0.147611,0.987984,0.045820,0.076495,0.285896,0.042803,9.015442,38.283630,21.910400,,,,,,
1478503926.62,1.894914,-1.422339,0.860012,0.454632,2.259455,-0.429355,0.140211,0.989000,0.047106,0.161791,0.373121,0.195646,7.890381,37.983643,22.277100,,,,,,
1478503926.64,1.858992,-1.436242,0.781089,0.876016,2.033854,-0.478856,0.128616,0.990961,0.038128,0.131195,0.005941,0.199146,6.990845,38.284302,22.120239,,,,,,
1478503926.66,1.762194,-1.447917,0.645464,1.041352,1.820358,-0.291335,0.120332,0.992460,0.023317,0.153701,-0.235334,0.120009,6.990845,38.284302,22.120239,,,,,,
1478503926.68,1.625910,-1.455247,0.474897,1.037943,1.564043,-0.230287,0.115117,0.993332,0.006351,0.192393,-0.156509,0.059643,5.489868,38.511169,21.358887,,,,,,
1478503926.70,1.498731,-1.460297,0.317488,0.778993,1.457588,-0.277321,0.109989,0.993901,-0.007940,0.299511,-0.120000,0.123464,3.466553,40.164001,20.142822,,,,,,
1478503926.72,1.410760,-1.465166,0.198828,0.534684,1.544610,-0.342666,0.104087,0.994426,-0.016801,0.344781,-0.115230,0.200838,2.343506,40.989746,20.058960,,,,,,
1478503926.74,1.334030,-1.470269,0.090761,0.498554,1.534132,-0.363074,0.097559,0.994951,-0.023540,0.348151,-0.165423,0.237133,1.292969,41.140869,19.601074,,,,,,
1478503926.76,1.247243,-1.472753,-0.026419,0.542016,1.459282,-0.199853,0.092807,0.995198,-0.031122,0.274564,-0.262501,0.259118,1.292969,41.140869,19.601074,,,,,,
1478503926.78,1.168819,-1.469072,-0.131770,0.558596,1.252448,0.099677,0.093455,0.994830,-0.039730,0.199880,-0.216831,0.225048,-0.282349,41.818176,18.613892,,,,,,
1478503926.80,1.117764,-1.459952,-0.205397,0.544777,1.009741,0.300097,0.099458,0.993863,-0.048416,0.161055,-0.071576,0.204453,-0.806763,42.118591,18.534790,,,,,,
1478503926.82,1.066227,-1.452710,-0.277045,0.506323,1.026371,-0.015231,0.103130,0.993036,-0.056954,0.068729,0.073721,0.174462,-1.781494,42.569702,18.077393,,,,,,
1478503926.84,1.015333,-1.453063,-0.351654,0.281237,1.260516,-0.346819,0.099802,0.993077,-0.061942,-0.061396,0.134074,0.226401,-1.857605,42.495483,17.626709,,,,,,
1478503926.86,0.989538,-1.458149,-0.406121,0.026611,1.522912,-0.367779,0.093949,0.993662,-0.061721,-0.013016,-0.018183,0.323211,-1.857605,42.495483,17.626709,,,,,,
1478503926.88,1.031456,-1.465661,-0.395722,-0.449251,1.556108,-0.232059,0.090045,0.994478,-0.053895,0.135724,-0.319185,0.183244,-2.759155,42.271545,17.170166,,,,,,
1478503926.90,1.174757,-1.477411,-0.277407,-0.973278,1.078530,-0.345984,0.086032,0.995643,-0.035973,0.224180,-0.199683,-0.086845,-3.732727,42.646729,17.387695,,,,,,
1478503926.92,1.421368,-1.496815,-0.045890,-1.322621,0.711742,-0.905143,0.073090,0.997265,-0.011004,0.252777,0.086094,-0.311292,-4.482361,42.346252,17.982178,,,,,,
1478503926.94,1.961483,-1.516157,0.480521,-1.711896,0.737910,-1.161737,0.050497,0.998508,0.020798,-0.082739,0.315472,-0.342880,-5.306580,41.669861,19.176392,,,,,,
1478503926.96,2.629832,-1.500565,1.139631,-2.190588,0.333191,-0.477149,0.034365,0.997535,0.061183,-0.280962,0.339074,-0.557246,-5.306580,41.669861,19.176392,,,,,,
1478503926.98,2.812123,-1.455541,1.321473,-2.504876,-0.053449,0.503181,0.037207,0.993366,0.108814,-0.345709,0.308621,-0.512379,-7.031372,39.341248,22.164551,,,,,,
1478503927.00,2.803964,-1.403646,1.310165,-2.298439,0.385981,1.127443,0.055111,0.986063,0.156981,-0.162045,0.131827,-0.160795,-7.105530,38.363831,23.814331,,,,,,
1478503927.02,2.755621,-1.362291,1.245371,-1.322329,0.899077,1.369409,0.077926,0.978341,0.191769,0.202912,-0.046609,0.007541,-6.727783,37.685242,26.067627,,,,,,
1478503927.04,2.690973,-1.340410,1.166446,-0.327595,0.320128,1.088342,0.099453,0.973578,0.205558,0.618076,-0.051963,-0.115867,-6.279053,36.258301,27.196655,,,,,,
1478503927.06,2.645003,-1.328967,1.125571,-0.466425,-0.606421,0.453483,0.114095,0.970902,0.210553,0.945750,-0.171585,-0.240277,-6.279053,36.258301,27.196655,,,,,,
1478503927.08,2.645119,-1.306971,1.137021,-1.317488,-0.469808,0.510340,0.124215,0.965400,0.229291,0.730079,-0.234473,-0.421521,-5.005188,35.582214,27.506592,,,,,,
1478503927.10,2.631997,-1.278215,1.132340,-1.103090,-0.398807,0.847792,0.140701,0.957502,0.251778,0.200074,-0.079374,-0.332650,-4.178650,35.280090,28.637939,,,,,,
1478503927.12,2.602637,-1.253886,1.107670,-0.739168,-0.265217,0.989038,0.159942,0.950203,0.267457,-0.140563,0.013832,0.007247,-3.202637,34.828003,29.695557,,,,,,
1478503927.14,2.555859,-1.234779,1.066421,-0.276184,-0.479557,1.107938,0.182278,0.944075,0.274766,-0.363690,0.198442,0.174422,-3.053772,34.002258,30.146973,,,,,,
1478503927.16,2.502150,-1.221663,1.021936,-0.090980,-0.654083,0.865452,0.204137,0.939670,0.274497,-0.336858,0.191510,0.036446,-3.053772,34.002258,30.146973,,,,,,
1478503927.18,2.471999,-1.211318,1.003518,-0.295695,-0.626059,0.397999,0.218342,0.936080,0.275826,-0.157246,0.009568,-0.052560,-0.805908,32.875549,30.539429,,,,,,
1478503927.20,2.466237,-1.204022,1.009152,-0.364282,-0.495472,0.024849,0.224192,0.933489,0.279887,0.079153,-0.085238,-0.052454,0.095154,33.099731,30.770996,,,,,,
1478503927.22,2.476704,-1.200507,1.028668,-0.350033,-0.340798,-0.293593,0.223273,0.932223,0.284798,0.218759,-0.045672,-0.025353,0.395874,33.023926,31.223389,,,,,,
1478503927.24,2.496259,-1.202462,1.057439,-0.141861,-0.413269,-0.574431,0.216565,0.932928,0.287653,0.247531,-0.070074,-0.036768,0.620605,32.873718,31.300049,,,,,,
1478503927.26,2.513388,-1.211418,1.088069,0.126938,-0.681690,-0.779058,0.206687,0.936115,0.284549,0.223656,-0.174397,-0.039920,0.620605,32.873718,31.300049,,,,,,
1478503927.29,2.529468,-1.224036,1.122409,0.161068,-0.863406,-0.887173,0.195282,0.940479,0.278146,0.204315,-0.388446,0.021873,0.768738,32.424194,30.926392,,,,,,
1478503927.31,2.550514,-1.235355,1.161902,0.039574,-0.730265,-0.805012,0.183441,0.944265,0.273336,0.236221,-0.526952,0.140528,0.319824,32.498779,31.372925,,,,,,
1478503927.33,2.569758,-1.243947,1.191688,0.208104,-0.274052,-0.583364,0.173750,0.947059,0.269983,0.333513,-0.489722,0.207343,0.319824,32.498779,31.372925,,,,,,
1478503927.35,2.580499,-1.255396,1.205551,0.354552,-0.175912,-0.437937,0.165060,0.950672,0.262636,0.263255,-0.236561,0.041472,0.321106,33.249207,31.072632,,,,,,
1478503927.37,2.586116,-1.256199,1.220983,-0.442930,-0.541897,-0.030865,0.163179,0.950921,0.262910,0.058332,-0.007852,0.012435,0.321106,33.249207,31.072632,,,,,,
1478503927.39,2.582778,-1.238215,1.231999,-0.978245,-0.947239,0.508640,0.173096,0.945203,0.276821,0.001495,0.234195,0.268071,0.394531,32.949829,30.623291,,,,,,
1478503927.41,2.550298,-1.223728,1.219023,-0.018868,-0.711205,0.545488,0.189608,0.940374,0.282393,0.554243,0.640513,0.001771,0.919312,32.498901,31.077515,,,,,,
1478503927.43,2.480964,-1.230459,1.153451,1.448166,-0.633687,0.914297,0.204827,0.942642,0.263574,0.303428,2.053085,-0.210535,1.821289,32.647217,31.909180,,,,,,
1478503927.45,2.367345,-1.248442,1.047838,1.809690,-0.517774,0.235892,0.221500,0.948492,0.226495,-0.687442,1.346796,-0.321939,3.545105,33.999817,29.596558,,,,,,
1478503927.47,2.298536,-1.276295,0.984975,1.579105,-0.370450,-0.287204,0.216734,0.956947,0.193078,-0.838666,-0.943092,-0.238366,3.545105,33.999817,29.596558,,,,,,
1478503927.49,2.226421,-1.287352,0.907005,0.984497,0.479737,0.385256,0.221681,0.960098,0.170498,-0.224870,-0.776657,-0.011304,3.619446,34.676453,28.471680,,,,,,
1478503927.51,2.185080,-1.294590,0.849929,0.821963,0.689166,0.088113,0.222853,0.962097,0.157181,-0.202315,-0.629898,-0.094712,3.544067,35.052490,27.795898,,,,,,
1478503927.53,2.153239,-1.302045,0.805746,0.613869,0.412533,-0.009478,0.221748,0.964103,0.146058,-0.120369,-0.290290,-0.374924,3.545166,35.652893,27.570679,,,,,,
1478503927.55,2.134521,-1.311621,0.784240,0.434053,-0.062336,-0.481317,0.216629,0.966602,0.136942,-0.295578,0.432523,-0.537302,2.645874,36.854980,26.438354,,,,,,
1478503927.57,2.162914,-1.331856,0.813662,0.137130,0.140953,-1.267794,0.196382,0.971589,0.132092,-0.724016,1.005919,-0.011929,2.645874,36.854980,26.438354,,,,,,
1478503927.59,2.180488,-1.349842,0.820612,0.817566,0.850725,-0.481663,0.179673,0.975689,0.125495,-0.511781,0.310978,0.234933,2.644348,36.705872,25.838501,,,,,,
1478503927.61,2.118072,-1.369446,0.724357,1.581823,2.088434,-0.198320,0.170783,0.979797,0.104069,-0.262168,-0.364349,0.279797,1.744690,36.931458,25.756470,,,,,,
1478503927.63,2.051459,-1.386057,0.601426,1.291474,2.972711,-0.121424,0.162876,0.982984,0.084932,-0.316654,-0.595350,0.234678,0.395691,38.058472,24.845947,,,,,,
1478503927.65,2.013367,-1.395937,0.505302,0.826356,2.654044,-0.026625,0.157209,0.984751,0.074505,-0.273679,-0.532755,-0.049603,-2.529114,39.562622,23.023071,,,,,,
1478503927.67,1.998946,-1.399596,0.443608,0.396687,2.208655,0.120722,0.154987,0.985381,0.070734,-0.151447,-0.286971,-0.223871,-2.529114,39.562622,23.023071,,,,,,
1478503927.69,2.022125,-1.398275,0.422792,0.016683,2.223781,0.079224,0.154477,0.985155,0.074874,-0.005872,0.114912,-0.104232,-3.655579,39.489197,22.414795,,,,,,
1478503927.71,2.073480,-1.400949,0.427819,0.093029,2.393210,-0.280415,0.148122,0.985611,0.081436,0.130534,0.435791,0.096100,-5.080383,39.865479,22.028931,,,,,,
1478503927.73,2.104980,-1.410787,0.412157,0.528909,2.321749,-0.347103,0.137131,0.987226,0.081120,0.122894,0.275515,0.221645,-6.054382,40.165771,22.171387,,,,,,
1478503927.75,2.076974,-1.421562,0.338215,0.887998,2.227603,-0.071410,0.130037,0.988885,0.072086,0.157576,-0.076379,0.247341,-8.380737,40.844177,20.653687,,,,,,
1478503927.77,1.991163,-1.430021,0.209671,1.083299,1.973689,0.071628,0.128095,0.990107,0.057260,0.196123,-0.134700,0.140326,-8.380737,40.844177,20.653687,,,,,,
1478503927.79,1.881587,-1.436933,0.063392,1.026308,1.683773,-0.005952,0.127070,0.991054,0.040815,0.256643,-0.100490,0.061846,-9.281982,41.070984,19.746826,,,,,,
1478503927.81,1.781466,-1.444083,-0.069733,0.885358,1.554863,-0.196011,0.123580,0.991983,0.026427,0.343186,-0.080651,0.046968,-10.182800,41.748352,18.464722,,,,,,
1478503927.83,1.690094,-1.452104,-0.191564,0.747231,1.461949,-0.306272,0.117572,0.992964,0.014093,0.314633,-0.091490,0.073630,-11.084290,42.050537,17.332764,,,,,,
1478503927.85,1.613595,-1.458941,-0.298685,0.603399,1.545254,-0.257158,0.111520,0.993751,0.004776,0.210928,-0.240638,0.233597,-12.585571,42.953857,15.596069,,,,,,
1478503927.87,1.538471,-1.461299,-0.406127,0.602020,1.595848,-0.008150,0.109222,0.994011,-0.003532,0.125245,-0.289864,0.284278,-12.585571,42.953857,15.596069,,,,,,
1478503927.89,1.466818,-1.456521,-0.508320,0.564322,1.452930,0.318662,0.113411,0.993478,-0.011835,0.071007,-0.203164,0.345545,-13.787476,42.655396,14.987183,,,,,,
1478503927.91,1.411715,-1.446472,-0.589015,0.555889,1.104013,0.450081,0.122438,0.992282,-0.019644,0.104704,-0.045779,0.296423,-14.013123,43.031616,14.235352,,,,,,
1478503927.93,1.348907,-1.439991,-0.672332,0.576229,0.998370,0.034134,0.127235,0.991457,-0.028705,0.078774,0.160551,0.202167,-13.938904,43.558167,13.185547,,,,,,
1478503927.95,1.293469,-1.442248,-0.749220,0.365876,1.073103,-0.357807,0.123297,0.991749,-0.035098,0.035105,0.207378,0.204120,-14.689758,44.235474,11.904663,,,,,,
1478503927.97,1.273778,-1.449171,-0.792438,0.021589,1.248648,-0.399352,0.116013,0.992613,-0.035509,0.142822,-0.048399,0.191484,-14.689758,44.235474,11.904663,,,,,,
1478503927.99,1.341221,-1.457237,-0.750807,-0.592454,1.292999,-0.306989,0.110343,0.993559,-0.025787,0.265375,-0.247282,0.001113,-15.067078,43.561096,11.602173,,,,,,
1478503928.01,1.527124,-1.468261,-0.585714,-1.134388,0.954973,-0.545771,0.102259,0.994748,-0.004469,0.312414,-0.049466,-0.251177,-15.593201,43.562317,10.998169,,,,,,
1478503928.03,1.829035,-1.482074,-0.297992,-1.379385,0.738648,-1.011974,0.085668,0.996067,0.022628,0.128687,0.166958,-0.317733,-16.193054,43.036438,11.743896,,,,,,
1478503928.05,2.267973,-1.487993,0.127464,-1.536918,0.727513,-1.039435,0.063409,0.996574,0.053104,-0.144525,0.252907,-0.370135,-18.441589,42.209900,13.527466,,,,,,
1478503928.07,2.612042,-1.469789,0.461967,-1.799664,0.421842,-0.249491,0.050937,0.994903,0.087025,-0.259326,0.171326,-0.502537,-18.441589,42.209900,13.527466,,,,,,
1478503928.09,2.714276,-1.431166,0.559955,-2.085565,0.180813,0.702032,0.057679,0.990267,0.126663,-0.393861,0.060972,-0.489257,-19.341980,41.008484,14.796387,,,,,,
1478503928.11,2.711649,-1.386650,0.550718,-1.870913,0.466427,1.118996,0.076323,0.983093,0.166443,-0.282881,0.015000,-0.217224,-19.567078,39.956604,16.070190,,,,,,
1478503928.13,2.674901,-1.349656,0.499052,-1.180938,0.781660,1.351175,0.098690,0.975648,0.195886,0.084523,-0.133607,0.012350,-17.838135,39.351746,18.783447,,,,,,
1478503928.15,2.632165,-1.323331,0.438770,-0.695785,0.793260,1.117505,0.119455,0.969536,0.213845,0.432531,0.029716,0.004432,-17.387695,39.200806,19.236816,,,,,,
1478503928.17,2.616733,-1.303457,0.409964,-0.758693,0.474362,0.606685,0.132371,0.964477,0.228608,0.717253,0.237824,-0.165330,-17.387695,39.200806,19.236816,,,,,,
1478503928.19,2.640757,-1.281120,0.430550,-1.341438,0.120708,0.242061,0.137154,0.958336,0.250560,0.746788,0.046562,-0.366573,-16.936951,39.200012,19.615234,,,,,,
1478503928.21,2.648205,-1.252761,0.434299,-1.054219,0.235585,0.884293,0.148099,0.949852,0.275406,0.350467,-0.243843,-0.383804,-16.711975,38.674011,20.217285,,,,,,
1478503928.23,2.611565,-1.234854,0.392915,-0.144041,0.028228,1.045027,0.166662,0.944100,0.284428,0.074351,-0.000619,-0.209080,-15.885498,37.845886,22.023804,,,,,,
1478503928.25,2.555387,-1.226243,0.337793,0.187340,-0.360790,0.986764,0.186859,0.941226,0.281383,-0.030487,-0.014148,-0.019176,-15.210266,38.145996,21.728760,,,,,,
1478503928.27,2.506074,-1.217652,0.296727,-0.081205,-0.603924,0.693985,0.205294,0.938290,0.278327,-0.033480,0.106434,-0.026222,-15.210266,38.145996,21.728760,,,,,,
1478503928.29,2.487432,-1.207502,0.288480,-0.427566,-0.496789,0.263990,0.216231,0.934731,0.281995,0.043596,0.144797,-0.016355,-14.309692,38.370544,21.735474,,,,,,
1478503928.31,2.487748,-1.200682,0.298286,-0.291333,-0.438247,-0.023829,0.220015,0.932286,0.287117,0.112673,-0.022938,-0.041039,-13.709412,38.144531,22.189941,,,,,,
1478503928.33,2.487202,-1.201201,0.308282,0.012327,-0.535566,-0.256202,0.219877,0.932473,0.286614,0.143862,-0.103082,-0.054985,-12.732971,37.992737,23.097412,,,,,,
1478503928.35,2.487829,-1.208199,0.321865,0.183953,-0.646246,-0.506312,0.215723,0.934979,0.281564,0.145071,-0.178036,-0.042566,-13.333252,37.993225,22.942871,,,,,,
1478503928.37,2.496180,-1.219608,0.345839,0.185298,-0.759512,-0.785031,0.206934,0.938964,0.274816,0.165228,-0.271927,0.005808,-13.333252,37.993225,22.942871,,,,,,
1478503928.39,2.517889,-1.231348,0.387535,-0.061220,-0.952897,-0.994733,0.194468,0.942938,0.270276,0.224935,-0.456092,0.070834,-13.333313,37.918152,23.017822,,,,,,
1478503928.41,2.556715,-1.238731,0.446088,-0.320200,-0.652279,-0.979582,0.179982,0.945371,0.271809,0.255855,-0.502363,0.211910,-13.708862,37.618225,23.090210,,,,,,
1478503928.43,2.602049,-1.243260,0.496771,-0.122009,0.149272,-0.708266,0.165277,0.946838,0.276010,0.293326,-0.351242,0.148185,-14.084534,37.017700,23.537720,,,,,,
1478503928.45,2.626887,-1.250370,0.518033,0.230386,0.152774,-0.329502,0.155054,0.949101,0.274163,0.130362,0.069927,-0.110009,-14.834229,37.017822,23.682129,,,,,,
1478503928.47,2.627467,-1.247609,0.520023,-0.489032,-0.151319,0.405771,0.156183,0.948228,0.276533,-0.108957,-0.109513,0.186098,-14.834229,37.017822,23.682129,,,,,,
1478503928.49,2.598309,-1.225288,0.499303,-0.840268,-0.794467,1.017971,0.175078,0.940903,0.289911,0.248064,0.095397,0.256475,-15.585022,36.943665,23.376465,,,,,,
1478503928.51,2.556270,-1.212758,0.472509,0.185123,-0.589313,0.361175,0.193606,0.936586,0.292102,0.731580,0.173491,0.112775,-14.835388,36.342468,23.907349,,,,,,
1478503928.53,2.538621,-1.229309,0.455976,1.164007,-0.143571,-0.389919,0.189913,0.942258,0.275832,0.365263,1.236514,-0.376067,-13.034119,36.565979,24.295898,,,,,,
1478503928.55,2.475118,-1.251550,0.407766,1.492528,-0.940773,0.121931,0.194028,0.949472,0.246689,-0.294950,2.058737,-0.187805,-13.108337,37.617432,23.394653,,,,,,
1478503928.57,2.423204,-1.280063,0.356631,1.582406,0.042530,-0.583771,0.188668,0.958034,0.215813,-0.862924,0.281254,-0.382118,-13.108337,37.617432,23.394653,,,,,,
1478503928.59,2.372162,-1.297494,0.299356,0.914773,0.392700,0.413722,0.187786,0.962885,0.193881,-0.270885,-0.958048,-0.108370,-12.807312,38.442993,22.871582,,,,,,
1478503928.61,2.313657,-1.303205,0.225917,1.027369,0.659129,0.444805,0.194747,0.964411,0.178846,-0.057784,-0.554682,0.067629,-13.708923,38.745361,21.664673,,,,,,
1478503928.63,2.239574,-1.312074,0.142082,1.107324,0.129664,0.309795,0.200731,0.966718,0.158631,-0.038469,-0.507596,-0.199571,-13.111450,39.197693,19.869019,,,,,,
1478503928.65,2.177892,-1.324455,0.080285,0.945302,-0.167380,-0.352762,0.200282,0.969811,0.139117,0.044958,-0.072381,-0.489870,-13.035278,40.248779,19.119141,,,,,,
1478503928.67,2.169679,-1.350857,0.075999,0.619414,-0.243082,-1.433839,0.180201,0.975911,0.122987,-0.373423,0.511272,-0.511064,-13.035278,40.248779,19.119141,,,,,,
1478503928.69,2.221084,-1.371489,0.133141,-0.042441,-0.118726,-0.805353,0.157583,0.980204,0.119867,-0.613210,0.539236,0.043128,-13.409790,40.924866,18.515869,,,,,,
1478503928.71,2.207143,-1.383265,0.106617,1.053066,1.160836,-0.147678,0.149944,0.982468,0.110790,-0.425716,0.104340,0.383411,-14.237061,40.325806,18.135010,,,,,,
1478503928.73,2.110242,-1.401865,-0.032626,1.642202,2.464387,-0.102781,0.144254,0.985765,0.086361,-0.249906,-0.525484,0.229816,-15.364990,40.403809,16.551514,,,,,,
1478503928.75,2.026178,-1.416863,-0.171630,1.114373,2.614949,-0.109104,0.137701,0.988176,0.067433,-0.228277,-0.585038,-0.012334,-16.266235,41.306885,14.819214,,,,,,
1478503928.77,1.985512,-1.422532,-0.256208,0.459704,1.888471,0.086402,0.135200,0.989029,0.059522,-0.088782,-0.375732,-0.210355,-16.266235,41.306885,14.819214,,,,,,
1478503928.79,1.998720,-1.420267,-0.277430,-0.082743,1.701878,0.184832,0.136439,0.988692,0.062231,0.023259,0.008699,-0.111792,-17.318665,41.609741,13.236206,,,,,,
1478503928.81,2.046083,-1.418513,-0.265351,-0.067733,1.851152,-0.087824,0.134882,0.988427,0.069415,0.136542,0.419043,0.096936,-18.295410,41.912170,11.953857,,,,,,
1478503928.83,2.082017,-1.425326,-0.267153,0.352781,1.871556,-0.371895,0.126424,0.989438,0.070919,0.202342,0.355334,0.204609,-18.896912,41.763306,11.424316,,,,,,
1478503928.85,2.059717,-1.437135,-0.324446,0.782898,1.673299,-0.269166,0.117651,0.991081,0.062590,0.244318,0.006707,0.189225,-18.898193,42.215027,10.223999,,,,,,
1478503928.87,1.972160,-1.448607,-0.446247,1.038890,1.671196,-0.150661,0.112199,0.992544,0.047617,0.226775,-0.128424,0.105886,-18.898193,42.215027,10.223999,,,,,,
1478503928.89,1.838419,-1.458610,-0.611990,1.081925,1.461643,-0.165009,0.107966,0.993714,0.029604,0.188283,-0.092957,0.015180,-19.950317,42.442627,8.866089,,,,,,
1478503928.91,1.691413,-1.466930,-0.785950,0.956023,1.228335,-0.264344,0.102926,0.994611,0.012475,0.183817,-0.065610,0.046897,-21.454773,42.521973,6.529785,,,,,,
1478503928.93,1.541642,-1.473866,-0.960041,0.854987,1.161799,-0.328667,0.096738,0.995306,-0.002821,0.175845,-0.097998,0.144850,-21.457092,42.749084,5.104614,,,,,,
1478503928.95,1.400973,-1.478181,-1.126042,0.704812,1.323732,-0.243515,0.091153,0.995714,-0.015630,0.169223,-0.217272,0.284948,-21.533264,42.825073,4.429077,,,,,,
1478503928.97,1.302214,-1.477058,-1.255855,0.541264,1.651228,0.028664,0.090245,0.995610,-0.024838,0.195430,-0.368474,0.367551,-21.533264,42.825073,4.429077,,,,,,
1478503928.99,1.261951,-1.470429,-1.328845,0.380155,1.523625,0.337743,0.095458,0.994967,-0.030456,0.200684,-0.386493,0.289261,-22.135437,42.902222,3.224487,,,,,,
1478503929.01,1.248552,-1.460496,-1.366684,0.345316,1.059091,0.368065,0.104411,0.993923,-0.034861,0.222967,-0.189663,0.230890,-21.465576,42.530029,1.129761,,,,,,
1478503929.03,1.210106,-1.457633,-1.425055,0.334761,0.993147,-0.196077,0.105656,0.993604,-0.039852,0.152676,0.193316,0.143063,-21.316101,42.605469,0.755737,,,,,,
1478503929.05,1.179593,-1.463850,-1.474543,0.036437,0.836152,-0.448700,0.098679,0.994287,-0.040701,0.003021,0.316993,0.183752,-21.092651,43.057434,-0.592773,,,,,,
1478503929.07,1.176084,-1.472431,-1.492193,-0.188890,0.702904,-0.435896,0.090655,0.995166,-0.037765,0.229703,0.197613,0.204360,-21.092651,43.057434,-0.592773,,,,,,
1478503929.09,1.235084,-1.485776,-1.448998,-0.563951,0.859766,-0.677708,0.080178,0.996388,-0.027976,0.378135,0.185665,-0.027246,-21.692871,42.982727,-0.597290,,,,,,
1478503929.11,1.396978,-1.507441,-1.302416,-0.929609,0.757396,-1.035104,0.062359,0.997994,-0.010950,0.259113,0.153953,-0.354300,-22.368896,42.457825,-0.452026,,,,,,
1478503929.13,1.813257,-1.526821,-0.900927,-1.090329,0.771463,-0.879527,0.042675,0.999033,0.010555,-0.049511,-0.020640,-0.313915,-23.119873,41.632446,0.067627,,,,,,
1478503929.15,2.377942,-1.523607,-0.349495,-1.233501,0.628280,-0.210526,0.032622,0.998887,0.034073,-0.200271,-0.196061,-0.392777,-24.170898,40.957397,0.435059,,,,,,
1478503929.17,2.612348,-1.495936,-0.125895,-1.726466,0.563657,0.561819,0.037760,0.997199,0.064558,-0.337809,-0.281425,-0.353972,-24.170898,40.957397,0.435059,,,,,,
1478503929.19,2.665613,-1.453192,-0.086081,-2.058750,0.736185,0.985503,0.053763,0.993093,0.104291,-0.336188,-0.172368,-0.199583,-24.243530,41.105957,1.409668,,,,,,
1478503929.21,2.673969,-1.409607,-0.089331,-1.830935,0.447274,1.020194,0.072345,0.987037,0.143262,-0.033374,0.022286,-0.062009,-22.814697,40.952087,3.520386,,,,,,
1478503929.23,2.663464,-1.370643,-0.106288,-1.616372,0.299832,1.038630,0.091480,0.980036,0.176523,0.376354,0.231924,-0.030649,-21.912292,41.024963,4.652100,,,,,,
1478503929.25,2.661650,-1.333612,-0.119659,-1.563894,0.772975,0.917910,0.108491,0.972003,0.208421,0.767944,0.543133,-0.169724,-21.009155,41.247559,5.933716,,,,,,
1478503929.27,2.682883,-1.302820,-0.113369,-1.309992,0.559377,0.400154,0.117243,0.964309,0.237409,0.827536,0.334809,-0.485975,-21.009155,41.247559,5.933716,,,,,,
1478503929.29,2.704804,-1.280351,-0.092887,-1.053170,-0.008889,0.239562,0.121147,0.958117,0.259492,0.358101,-0.541689,-0.380494,-20.255859,41.770752,6.914062,,,,,,
1478503929.31,2.689921,-1.259540,-0.109651,-0.641127,0.003374,0.965668,0.133671,0.951950,0.275543,0.008343,-0.286071,-0.183502,-19.878174,41.167419,9.017334,,,,,,
1478503929.33,2.627669,-1.245884,-0.168855,0.080356,-0.462863,1.173661,0.156930,0.947679,0.277988,-0.114847,-0.017000,0.053921,-19.277710,41.241821,9.171753,,,,,,
1478503929.35,2.557196,-1.238453,-0.233061,0.199743,-0.452306,0.997595,0.179996,0.945280,0.272115,-0.106586,0.141466,0.124675,-18.077087,41.466187,9.180664,,,,,,
1478503929.37,2.521649,-1.228296,-0.267295,-0.308480,0.042274,0.603378,0.195121,0.941918,0.273347,-0.026558,0.328681,0.069427,-18.077087,41.466187,9.180664,,,,,,
1478503929.39,2.529314,-1.214066,-0.263314,-0.739082,0.216571,0.223914,0.200704,0.937044,0.285774,0.147273,0.198561,-0.144066,-16.575195,41.914917,9.566650,,,,,,
1478503929.41,2.546242,-1.204714,-0.246125,-0.366300,-0.097673,-0.109941,0.200744,0.933737,0.296374,0.232179,0.034433,-0.184390,-16.123291,42.063538,10.320068,,,,,,
1478503929.43,2.556160,-1.208941,-0.229159,0.212631,-0.391188,-0.519339,0.195612,0.935242,0.295058,0.195746,-0.077667,-0.075057,-16.199158,41.538269,10.544678,,,,,,
1478503929.45,2.564045,-1.224353,-0.208614,0.527916,-0.700988,-0.855645,0.185387,0.940586,0.284480,0.185020,-0.220036,0.020055,-16.275024,41.088013,10.694336,,,,,,
1478503929.47,2.584910,-1.242757,-0.167936,0.305317,-0.961225,-1.180080,0.170235,0.946676,0.273541,0.202888,-0.313314,0.103671,-16.275024,41.088013,10.694336,,,,,,
1478503929.49,2.630188,-1.254319,-0.103252,-0.249894,-0.576826,-1.106008,0.152313,0.950338,0.271403,0.258149,-0.578466,0.259420,-16.949585,41.238281,10.764160,,,,,,
1478503929.51,2.691254,-1.253832,-0.040112,-0.493877,0.396070,-0.727738,0.135667,0.950186,0.280609,0.374313,-0.553396,0.281617,-18.526001,40.789307,10.602539,,,,,,
1478503929.53,2.734281,-1.255051,-0.005263,0.022979,0.394907,-0.416192,0.123012,0.950565,0.285121,0.282033,-0.160526,0.032598,-19.125671,40.714233,10.823242,,,,,,
1478503929.55,2.744714,-1.254117,0.006471,-0.367319,-0.265008,0.129821,0.120374,0.950275,0.287207,-0.073514,-0.231616,0.133768,-19.278137,40.114990,10.372314,,,,,,
1478503929.57,2.720677,-1.234051,-0.003572,-1.037534,-1.001777,0.761701,0.135007,0.943835,0.301577,-0.024610,0.188382,0.102110,-19.278137,40.114990,10.372314,,,,,,
1478503929.59,2.653213,-1.215637,-0.055279,0.115193,-0.507975,1.369791,0.163158,0.937591,0.307087,0.476994,0.793396,-0.269260,-18.898499,40.562256,12.099854,,,,,,
1478503929.61,2.578801,-1.225046,-0.127832,1.404409,-0.474174,0.335743,0.180821,0.940822,0.286633,0.223003,1.802083,-0.286648,-17.921082,41.236206,12.481812,,,,,,
1478503929.63,2.538884,-1.252383,-0.159501,1.367904,-0.552284,-0.514873,0.177466,0.949733,0.257900,-0.627936,-0.297191,-0.354259,-16.722656,41.236816,11.665894,,,,,,
1478503929.65,2.515318,-1.270840,-0.179504,0.640144,0.091531,-0.130245,0.173189,0.955350,0.239401,-0.297914,-0.659909,-0.174460,-16.949707,41.313538,10.614136,,,,,,
1478503929.67,2.505512,-1.281339,-0.197088,0.667431,0.411317,-0.056067,0.169560,0.958399,0.229610,-0.213658,-0.429682,-0.225216,-16.949707,41.313538,10.614136,,,,,,
