timestamp(unix),attitude_roll(radians),attitude_pitch(radians),attitude_yaw(radians),rotation_rate_x(radians/s),rotation_rate_y(radians/s),rotation_rate_z(radians/s),gravity_x(G),gravity_y(G),gravity_z(G),user_acc_x(G),user_acc_y(G),user_acc_z(G),magnetic_field_x(microteslas),magnetic_field_y(microteslas),magnetic_field_z(microteslas),latitude(degree),longitude(degree),altitude(meter),speed(m/s),course(degree),timestamp(unix)
1478503975.64,0.618826,-1.411480,0.292407,0.036568,-0.084889,0.003934,0.092026,0.987336,-0.129224,0.009613,-0.007493,-0.008547,20.448547,38.255615,6.802368,,,,,,
,,,,,,,,,,,,,,,,37.392598,-122.003843,10.924927,-1.000000,-1.000000,1478503975.63
,,,,,,,,,,,,,,,,37.391756,-122.011203,10.924927,1.560000,-1.000000,1478503688.00
1478503975.66,0.617296,-1.410849,0.292186,0.026036,-0.056144,0.000641,0.092189,0.987236,-0.129873,0.004140,-0.003654,0.006079,21.198547,38.255249,6.808105,,,,,,
,,,,,,,,,,,,,,,,37.392598,-122.003843,10.924927,-1.000000,-1.000000,1478503975.64
1478503975.68,0.616654,-1.410640,0.292125,0.019787,-0.018909,-0.001578,0.092225,0.987202,-0.130101,0.002472,-0.011708,0.007924,21.573364,38.180054,6.810913,,,,,,
,,,,,,,,,,,,,,,,37.392598,-122.003843,10.924927,-1.000000,-1.000000,1478503975.64
1478503975.70,0.616099,-1.410050,0.291726,0.021899,-0.007238,0.007997,0.092488,0.987108,-0.130627,0.006572,-0.012819,-0.003956,21.348877,38.330017,6.884155,,,,,,
1478503975.72,0.616389,-1.409315,0.292029,0.008073,0.004495,0.011098,0.092946,0.986990,-0.131192,0.006221,-0.001166,-0.009722,21.348877,38.330017,6.884155,,,,,,
1478503975.74,0.614916,-1.408636,0.290726,0.011264,-0.014635,0.001565,0.093139,0.986881,-0.131876,0.000580,-0.002140,-0.014883,21.648621,38.480286,6.586304,,,,,,
1478503975.76,0.610755,-1.408296,0.287084,0.020840,-0.031663,-0.005809,0.092782,0.986826,-0.132537,-0.010705,-0.004541,-0.005875,21.198425,38.330444,6.657959,,,,,,
1478503975.78,0.605619,-1.408111,0.282750,0.020833,-0.043349,-0.011115,0.092204,0.986796,-0.133163,-0.007594,0.001394,-0.003968,21.274353,38.404785,7.033569,,,,,,
1478503975.80,0.603363,-1.408135,0.280843,0.007155,-0.006083,-0.017634,0.091890,0.986800,-0.133351,-0.001634,0.000703,0.001851,21.423035,38.255432,6.584717,,,,,,
1478503975.82,0.599730,-1.408106,0.277356,0.016719,-0.014617,-0.018633,0.091421,0.986795,-0.133707,-0.004507,-0.010889,-0.003287,21.423035,38.255432,6.584717,,,,,,
1478503975.84,0.596138,-1.407632,0.274175,0.032609,-0.023191,-0.008951,0.091203,0.986718,-0.134422,0.003692,-0.016000,0.000343,20.973083,38.180603,6.656372,,,,,,
1478503975.86,0.596046,-1.407040,0.274108,0.018873,0.010873,-0.008012,0.091518,0.986622,-0.134914,0.017857,-0.010105,0.003093,21.497925,38.330566,6.435303,,,,,,
1478503975.88,0.597116,-1.406621,0.274710,0.007198,0.017296,-0.011276,0.091895,0.986554,-0.135157,0.010812,-0.007901,-0.005681,21.648743,38.405090,6.736450,,,,,,
1478503975.90,0.595916,-1.406221,0.273252,0.013548,0.008766,-0.009098,0.091954,0.986488,-0.135594,0.006480,-0.005943,-0.004985,21.048462,38.555847,6.431763,,,,,,
1478503975.92,0.593279,-1.405837,0.270578,0.015629,-0.004000,-0.008003,0.091808,0.986425,-0.136150,-0.002834,-0.002843,-0.006001,21.048462,38.555847,6.431763,,,,,,
1478503975.94,0.590202,-1.405596,0.267780,0.028341,-0.024241,-0.007902,0.091521,0.986385,-0.136630,-0.002654,-0.002148,0.000522,21.347778,38.255737,6.434204,,,,,,
1478503975.96,0.586321,-1.405186,0.264552,0.031532,-0.036998,-0.014252,0.091214,0.986318,-0.137320,0.001056,-0.010427,0.002112,21.422974,38.405762,6.359741,,,,,,
1478503975.98,0.583183,-1.404814,0.262046,0.024097,-0.030595,-0.014302,0.090985,0.986257,-0.137912,0.003177,-0.011983,0.000843,21.423157,38.480774,6.359741,,,,,,
1478503976.00,0.581989,-1.404603,0.260839,0.002934,0.019432,-0.009171,0.090934,0.986222,-0.138195,0.006600,-0.012925,0.002071,21.122253,38.105896,6.357666,,,,,,
1478503976.02,0.581625,-1.404842,0.259671,-0.004423,0.046037,-0.010316,0.090754,0.986261,-0.138031,-0.004573,-0.010919,-0.000977,21.122253,38.105896,6.357666,,,,,,
1478503976.04,0.580233,-1.404975,0.257604,-0.000194,0.019461,-0.019834,0.090490,0.986283,-0.138048,-0.000830,-0.014649,-0.004775,21.422791,38.405884,6.284668,,,,,,
1478503976.06,0.577106,-1.404713,0.254785,-0.002430,-0.037915,-0.034660,0.090199,0.986240,-0.138546,0.009273,-0.034732,-0.011280,21.497620,38.330811,6.285278,,,,,,
1478503976.08,0.572450,-1.404055,0.251391,-0.024832,-0.075026,-0.049625,0.089905,0.986131,-0.139510,0.002960,-0.038987,-0.020646,20.898621,38.480652,6.580688,,,,,,
1478503976.10,0.561426,-1.404705,0.241983,-0.033284,-0.088788,-0.067749,0.088020,0.986239,-0.139950,-0.022102,-0.038454,-0.026508,20.973511,38.480774,6.506348,,,,,,
1478503976.12,0.548263,-1.404854,0.231389,0.039735,-0.175194,-0.037414,0.086094,0.986263,-0.140972,-0.049061,-0.047771,-0.047444,20.973511,38.480774,6.506348,,,,,,
1478503976.14,0.537451,-1.403914,0.224959,0.075664,-0.210442,-0.010550,0.085039,0.986107,-0.142690,-0.071306,-0.059075,-0.038172,21.197449,38.180908,6.358154,,,,,,
1478503976.16,0.522221,-1.402487,0.212637,0.070641,-0.089264,0.009457,0.083558,0.985869,-0.145188,-0.072633,-0.025054,-0.033279,21.271851,37.880737,6.433838,,,,,,
1478503976.18,0.519076,-1.401706,0.208898,0.034231,0.110775,-0.018725,0.083483,0.985738,-0.146119,-0.080218,0.008860,-0.030425,21.272461,38.255981,6.283569,,,,,,
1478503976.20,0.510005,-1.401692,0.195901,0.035697,0.229835,-0.015713,0.082161,0.985736,-0.146882,-0.085091,0.011914,-0.041228,20.972351,37.955627,6.581543,,,,,,
1478503976.22,0.509361,-1.400583,0.191251,0.090811,0.166913,-0.005734,0.082599,0.985549,-0.147890,-0.060123,-0.004592,-0.061766,20.972351,37.955627,6.581543,,,,,,
1478503976.24,0.496609,-1.397566,0.176534,0.149966,0.065728,0.020289,0.082123,0.985033,-0.151544,-0.045654,-0.027468,-0.068869,21.196106,37.655884,6.358398,,,,,,
1478503976.26,0.497207,-1.393945,0.175497,0.158080,0.112318,0.111810,0.083914,0.984403,-0.154629,-0.042715,-0.060925,-0.053104,20.971069,37.580872,6.431641,,,,,,
1478503976.28,0.503538,-1.390741,0.177511,0.047193,0.280761,0.051332,0.086413,0.983834,-0.156857,0.032651,-0.007454,-0.024189,21.271484,37.805847,6.358887,,,,,,
1478503976.30,0.502734,-1.392714,0.169029,-0.108232,0.442274,-0.216957,0.085351,0.984185,-0.155224,0.100074,0.048057,-0.005466,20.971558,37.655640,6.581665,,,,,,
1478503976.32,0.495449,-1.398603,0.150086,-0.219952,0.662829,-0.286034,0.081461,0.985211,-0.150740,0.148428,-0.020749,0.052199,20.971558,37.655640,6.581665,,,,,,
1478503976.34,0.493240,-1.404497,0.134806,-0.160800,0.600893,-0.239841,0.078378,0.986204,-0.145803,0.123664,-0.050413,0.041662,20.821899,37.430054,7.030640,,,,,,
1478503976.36,0.485724,-1.408652,0.117216,-0.108228,0.426344,-0.226513,0.075365,0.986883,-0.142762,0.116346,-0.039191,-0.007811,20.296814,37.580627,6.801636,,,,,,
1478503976.38,0.474704,-1.413362,0.098986,-0.169197,0.313890,-0.250095,0.071662,0.987633,-0.139449,0.120034,-0.041405,-0.021867,19.999084,37.879700,7.549194,,,,,,
1478503976.40,0.460863,-1.419357,0.079552,-0.209748,0.240718,-0.280013,0.067091,0.988555,-0.135122,0.108064,-0.044265,0.009710,19.400024,37.954407,7.919678,,,,,,
1478503976.42,0.444471,-1.426097,0.058558,-0.264123,0.214329,-0.287723,0.062001,0.989549,-0.130185,0.123058,-0.071230,0.030789,19.400024,37.954407,7.919678,,,,,,
1478503976.44,0.432820,-1.433881,0.042600,-0.325071,0.202780,-0.258234,0.057247,0.990642,-0.123902,0.122242,-0.090297,0.038559,19.250061,37.804199,8.143677,,,,,,
1478503976.46,0.424401,-1.441727,0.030667,-0.323355,0.143179,-0.225134,0.053000,0.991682,-0.117293,0.125161,-0.091047,0.041777,18.650879,37.879028,8.439087,,,,,,
1478503976.48,0.415505,-1.449271,0.019515,-0.318219,0.098501,-0.219715,0.048933,0.992625,-0.110911,0.114183,-0.084086,0.045695,19.026489,37.878418,8.741943,,,,,,
1478503976.50,0.422668,-1.456998,0.024220,-0.331741,0.118821,-0.261323,0.046579,0.993532,-0.103560,0.096976,-0.092989,0.036558,18.578003,38.027710,9.338501,,,,,,
1478503976.52,0.406163,-1.465432,0.005271,-0.356254,0.111462,-0.263576,0.041551,0.994454,-0.096613,0.101851,-0.083032,0.026163,18.578003,38.027710,9.338501,,,,,,
1478503976.54,0.408641,-1.473434,0.005926,-0.313782,0.059246,-0.270702,0.038627,0.995264,-0.089204,0.072289,0.043371,0.036256,17.753479,38.178040,9.407227,,,,,,
1478503976.56,0.370908,-1.479380,-0.032116,-0.143579,-0.038026,-0.285586,0.033089,0.995824,-0.085082,0.040870,0.143763,0.031462,17.828613,37.802185,9.932983,,,,,,
1478503976.58,0.310962,-1.483111,-0.089282,-0.079006,-0.211472,-0.316902,0.026795,0.996158,-0.083373,0.040435,0.183255,0.057585,17.380127,38.402405,9.929321,,,,,,
1478503976.60,0.264547,-1.487482,-0.131103,-0.088416,-0.259180,-0.373287,0.021759,0.996531,-0.080323,0.128876,0.082112,0.075699,17.004761,38.327698,9.851562,,,,,,
1478503976.62,0.170575,-1.490767,-0.220023,-0.067139,-0.270940,-0.375281,0.013570,0.996799,-0.078784,0.142634,-0.049732,0.107608,17.004761,38.327698,9.851562,,,,,,
1478503976.64,0.133083,-1.494345,-0.252968,0.038575,-0.229022,-0.223589,0.010134,0.997079,-0.075701,0.101835,-0.071435,0.125948,17.304382,38.478149,9.478760,,,,,,
1478503976.66,0.088467,-1.492420,-0.292279,0.152541,-0.329535,-0.105715,0.006918,0.996930,-0.077989,0.032450,0.028583,0.085054,17.230591,38.777832,9.703003,,,,,,
1478503976.68,0.056030,-1.489027,-0.316105,0.173106,-0.481691,-0.072371,0.004574,0.996659,-0.081550,-0.002117,0.137115,0.057685,17.004761,38.628296,9.476440,,,,,,
1478503976.70,0.024348,-1.487299,-0.337453,0.032398,-0.553482,-0.098583,0.002030,0.996516,-0.083376,0.040069,0.153371,0.040895,16.855896,39.303833,9.174927,,,,,,
1478503976.72,-0.012109,-1.488665,-0.362018,-0.098606,-0.627395,-0.144960,-0.000993,0.996629,-0.082033,0.101640,0.049437,0.056489,16.855896,39.303833,9.174927,,,,,,
1478503976.74,-0.069504,-1.491089,-0.406788,-0.126089,-0.659107,-0.197223,-0.005530,0.996825,-0.079431,0.078497,0.024537,0.077111,16.779846,39.004150,9.024536,,,,,,
1478503976.76,-0.133028,-1.492231,-0.455899,0.001338,-0.791334,-0.205900,-0.010410,0.996915,-0.077791,0.047565,0.008944,0.042269,17.079895,39.154114,8.876709,,,,,,
1478503976.78,-0.189124,-1.489782,-0.493933,0.152587,-0.990743,-0.143024,-0.015214,0.996720,-0.079483,0.043351,-0.052918,0.034180,17.080505,39.454224,8.801514,,,,,,
1478503976.80,-0.222816,-1.485289,-0.506367,0.228433,-1.099565,-0.066862,-0.018872,0.996347,-0.083292,0.022259,-0.071633,0.069543,17.454834,39.679993,8.204346,,,,,,
1478503976.82,-0.232565,-1.482276,-0.494886,0.093654,-1.028124,0.061093,-0.020375,0.996085,-0.086025,0.015889,-0.085501,0.095958,17.454834,39.679993,8.204346,,,,,,
1478503976.84,-0.232378,-1.483666,-0.475948,-0.127726,-0.897774,0.101193,-0.020040,0.996207,-0.084681,-0.010706,-0.066641,0.120677,17.078918,39.906250,7.451416,,,,,,
1478503976.86,-0.243176,-1.488421,-0.469826,-0.275409,-0.818589,0.082165,-0.019812,0.996609,-0.079861,-0.101129,-0.018643,0.143643,17.977600,39.606323,7.158203,,,,,,
1478503976.88,-0.262487,-1.495380,-0.473970,-0.377191,-0.737403,0.049547,-0.019551,0.997158,-0.072764,-0.190303,0.007741,0.195155,18.427551,39.681213,7.086548,,,,,,
1478503976.90,-0.300158,-1.502654,-0.498796,-0.354003,-0.572623,0.011102,-0.020132,0.997679,-0.065045,-0.195001,0.027330,0.263913,18.352844,39.831299,7.010864,,,,,,
1478503976.92,-0.333072,-1.507522,-0.523254,-0.185769,-0.354099,-0.023435,-0.020674,0.997999,-0.059757,-0.120470,0.035250,0.250217,18.352844,39.831299,7.010864,,,,,,
1478503976.94,-0.373608,-1.508450,-0.558160,-0.034594,-0.272534,-0.132371,-0.022740,0.998057,-0.058007,-0.062938,0.087224,0.161477,19.101990,39.455872,7.016724,,,,,,
1478503976.96,-0.448764,-1.507043,-0.627050,-0.030730,-0.364759,-0.290820,-0.027641,0.997968,-0.057402,-0.001442,0.146090,0.088713,18.652405,39.606079,7.088379,,,,,,
1478503976.98,-0.565899,-1.504344,-0.736092,-0.064285,-0.442032,-0.419691,-0.035604,0.997793,-0.056052,0.059270,0.090510,0.103278,18.877869,39.906128,6.939819,,,,,,
1478503977.00,-0.687168,-1.500005,-0.848563,-0.035433,-0.458031,-0.442927,-0.044869,0.997495,-0.054679,0.043907,-0.004667,0.145957,18.428345,40.206604,6.786255,,,,,,
1478503977.02,-0.781696,-1.494647,-0.934576,0.000647,-0.422077,-0.400203,-0.053594,0.997102,-0.053993,0.030721,-0.056291,0.176811,18.428345,40.206604,6.786255,,,,,,
1478503977.04,-0.846097,-1.488969,-0.991542,0.048412,-0.355369,-0.335108,-0.061196,0.996654,-0.054184,0.004265,-0.095485,0.180969,18.653198,40.131531,6.787964,,,,,,
1478503977.06,-0.885193,-1.483500,-1.024787,0.079304,-0.270502,-0.287165,-0.067485,0.996192,-0.055201,-0.014989,-0.101569,0.166925,18.353333,40.432129,6.485718,,,,,,
1478503977.08,-0.914858,-1.478065,-1.049756,0.080518,-0.227980,-0.287223,-0.073382,0.995704,-0.056476,-0.023267,-0.082038,0.153033,17.603760,40.732727,6.329956,,,,,,
1478503977.10,-0.941376,-1.472193,-1.072191,0.098887,-0.201414,-0.313775,-0.079579,0.995143,-0.057951,0.012104,-0.052424,0.157027,17.527466,40.583435,5.879395,,,,,,
1478503977.12,-0.963043,-1.465471,-1.090717,0.132310,-0.129188,-0.337120,-0.086305,0.994458,-0.060032,0.050737,-0.033735,0.167835,17.527466,40.583435,5.879395,,,,,,
1478503977.14,-1.013128,-1.463700,-1.140034,0.165858,0.031241,-0.337174,-0.090697,0.994271,-0.056568,0.043761,-0.033058,0.183643,17.452393,40.808899,5.578613,,,,,,
1478503977.16,-1.014108,-1.456420,-1.143678,0.187566,0.201219,-0.306443,-0.096895,0.993466,-0.060302,0.024386,-0.060284,0.207168,17.228027,41.033997,5.576782,,,,,,
1478503977.18,-1.046843,-1.453778,-1.182503,0.239949,0.390166,-0.236189,-0.101089,0.993161,-0.058412,0.022781,-0.074216,0.228257,16.702209,40.959778,5.272827,,,,,,
1478503977.20,-1.017490,-1.447698,-1.162384,0.269896,0.522864,-0.180872,-0.104467,0.992433,-0.064525,0.023244,-0.047380,0.275707,16.402283,41.035034,5.195679,,,,,,
1478503977.22,-1.046984,-1.447155,-1.202530,0.179278,0.572011,-0.150580,-0.106791,0.992366,-0.061686,0.003687,0.027638,0.296824,16.402283,41.035034,5.195679,,,,,,
1478503977.24,-1.036914,-1.444886,-1.203293,-0.022653,0.536428,-0.073929,-0.108102,0.992084,-0.063904,0.051553,0.044064,0.328293,16.027161,41.035278,5.117798,,,,,,
1478503977.26,-1.041409,-1.444799,-1.219659,-0.106616,0.633406,-0.051118,-0.108463,0.992073,-0.063461,0.087726,0.046684,0.377868,15.577515,41.260681,5.039307,,,,,,
1478503977.28,-1.047461,-1.444801,-1.238878,-0.104281,0.653635,-0.072426,-0.108843,0.992073,-0.062802,0.066927,0.080467,0.434079,15.353455,41.560669,5.112427,,,,,,
1478503977.30,-1.056070,-1.444569,-1.260128,-0.125706,0.593132,-0.087355,-0.109580,0.992044,-0.061977,0.060935,0.163275,0.447856,15.205261,41.634521,5.936523,,,,,,
1478503977.32,-1.087034,-1.443145,-1.299491,-0.226966,0.248265,-0.271545,-0.112697,0.991864,-0.059211,0.130138,0.218479,0.307518,15.205261,41.634521,5.936523,,,,,,
1478503977.34,-1.159935,-1.436640,-1.370826,-0.299076,-0.331309,-0.648956,-0.122623,0.991015,-0.053421,0.200916,0.255262,0.087708,15.053894,41.410095,5.560303,,,,,,
1478503977.36,-1.258121,-1.422074,-1.457759,-0.340776,-0.740882,-1.024329,-0.140990,0.988961,-0.045579,0.197142,0.250358,-0.130080,14.829773,41.559937,5.783569,,,,,,
1478503977.38,-1.363064,-1.404575,-1.546715,-0.540831,-0.897662,-0.977288,-0.161899,0.986217,-0.034124,0.026173,0.172261,-0.263148,13.555481,41.635132,6.074097,,,,,,
1478503977.40,-1.470052,-1.393111,-1.638886,-0.784199,-0.732989,-0.467916,-0.175856,0.984255,-0.017777,-0.060259,0.011060,-0.306015,12.957520,42.084717,6.519409,,,,,,
1478503977.42,-1.581306,-1.393832,-1.742383,-1.002592,-0.291359,0.291329,-0.176033,0.984383,0.001850,-0.141655,-0.259682,-0.322163,12.957520,42.084717,6.519409,,,,,,
1478503977.44,-1.725863,-1.407389,-1.887690,-1.275723,0.033503,1.050451,-0.160729,0.986679,0.025125,-0.240714,-0.413803,-0.221460,13.257385,41.859253,6.746704,,,,,,
1478503977.46,-1.939813,-1.426193,-2.106182,-1.427173,0.089631,1.450849,-0.134400,0.989563,0.051977,-0.262710,-0.483597,-0.120733,13.258118,41.558105,7.496826,,,,,,
1478503977.48,-2.216099,-1.436442,-2.383541,-1.441128,-0.228981,1.289454,-0.107015,0.990988,0.080563,-0.104807,-0.414496,-0.105526,15.282532,39.679077,9.537964,,,,,,
1478503977.50,-2.487920,-1.431840,-2.644821,-1.434424,-0.929133,1.018045,-0.084228,0.990361,0.109956,0.142792,-0.139882,-0.129381,16.109070,38.850952,11.344604,,,,,,
1478503977.52,-2.737078,-1.416810,-2.873120,-1.542401,-1.185157,1.106195,-0.060365,0.988168,0.141000,0.321230,0.331214,-0.021737,16.109070,38.850952,11.344604,,,,,,
1478503977.54,-2.928939,-1.390504,-3.053185,-1.855935,-0.367343,0.935036,-0.037846,0.983791,0.175278,0.452702,0.706867,-0.016739,17.159668,38.474304,12.102661,,,,,,
1478503977.56,-3.028913,-1.351488,3.126839,-2.153453,0.219954,0.629125,-0.024462,0.976048,0.216175,0.343691,0.330409,-0.230289,19.033569,36.445374,14.067749,,,,,,
1478503977.58,-3.105324,-1.319630,3.043551,-1.268580,0.200441,1.023624,-0.009012,0.968623,0.248370,-0.075964,-0.099910,-0.196506,19.709412,35.768127,15.348145,,,,,,
1478503977.60,3.084053,-1.307737,2.946466,-0.247112,-0.177674,1.350227,0.014954,0.965599,0.259606,-0.188385,-0.176613,-0.085198,20.534424,34.866028,16.479736,,,,,,
1478503977.62,2.977505,-1.304520,2.844777,0.032307,-0.495296,1.293699,0.042985,0.964757,0.259607,-0.086899,-0.123464,0.035529,20.534424,34.866028,16.479736,,,,,,
1478503977.64,2.893170,-1.296866,2.765047,-0.319919,-0.253408,1.025270,0.066513,0.962715,0.262213,0.040939,-0.010994,0.086130,21.209167,34.415039,16.935059,,,,,,
1478503977.66,2.845392,-1.280455,2.715633,-0.747784,0.097056,0.818002,0.083562,0.958146,0.273813,0.212108,0.038344,-0.000009,22.706421,33.514526,16.721680,,,,,,
1478503977.68,2.821563,-1.261879,2.688475,-0.715374,0.070829,0.560611,0.095645,0.952663,0.288591,0.295224,0.071125,-0.090379,23.679199,32.238403,17.179565,,,,,,
1478503977.70,2.810043,-1.250794,2.678261,-0.314462,-0.188155,0.188505,0.102395,0.949235,0.297437,0.181937,0.009414,-0.101103,24.129822,31.937134,17.858154,,,,,,
1478503977.72,2.804355,-1.250597,2.679556,0.154395,-0.443177,-0.143848,0.104147,0.949173,0.297026,0.089472,-0.072220,-0.054961,24.129822,31.937134,17.858154,,,,,,
1478503977.74,2.807043,-1.259438,2.694003,0.414824,-0.607140,-0.484936,0.100589,0.951918,0.289368,0.116299,-0.193541,0.055390,24.129944,31.786804,18.083252,,,,,,
1478503977.76,2.826319,-1.269822,2.728293,0.227554,-0.703881,-0.745555,0.091922,0.955048,0.281839,0.206417,-0.388154,0.175864,24.053711,32.163452,17.032593,,,,,,
1478503977.78,2.861017,-1.274229,2.777546,-0.131950,-0.536869,-0.743527,0.080924,0.956345,0.280812,0.316324,-0.557999,0.266292,23.903564,32.614563,16.356201,,,,,,
1478503977.80,2.898530,-1.273273,2.822008,-0.201878,-0.066028,-0.541309,0.070555,0.956065,0.284536,0.463106,-0.612132,0.295328,24.354614,32.914062,16.509399,,,,,,
1478503977.82,2.930752,-1.275204,2.853351,0.148820,0.143189,-0.457733,0.060965,0.956630,0.284855,0.546487,-0.265269,0.170726,24.354614,32.914062,16.509399,,,,,,
1478503977.84,2.950329,-1.284155,2.875827,0.387468,-0.259651,-0.345101,0.053747,0.959199,0.277576,0.438974,0.222838,0.039700,23.905396,33.063904,16.730957,,,,,,
1478503977.86,2.948688,-1.280635,2.884256,-0.628776,-0.730180,0.063057,0.054850,0.958198,0.280800,0.019857,0.441537,-0.002129,23.231445,33.965210,16.125488,,,,,,
1478503977.88,2.934283,-1.262154,2.888474,-0.881220,-0.851795,0.159789,0.062523,0.952747,0.297261,0.161018,1.089825,-0.184087,23.756042,33.664673,16.279541,,,,,,
1478503977.90,2.894871,-1.263737,2.854565,1.080373,-0.074525,0.709086,0.073819,0.953226,0.293104,-0.084973,2.057470,0.056368,24.431396,33.814331,16.284546,,,,,,
1478503977.92,2.839395,-1.297344,2.790755,1.902031,0.453330,0.103904,0.080374,0.962844,0.257819,-0.760001,1.087998,0.012887,24.431396,33.814331,16.284546,,,,,,
1478503977.94,2.830813,-1.321061,2.768628,0.813862,0.754704,0.009112,0.075578,0.968978,0.235308,-0.442750,-1.273116,-0.099124,25.030884,33.964783,15.838867,,,,,,
1478503977.96,2.815664,-1.328966,2.734580,0.476151,0.927553,0.277377,0.076679,0.970901,0.226872,-0.065540,-0.809799,-0.056645,23.904297,34.116821,14.855469,,,,,,
1478503977.98,2.809468,-1.341061,2.709570,0.785142,0.787734,0.020614,0.074249,0.973727,0.215276,-0.070846,-0.464724,-0.381902,24.504211,34.266785,14.634888,,,,,,
1478503978.00,2.799214,-1.356135,2.688414,0.741755,0.386185,-0.080140,0.071516,0.977049,0.200653,-0.035291,0.051638,-0.640213,24.429993,34.942505,14.183960,,,,,,
1478503978.02,2.834460,-1.369268,2.720193,0.349078,0.166807,-0.952725,0.060516,0.979762,0.190800,-0.408493,0.612615,-0.388294,24.429993,34.942505,14.183960,,,,,,
1478503978.04,2.969254,-1.379167,2.851609,0.207086,0.401745,-1.283857,0.032661,0.981695,0.187638,-0.616996,0.479425,0.119659,24.056030,35.317566,14.255981,,,,,,
1478503978.06,3.039516,-1.393031,2.909927,0.861120,0.817927,-0.357976,0.018019,0.984241,0.175910,-0.364271,-0.092152,0.204644,23.082092,36.218994,13.648315,,,,,,
1478503978.08,3.085483,-1.412730,2.927663,0.973440,1.918623,-0.156779,0.008828,0.987533,0.157161,-0.223168,-0.462891,0.255116,22.332336,36.444580,13.492432,,,,,,
1478503978.10,-3.141410,-1.430849,2.932776,0.884500,2.876612,-0.049083,-0.000026,0.990223,0.139491,-0.251332,-0.418248,0.075460,21.282471,36.895935,12.959229,,,,,,
1478503978.12,-3.064105,-1.447553,2.952521,0.779189,2.796278,-0.118731,-0.009516,0.992415,0.122563,-0.227605,-0.305342,-0.229390,21.282471,36.895935,12.959229,,,,,,
1478503978.14,-3.003639,-1.456258,2.963904,0.179672,2.295017,0.071412,-0.015716,0.993448,0.113203,-0.168076,-0.195169,-0.229490,20.834900,37.645691,13.255615,,,,,,
1478503978.16,-2.999346,-1.453658,2.924882,-0.247891,2.174916,0.234243,-0.016569,0.993147,0.115691,-0.059222,0.036043,0.020540,18.813721,38.545532,14.065063,,,,,,
1478503978.18,-2.964808,-1.454194,2.913744,0.225479,2.376951,-0.053007,-0.020460,0.993210,0.114525,0.043378,0.208618,0.163414,18.214172,38.244934,14.660645,,,,,,
1478503978.20,-2.873604,-1.461808,2.957651,0.493397,2.333749,-0.161113,-0.028802,0.994067,0.104890,0.084848,0.119062,0.179381,17.391907,38.694092,15.479370,,,,,,
1478503978.22,-2.792230,-1.472109,2.997343,0.604868,1.971564,0.039113,-0.033726,0.995134,0.092575,0.172901,-0.041994,0.175064,17.391907,38.694092,15.479370,,,,,,
1478503978.24,-2.723257,-1.485822,3.030600,0.750421,1.728560,0.139280,-0.034478,0.996392,0.077553,0.255120,-0.108742,0.175438,15.593506,39.069580,15.765625,,,,,,
1478503978.26,-2.620136,-1.500788,3.100774,0.800767,1.646695,0.049199,-0.034846,0.997550,0.060654,0.282938,-0.039924,0.135742,14.844604,39.595032,15.684814,,,,,,
1478503978.28,-2.439034,-1.512375,-3.033121,0.716506,1.596260,-0.133217,-0.037729,0.998294,0.044562,0.304224,0.040891,0.132669,14.469238,39.971252,15.006714,,,,,,
1478503978.30,-2.187849,-1.517397,-2.812672,0.567988,1.536379,-0.267004,-0.043531,0.998575,0.030884,0.233915,-0.139093,0.194625,13.794434,40.121765,14.926636,,,,,,
1478503978.32,-1.958051,-1.518744,-2.612905,0.459475,1.537533,-0.119637,-0.048177,0.998646,0.019649,0.183308,-0.310505,0.264134,13.794434,40.121765,14.926636,,,,,,
1478503978.34,-1.798460,-1.522033,-2.485682,0.271828,1.694985,0.163314,-0.047486,0.998811,0.011002,0.175187,-0.322191,0.263947,12.220947,41.023071,14.539429,,,,,,
1478503978.36,-1.717190,-1.529396,-2.436805,0.149108,1.540716,0.451354,-0.040946,0.999143,0.006037,0.143363,-0.268522,0.182073,11.696045,41.398926,14.160278,,,,,,
1478503978.38,-1.642865,-1.539709,-2.388141,0.132944,1.199484,0.460300,-0.031002,0.999517,0.002238,0.112621,-0.086797,0.195119,11.696045,41.323792,14.235229,,,,,,
1478503978.40,-1.544888,-1.542741,-2.316941,0.084983,1.518405,-0.039699,-0.028042,0.999606,-0.000727,0.054592,0.115460,0.265268,11.395691,41.474548,13.857910,,,,,,
1478503978.42,-1.531806,-1.539083,-2.338151,-0.104903,1.786134,-0.189115,-0.031684,0.999497,-0.001236,0.032661,0.056731,0.410431,11.395691,41.474548,13.857910,,,,,,
1478503978.44,-1.632631,-1.539154,-2.471214,-0.299604,1.466241,0.103040,-0.031577,0.999499,0.001955,0.198401,-0.246020,0.305204,10.272217,41.549133,14.524536,,,,,,
1478503978.46,-1.979525,-1.538077,-2.838042,-0.772798,0.642932,0.014404,-0.030018,0.999465,0.013002,0.256474,-0.134612,-0.046983,9.296509,41.399841,14.367188,,,,,,
1478503978.48,-2.288591,-1.522146,3.132501,-1.024661,0.002721,-0.612996,-0.036632,0.998817,0.031986,0.260722,0.074807,-0.331287,8.847412,41.173889,15.114014,,,,,,
1478503978.50,-2.297089,-1.491644,3.122292,-1.067527,0.166797,-1.333082,-0.059115,0.996869,0.052510,-0.032941,0.257327,-0.382451,8.324341,41.172729,16.084961,,,,,,
1478503978.52,-2.357870,-1.457276,3.061551,-1.693926,-0.258581,-0.719532,-0.079965,0.993563,0.080233,-0.310371,0.203138,-0.581759,8.324341,41.172729,16.084961,,,,,,
1478503978.54,-2.579795,-1.422438,2.851612,-2.492439,-0.879901,0.391557,-0.078742,0.989015,0.125095,-0.388101,0.209380,-0.597294,6.226257,40.120422,18.319824,,,,,,
1478503978.56,-2.825574,-1.380709,2.615147,-2.761836,-0.318052,1.197176,-0.058721,0.981988,0.179589,-0.400217,0.403007,-0.219826,6.152344,38.992554,20.269775,,,,,,
1478503978.58,-3.002773,-1.342779,2.431052,-1.873349,0.254729,1.515214,-0.031279,0.974116,0.223873,0.083540,0.370122,-0.028697,7.051575,37.264404,22.077393,,,,,,
1478503978.60,-3.112708,-1.322995,2.318546,-0.691675,-0.324379,0.981824,-0.007084,0.969454,0.245171,0.601429,0.500852,-0.075432,7.651428,35.761414,23.882690,,,,,,
1478503978.62,3.116542,-1.313783,2.284362,-0.535174,-1.386400,0.062444,0.006367,0.967153,0.254113,1.046398,0.310602,-0.307824,7.651428,35.761414,23.882690,,,,,,
1478503978.64,3.112188,-1.290500,2.300335,-1.573612,-0.634353,-0.066824,0.008133,0.960974,0.276521,0.909561,-0.526968,-0.267717,9.600525,34.258179,25.322998,,,,,,
1478503978.66,3.077723,-1.258152,2.273560,-1.422546,-0.498037,0.724721,0.019631,0.951524,0.306949,0.226859,-0.553254,-0.227435,10.201477,34.031799,26.077637,,,,,,
1478503978.68,3.008497,-1.240381,2.218712,-0.438078,-1.095043,1.053583,0.043054,0.945908,0.321566,-0.070947,-0.263748,-0.112063,10.650085,32.680054,27.056763,,,,,,
1478503978.70,2.923553,-1.233352,2.155592,-0.131029,-1.318248,1.060933,0.071617,0.943604,0.323238,-0.257805,-0.019608,0.014851,11.698242,31.704163,27.364990,,,,,,
1478503978.72,2.858937,-1.224309,2.111308,-0.327776,-1.012853,0.666587,0.094716,0.940571,0.326120,-0.348775,0.277690,0.016546,11.698242,31.704163,27.364990,,,,,,
1478503978.74,2.829113,-1.214757,2.099102,-0.423455,-0.927676,0.170939,0.107155,0.937285,0.331685,-0.051827,0.172060,-0.128957,14.395447,30.878296,27.010620,,,,,,
1478503978.76,2.816654,-1.208554,2.105113,-0.244813,-0.864019,-0.081527,0.113133,0.935105,0.335827,0.105205,0.004928,-0.075436,15.819763,30.352173,27.321655,,,,,,
1478503978.78,2.816158,-1.207393,2.119883,-0.080680,-0.662129,-0.321509,0.113647,0.934693,0.336800,0.059739,-0.062348,-0.031258,16.493591,30.052063,27.101807,,,,,,
1478503978.80,2.825090,-1.212474,2.144333,0.227577,-0.769988,-0.613452,0.109155,0.936486,0.333284,0.082953,-0.124566,-0.005815,16.416809,29.677795,26.651367,,,,,,
1478503978.82,2.841806,-1.223849,2.182566,0.366849,-1.075037,-0.909218,0.100416,0.940415,0.324863,0.158190,-0.220200,0.012570,16.416809,29.677795,26.651367,,,,,,
1478503978.84,2.868417,-1.235085,2.235441,0.222560,-1.178487,-1.062077,0.088880,0.944176,0.317225,0.247134,-0.343666,0.091924,17.015198,29.904114,25.605835,,,,,,
1478503978.86,2.904843,-1.240274,2.293738,-0.108191,-0.716310,-0.893213,0.076118,0.945873,0.315485,0.325981,-0.524959,0.242361,16.716553,30.729858,25.228271,,,,,,
1478503978.88,2.936869,-1.243610,2.332685,0.176421,0.016722,-0.510610,0.065335,0.946950,0.314669,0.327350,-0.238073,0.228010,16.941406,31.105530,24.704712,,,,,,
1478503978.90,2.951279,-1.253443,2.346574,0.556895,-0.007373,-0.208294,0.059030,0.950065,0.306419,0.150275,0.079385,-0.018425,16.266846,31.932007,23.874146,,,,,,
1478503978.92,2.942943,-1.258864,2.344693,-0.064861,-0.513074,0.128635,0.060565,0.951742,0.300863,-0.113437,-0.004690,0.127085,16.266846,31.932007,23.874146,,,,,,
1478503978.94,2.919632,-1.247694,2.336189,-0.601876,-0.950610,0.240252,0.069898,0.948255,0.309721,0.177112,0.163699,0.224062,16.266235,31.932495,23.574219,,,,,,
1478503978.96,2.905418,-1.244523,2.340565,0.170285,-0.755470,-0.301890,0.074996,0.947244,0.311617,0.539049,0.067435,0.167997,16.266968,31.931946,23.949219,,,,,,
1478503978.98,2.932760,-1.261109,2.375811,1.030949,0.014601,-0.876356,0.063182,0.952429,0.298140,0.442173,0.243799,0.018053,16.716370,31.556519,24.102783,,,,,,
1478503979.00,2.947561,-1.297218,2.397937,1.991217,-1.107819,-0.378637,0.052095,0.962810,0.265108,-0.229921,1.428837,-0.504519,16.268799,33.658875,22.673340,,,,,,
1478503979.02,2.898853,-1.337476,2.363490,1.982543,-0.166520,0.002038,0.055574,0.972904,0.224431,-1.223528,2.190640,-0.380452,16.268799,33.658875,22.673340,,,,,,
1478503979.04,2.865275,-1.364397,2.328466,0.914008,-0.027423,0.254628,0.055910,0.978775,0.197163,-0.744936,-0.393967,-0.324543,16.569885,35.386108,21.099731,,,,,,
1478503979.06,2.779914,-1.369874,2.232478,0.650150,0.711076,0.954624,0.070618,0.979883,0.186662,0.009369,-1.104593,0.146941,16.718445,35.387146,20.350830,,,,,,
1478503979.08,2.692768,-1.384645,2.128403,1.307087,0.697007,0.493069,0.080307,0.982724,0.166747,-0.080642,-0.737881,0.099931,17.394653,35.987061,20.205566,,,,,,
1478503979.10,2.614029,-1.404939,2.035520,1.170449,0.641985,-0.004719,0.083115,0.986277,0.142650,-0.034012,-0.481288,-0.322948,16.944336,36.889160,18.926758,,,,,,
1478503979.12,2.688662,-1.429976,2.099261,0.677953,0.520117,-1.726406,0.061420,0.990101,0.126203,-0.186710,0.115444,-0.811155,16.944336,36.889160,18.926758,,,,,,
1478503979.14,2.976903,-1.435854,2.383395,-0.943171,0.203028,-1.608156,0.022056,0.990909,0.132713,-0.712318,0.454556,-0.322089,16.420288,37.865601,18.172363,,,,,,
1478503979.16,3.053054,-1.428060,2.451445,0.218971,0.938461,0.015149,0.012578,0.989830,0.141695,-0.636709,0.625618,0.350370,14.621704,38.241150,18.383667,,,,,,
1478503979.18,3.081370,-1.450253,2.437863,1.406800,2.694186,-0.025705,0.007237,0.992743,0.120034,-0.266408,-0.324195,0.321037,14.248169,38.390381,18.980713,,,,,,
1478503979.20,-3.131999,-1.474449,2.443787,1.005589,3.345142,-0.068287,-0.000923,0.995362,0.096194,-0.240792,-0.720612,0.059186,12.148560,39.217773,18.139648,,,,,,
1478503979.22,-3.077866,-1.486127,2.438750,0.327706,2.668721,0.119563,-0.005386,0.996418,0.084397,-0.157624,-0.554386,-0.198136,12.148560,39.217773,18.139648,,,,,,
1478503979.24,-3.092031,-1.484874,2.380016,-0.296758,2.037873,0.310831,-0.004251,0.996311,0.085712,0.016687,-0.247333,-0.176944,11.099304,39.443176,18.206665,,,,,,
1478503979.26,-3.122089,-1.476356,2.310556,-0.438120,2.034174,0.256835,-0.001839,0.995544,0.094283,0.176384,0.194932,0.086259,9.900757,40.043823,18.197388,,,,,,
1478503979.28,-3.090597,-1.473345,2.296828,0.075495,2.381820,-0.081512,-0.004960,0.995255,0.097171,0.229142,0.440368,0.258222,8.851562,39.592834,19.164795,,,,,,
1478503979.30,-2.987930,-1.480239,2.354282,0.475604,2.172529,-0.297217,-0.013842,0.995902,0.089368,0.177752,0.270989,0.177844,6.902466,39.668274,19.525146,,,,,,
1478503979.32,-2.840518,-1.488373,2.462922,0.533758,1.890763,-0.384822,-0.024415,0.996605,0.078627,0.207124,-0.051033,0.114443,6.902466,39.668274,19.525146,,,,,,
1478503979.34,-2.664255,-1.497291,2.604482,0.672113,1.688178,-0.306045,-0.033739,0.997300,0.065230,0.187075,-0.109513,0.076447,5.703735,40.344238,19.290649,,,,,,
1478503979.36,-2.466295,-1.506412,2.771736,0.702779,1.511406,-0.198092,-0.040221,0.997928,0.050219,0.229735,-0.123432,0.130354,4.203003,40.495789,18.754517,,,,,,
1478503979.38,-2.243779,-1.514133,2.964999,0.676555,1.486876,-0.106652,-0.044285,0.998395,0.035301,0.283299,-0.139020,0.238610,3.603882,41.021362,18.524658,,,,,,
1478503979.40,-2.008452,-1.520287,-3.111686,0.604195,1.446473,0.028203,-0.045729,0.998725,0.021397,0.305052,-0.198249,0.311916,2.028442,41.698792,17.462524,,,,,,
1478503979.42,-1.791780,-1.526194,-2.923265,0.469926,1.424291,0.192497,-0.043503,0.999005,0.009773,0.355606,-0.305951,0.330025,2.028442,41.698792,17.462524,,,,,,
1478503979.44,-1.586787,-1.533600,-2.743683,0.385354,1.113714,0.425630,-0.037183,0.999308,0.000595,0.356199,-0.327204,0.188111,0.828186,42.150452,16.778320,,,,,,
1478503979.46,-1.314352,-1.542221,-2.483983,0.344571,0.440854,0.438140,-0.027637,0.999592,-0.007247,0.287342,-0.235645,0.116271,0.977783,42.526306,16.104248,,,,,,
1478503979.48,-1.090044,-1.542927,-2.268118,0.234817,0.463349,-0.056425,-0.024707,0.999612,-0.012886,0.163440,-0.012582,0.153801,1.278564,42.826172,16.106445,,,,,,
1478503979.50,-1.108395,-1.537226,-2.297702,-0.006808,0.589056,-0.359197,-0.030039,0.999437,-0.014973,0.008509,0.163100,0.371525,0.602234,42.977844,15.276245,,,,,,
1478503979.52,-1.204541,-1.533694,-2.405805,-0.132825,0.626248,-0.118305,-0.034634,0.999312,-0.013284,0.073254,0.049623,0.579843,0.602234,42.977844,15.276245,,,,,,
1478503979.54,-1.262306,-1.534471,-2.474786,-0.163853,0.460322,-0.019224,-0.034603,0.999340,-0.011027,0.258647,-0.164456,0.353770,0.153076,42.977356,15.722900,,,,,,
1478503979.56,-1.449978,-1.531584,-2.663075,-0.412484,-0.295198,-0.376048,-0.038916,0.999231,-0.004725,0.268851,0.011801,-0.180151,-0.298157,42.527710,15.644653,,,,,,
1478503979.58,-1.690996,-1.516599,-2.892568,-0.615703,-0.673030,-0.969515,-0.053780,0.998532,0.006496,0.115639,0.102619,-0.446895,-0.521545,42.451416,16.543091,,,,,,
1478503979.60,-1.871817,-1.491517,-3.061251,-0.977036,-0.632316,-1.086528,-0.075635,0.996859,0.023481,-0.195147,0.045499,-0.419432,-1.571594,41.700623,17.435547,,,,,,
1478503979.62,-2.120235,-1.467668,2.989606,-1.812030,-1.020088,-0.314506,-0.087794,0.994687,0.053759,-0.288580,-0.095456,-0.488955,-1.571594,41.700623,17.435547,,,,,,
1478503979.64,-2.469924,-1.440436,2.659911,-2.571119,-1.076658,0.600071,-0.080893,0.991515,0.101755,-0.419122,0.019715,-0.246561,-1.421143,41.174255,18.336914,,,,,,
1478503979.66,-2.778445,-1.404933,2.361475,-2.554811,-0.390050,1.272944,-0.058648,0.986276,0.154337,-0.368354,0.284430,-0.003916,-1.495850,40.122131,19.761841,,,,,,
1478503979.68,-2.989567,-1.370921,2.149174,-1.840115,-0.063152,1.476500,-0.030068,0.980091,0.196257,0.108178,0.485805,-0.050597,0.830017,37.189758,23.905762,,,,,,
1478503979.70,-3.121768,-1.346015,2.019469,-1.129310,-0.461242,1.044567,-0.004418,0.974843,0.222849,0.565408,0.727290,-0.244959,1.805908,36.437195,25.263428,,,,,,
1478503979.72,3.096978,-1.325734,1.978014,-1.086495,-1.679239,0.159929,0.010821,0.970122,0.242376,0.931333,0.396714,-0.552618,1.805908,36.437195,25.263428,,,,,,
1478503979.74,3.078449,-1.294662,1.989054,-1.879362,-1.102316,0.015244,0.017204,0.962117,0.272095,0.694924,-0.725132,-0.270066,3.080444,35.760681,25.873413,,,,,,
1478503979.76,3.040736,-1.258373,1.967687,-1.552731,-0.923842,0.693789,0.030947,0.951591,0.305804,0.205915,-0.457253,-0.195376,4.206116,35.083252,27.082153,,,,,,
1478503979.78,2.966820,-1.238783,1.916361,-0.468273,-1.490414,1.063605,0.056677,0.945388,0.320982,-0.010489,-0.284804,-0.031477,5.854309,32.829651,28.970581,,,,,,
1478503979.80,2.876782,-1.229382,1.854562,-0.248209,-1.595340,1.077748,0.087631,0.942282,0.323149,-0.191315,-0.025091,0.107256,7.503235,32.228516,29.208374,,,,,,
1478503979.82,2.814289,-1.215309,1.816375,-0.634945,-1.129818,0.660824,0.111894,0.937477,0.329570,-0.361085,0.312569,0.156117,7.503235,32.228516,29.208374,,,,,,
1478503979.84,2.788452,-1.197307,1.810009,-0.885655,-0.985883,0.287717,0.126188,0.931060,0.342351,-0.249876,0.251374,-0.090108,9.303284,32.002075,29.521973,,,,,,
1478503979.86,2.776247,-1.183009,1.816607,-0.549217,-0.851541,0.054107,0.135099,0.925748,0.353183,-0.056288,0.055056,-0.104236,10.351990,31.401428,29.605103,,,,,,
1478503979.88,2.774006,-1.178887,1.828505,-0.144568,-0.563105,-0.268780,0.137260,0.924182,0.356438,-0.029152,0.004514,-0.038689,11.850830,30.349548,30.366943,,,,,,
1478503979.90,2.783180,-1.183663,1.851979,0.193852,-0.744251,-0.655187,0.132435,0.925995,0.353545,-0.006596,-0.039383,-0.008956,11.849976,30.124756,30.216919,,,,,,
1478503979.92,2.800131,-1.196289,1.890652,0.420907,-1.061146,-1.026032,0.122498,0.930688,0.344694,0.055313,-0.131753,0.005297,11.849976,30.124756,30.216919,,,,,,
1478503979.94,2.826335,-1.211927,1.940529,0.433519,-0.923925,-1.092170,0.108899,0.936294,0.333907,0.164890,-0.295837,0.094575,12.075562,30.575073,29.918579,,,,,,
1478503979.96,2.854528,-1.221458,1.981592,0.183831,-0.250928,-0.650670,0.096911,0.939599,0.328270,0.357755,-0.647546,0.231972,12.300232,31.101257,29.094849,,,,,,
1478503979.98,2.877969,-1.232392,2.004711,0.630709,0.242704,-0.456292,0.086508,0.943285,0.320513,0.463983,-0.310519,0.190412,12.001831,31.851624,28.942261,,,,,,
1478503980.00,2.893221,-1.248522,2.015225,0.669391,0.223253,-0.349600,0.077859,0.948518,0.307006,0.288565,0.158706,0.049989,11.626587,32.302795,28.264160,,,,,,
1478503980.02,2.906894,-1.250131,2.027848,-0.425177,-0.115939,-0.119843,0.073299,0.949026,0.306556,-0.086300,0.145716,-0.058265,11.626587,32.302795,28.264160,,,,,,
1478503980.04,2.903192,-1.237827,2.039431,-0.553367,-1.034175,-0.065925,0.077185,0.945076,0.317606,-0.067542,0.413124,-0.006784,11.327820,32.677734,28.411743,,,,,,
1478503980.06,2.905381,-1.240662,2.059998,0.495183,-0.566839,-0.531383,0.075863,0.945999,0.315168,0.503163,0.211274,0.064318,11.102234,32.227417,28.710205,,,,,,
1478503980.08,2.916971,-1.270281,2.068217,1.963869,0.392218,-0.274615,0.065933,0.955184,0.288576,0.279053,1.356873,0.017439,11.776184,32.227844,28.190430,,,,,,
1478503980.10,2.863263,-1.309659,2.013091,1.932079,-0.109686,0.440253,0.070935,0.966097,0.248243,-0.618054,1.428465,-0.348051,11.628113,33.879578,27.063477,,,,,,
1478503980.12,2.791848,-1.332625,1.945152,1.076071,-0.420390,0.356185,0.080842,0.971771,0.221643,-0.878739,-0.068283,-0.533777,11.628113,33.879578,27.063477,,,,,,
1478503980.14,2.734064,-1.337959,1.889107,0.282384,0.189687,0.702180,0.091452,0.973016,0.211843,-0.088003,-0.926949,-0.060094,12.003662,35.231567,25.640625,,,,,,
1478503980.16,2.665026,-1.346073,1.807537,1.180694,0.564495,0.530903,0.102222,0.974856,0.198007,-0.021702,-0.608095,-0.002314,12.902710,35.607483,24.747070,,,,,,
1478503980.18,2.580378,-1.368431,1.713756,1.449304,0.263399,0.167715,0.106968,0.979594,0.170158,-0.062229,-0.456874,-0.227225,12.977661,35.908081,24.297607,,,,,,
1478503980.20,2.566220,-1.386623,1.692964,0.458931,0.331943,-0.705399,0.099652,0.983088,0.153647,-0.194851,-0.156641,-0.535163,12.902649,36.809814,23.171631,,,,,,
1478503980.22,2.705439,-1.399109,1.832636,-0.307839,-0.106125,-1.673381,0.072175,0.985298,0.154852,-0.628388,0.322655,-0.504476,12.902649,36.809814,23.171631,,,,,,
1478503980.24,2.855167,-1.394008,1.988417,-0.733949,-0.068286,-0.629378,0.049687,0.984414,0.168704,-0.653539,0.554222,0.130994,12.229248,37.410034,23.241211,,,,,,
1478503980.26,2.869588,-1.400442,1.986274,1.003962,1.522820,0.029224,0.045547,0.985525,0.163299,-0.420654,0.344767,0.338715,11.028076,37.186035,22.932373,,,,,,
1478503980.28,2.860192,-1.427200,1.926928,1.417454,2.938497,0.115565,0.039740,0.989708,0.137475,-0.288260,-0.280281,0.221702,9.753540,37.487000,22.772583,,,,,,
1478503980.30,2.866111,-1.445225,1.869002,0.710824,3.153411,0.117742,0.034067,0.992126,0.120519,-0.264933,-0.587829,0.044199,8.629944,38.538452,22.163696,,,,,,
1478503980.32,2.886791,-1.451825,1.835850,0.194894,2.404552,0.090499,0.029917,0.992931,0.114859,-0.243952,-0.497677,-0.187979,8.629944,38.538452,22.163696,,,,,,
1478503980.34,2.926997,-1.448587,1.831422,-0.369017,2.239528,0.055717,0.025960,0.992542,0.119109,-0.166509,-0.194751,-0.167510,6.905518,39.140015,21.700439,,,,,,
1478503980.36,2.987693,-1.437258,1.844984,-0.625549,2.461633,-0.023739,0.020410,0.991097,0.131568,-0.023492,0.150703,0.009240,4.356384,39.140625,22.131348,,,,,,
1478503980.38,3.058368,-1.428579,1.866148,-0.265799,2.488293,-0.127188,0.011783,0.989904,0.141248,0.074720,0.337778,0.146045,3.232056,38.915344,22.723022,,,,,,
1478503980.40,3.120619,-1.430918,1.882333,0.309408,2.223775,-0.094883,0.002924,0.990233,0.139392,0.156515,0.260255,0.176908,1.507507,39.216431,22.559937,,,,,,
1478503980.42,-3.110135,-1.441605,1.891919,0.653039,2.151371,-0.060950,-0.004052,0.991666,0.128769,0.205758,0.077914,0.161972,1.507507,39.216431,22.559937,,,,,,
1478503980.44,-3.045560,-1.455782,1.914626,0.722232,2.055544,-0.106197,-0.011004,0.993393,0.114232,0.204058,-0.007691,0.077830,-0.067627,39.142090,22.623047,,,,,,
1478503980.46,-2.972743,-1.468377,1.950550,0.612632,1.760372,-0.121253,-0.017181,0.994760,0.100786,0.196182,-0.097512,0.061140,-2.393921,39.670227,21.330444,,,,,,
1478503980.48,-2.881970,-1.478471,2.008124,0.529703,1.677845,-0.193969,-0.023668,0.995741,0.089105,0.262956,-0.156019,0.130302,-2.994263,40.347107,20.275513,,,,,,
1478503980.50,-2.777504,-1.486912,2.077169,0.479855,1.890487,-0.110471,-0.029836,0.996484,0.078294,0.256017,-0.292245,0.207534,-4.119141,40.798340,19.816895,,,,,,
1478503980.52,-2.700222,-1.495822,2.114049,0.472640,2.089950,0.132957,-0.031997,0.997191,0.067726,0.173233,-0.275038,0.212319,-4.119141,40.798340,19.816895,,,,,,
1478503980.54,-2.665210,-1.506116,2.110897,0.431065,1.752791,0.289723,-0.029640,0.997909,0.057439,0.083641,-0.134918,0.148371,-5.169556,41.174927,19.133789,,,,,,
1478503980.56,-2.672999,-1.516053,2.074349,0.394005,1.279741,0.329626,-0.024712,0.998502,0.048818,0.086296,-0.083051,0.110652,-6.596313,41.252136,18.148071,,,,,,
1478503980.58,-2.689309,-1.524178,2.032949,0.455402,1.345884,0.088233,-0.020366,0.998914,0.041915,0.077586,-0.018903,0.127274,-6.822205,41.478333,17.396240,,,,,,
1478503980.60,-2.509292,-1.530296,2.180586,0.369444,1.829350,-0.205712,-0.023929,0.999180,0.032661,-0.005963,0.099071,0.289253,-7.646912,42.154785,16.714722,,,,,,
1478503980.62,-2.340639,-1.530880,2.309419,0.075776,2.084241,-0.120425,-0.028653,0.999203,0.027775,-0.007785,0.023975,0.459712,-7.646912,42.154785,16.714722,,,,,,
1478503980.64,-2.348161,-1.529655,2.259528,-0.252413,2.118968,0.081038,-0.029316,0.999154,0.028849,0.141010,-0.256753,0.272863,-8.397583,42.381104,16.109009,,,,,,
1478503980.66,-2.464567,-1.521620,2.106055,-0.660040,1.561437,-0.122608,-0.030796,0.998791,0.038315,0.296283,-0.077542,-0.162415,-10.650269,42.083679,15.117310,,,,,,
1478503980.68,-2.484555,-1.503942,2.065627,-0.837884,0.825242,-0.715390,-0.040803,0.997766,0.052896,0.271836,0.224493,-0.384516,-10.800232,41.933411,15.341187,,,,,,
1478503980.70,-2.407136,-1.475321,2.127636,-0.993116,0.791687,-1.294215,-0.063889,0.995446,0.070753,0.002258,0.264518,-0.373854,-12.000488,41.257996,16.007568,,,,,,
1478503980.72,-2.376320,-1.443017,2.142412,-1.268975,0.802613,-0.956172,-0.088276,0.991847,0.091903,-0.175167,0.088566,-0.464446,-12.000488,41.257996,16.007568,,,,,,
1478503980.74,-2.479574,-1.415116,2.023027,-1.824820,0.714217,0.147987,-0.095312,0.987906,0.122298,-0.217997,-0.045447,-0.523177,-12.975830,40.582336,16.750610,,,,,,
1478503980.76,-2.656740,-1.387663,1.827078,-2.144005,0.921267,0.880422,-0.084878,0.983278,0.161122,-0.307914,-0.073122,-0.348820,-15.229309,38.106506,18.084961,,,,,,
1478503980.78,-2.816484,-1.358368,1.641552,-1.971553,1.176334,1.214170,-0.067343,0.977522,0.199790,-0.203882,-0.098112,-0.142279,-14.478699,37.203979,19.515869,,,,,,
1478503980.80,-2.952151,-1.331520,1.480955,-1.660069,0.928133,1.520707,-0.044630,0.971510,0.232760,0.156751,-0.097563,-0.040209,-14.852539,36.527039,20.938477,,,,,,
1478503980.82,-3.071476,-1.305703,1.343723,-1.382014,0.540333,1.472793,-0.018356,0.965068,0.261355,0.490020,0.309209,0.011060,-14.852539,36.527039,20.938477,,,,,,
1478503980.84,3.138969,-1.285298,1.259846,-0.892020,0.342089,0.858378,0.000739,0.959521,0.281635,0.782739,0.753506,-0.058688,-13.200806,35.773438,22.751343,,,,,,
1478503980.86,3.113493,-1.268891,1.226398,-0.801377,0.428756,0.380784,0.008354,0.954772,0.297222,0.911263,0.452363,-0.345654,-13.425720,35.472900,23.199829,,,,,,
1478503980.88,3.098206,-1.252984,1.196107,-0.751396,0.845970,0.628452,0.013554,0.949921,0.312195,0.462185,-0.339676,-0.300919,-12.675781,35.021790,23.730591,,,,,,
1478503980.90,3.062547,-1.243496,1.141626,-0.187797,0.666947,1.032074,0.025386,0.946914,0.320484,0.130696,-0.200789,-0.187687,-13.124878,34.871155,24.327271,,,,,,
1478503980.92,3.004310,-1.243420,1.074765,0.211479,0.024550,1.048020,0.044006,0.946889,0.318534,0.018616,-0.063451,-0.082557,-13.124878,34.871155,24.327271,,,,,,
1478503980.94,2.950498,-1.243475,1.021779,0.060437,-0.242240,0.690989,0.061065,0.946907,0.315655,-0.011047,0.140495,0.001117,-12.075073,35.171265,23.885132,,,,,,
1478503980.96,2.924400,-1.239597,0.999160,-0.213714,-0.245861,0.236011,0.070072,0.945653,0.317538,0.040249,0.141368,-0.032610,-11.549194,35.320557,24.113892,,,,,,
1478503980.98,2.919706,-1.234325,1.001040,-0.247402,-0.385533,-0.076924,0.072658,0.943925,0.322065,0.203938,-0.000185,-0.101102,-11.173950,35.245117,24.341797,,,,,,
1478503981.00,2.923810,-1.232752,1.015127,-0.071742,-0.496290,-0.290819,0.071657,0.943405,0.323809,0.296782,-0.120300,-0.073108,-10.648865,35.094482,24.570679,,,,,,
1478503981.02,2.935870,-1.234711,1.039233,0.072017,-0.562320,-0.488990,0.067369,0.944053,0.322840,0.287169,-0.147895,-0.046915,-10.648865,35.094482,24.570679,,,,,,
1478503981.04,2.956383,-1.239841,1.074379,0.164439,-0.694090,-0.691600,0.059840,0.945732,0.319389,0.256673,-0.244927,-0.018715,-10.873962,35.094727,24.494141,,,,,,
1478503981.06,2.985820,-1.245982,1.122155,0.176818,-0.849008,-0.883971,0.049511,0.947710,0.315269,0.259845,-0.314089,0.051033,-11.398560,35.019531,24.790161,,,,,,
1478503981.08,3.023984,-1.251112,1.180525,0.073140,-0.824040,-0.985706,0.036875,0.949335,0.312096,0.321844,-0.448541,0.161018,-11.248413,35.019348,24.866333,,,,,,
1478503981.10,3.067115,-1.252675,1.236536,-0.011387,-0.307393,-0.808121,0.023274,0.949825,0.311916,0.377102,-0.466365,0.218998,-11.325073,34.419495,24.791016,,,,,,
1478503981.12,3.107914,-1.256317,1.280522,0.260490,0.077329,-0.628377,0.010416,0.950957,0.309146,0.336813,-0.198028,0.028286,-11.325073,34.419495,24.791016,,,,,,
1478503981.14,3.130910,-1.264500,1.304609,0.378571,-0.127928,-0.204809,0.003221,0.953457,0.301512,0.066786,-0.036495,-0.120650,-11.999329,34.494385,25.085938,,,,,,
1478503981.16,3.114391,-1.259875,1.291422,-0.637965,-0.241676,0.449768,0.008321,0.952052,0.305823,-0.170430,-0.048381,0.179498,-12.675293,34.570496,24.555786,,,,,,
1478503981.18,3.064057,-1.241532,1.246922,-0.849180,-0.526618,0.847164,0.025046,0.946281,0.322375,0.221521,0.113305,0.169675,-11.774963,34.419617,24.862671,,,,,,
1478503981.20,3.037885,-1.235876,1.221350,0.195052,0.411065,0.142518,0.034027,0.944437,0.326928,0.587052,0.239996,0.161354,-11.100342,33.893616,25.317993,,,,,,
1478503981.22,3.062459,-1.256048,1.230108,1.373726,0.546351,-0.363235,0.024472,0.950874,0.308608,0.243701,1.123909,-0.375091,-11.100342,33.893616,25.317993,,,,,,
1478503981.24,3.071101,-1.280241,1.242161,1.019413,-0.117062,-0.290722,0.020178,0.958085,0.285773,-0.503698,1.760726,-0.533072,-11.473633,34.944458,24.864624,,,,,,
1478503981.26,3.109877,-1.302420,1.273014,1.176378,0.702309,-0.401814,0.008409,0.964203,0.265033,-1.028398,0.717514,-0.567081,-11.622803,35.845642,24.113159,,,,,,
1478503981.28,3.098819,-1.321148,1.243823,0.781404,1.071458,0.786628,0.010565,0.968999,0.246837,-0.182348,-0.868764,-0.080562,-12.149353,35.997253,23.209106,,,,,,
1478503981.30,3.042292,-1.337073,1.155734,0.990517,1.536064,0.996776,0.022960,0.972811,0.230460,0.087559,-0.934099,0.050271,-12.000488,36.223572,22.310059,,,,,,
1478503981.32,2.979668,-1.355547,1.065298,1.037248,1.089795,0.769910,0.034435,0.976923,0.210797,-0.025157,-0.690745,-0.129422,-12.000488,36.223572,22.310059,,,,,,
1478503981.34,2.961929,-1.372486,1.025787,0.816387,1.106031,-0.189378,0.035206,0.980401,0.193842,-0.098042,-0.334832,-0.634806,-12.300476,38.327515,19.756714,,,,,,
1478503981.36,3.090164,-1.380256,1.126899,-0.267203,1.704853,-1.361870,0.009736,0.981902,0.189139,-0.603058,0.320558,-0.570670,-12.599609,39.078430,19.229126,,,,,,
1478503981.38,-3.084207,-1.361450,1.196984,-0.907477,2.218099,-0.048320,-0.011919,0.978167,0.207479,-0.623106,0.886900,0.520015,-13.877625,38.330017,18.619995,,,,,,
1478503981.40,-3.078847,-1.366807,1.147163,0.893664,3.093415,0.660686,-0.012702,0.979266,0.202178,-0.208489,0.061734,0.368638,-15.379944,37.656189,18.308960,,,,,,
1478503981.42,-3.043094,-1.391534,1.107891,1.189863,4.020119,0.320263,-0.017534,0.983976,0.177439,-0.076094,-0.519315,0.142538,-15.379944,37.656189,18.308960,,,,,,
1478503981.44,-2.979801,-1.409180,1.093189,0.650287,3.741325,0.248530,-0.025921,0.986968,0.158812,-0.149723,-0.510421,-0.114745,-17.483032,39.087219,14.992432,,,,,,
1478503981.46,-2.942156,-1.416309,1.062465,0.113388,3.274083,0.325064,-0.030485,0.988091,0.150824,-0.031740,-0.197258,-0.115759,-18.985779,39.691223,12.880859,,,,,,
1478503981.48,-2.926697,-1.415018,1.012098,-0.245702,3.336824,0.373027,-0.033085,0.987891,0.151581,0.109394,0.144723,0.155884,-19.514282,39.844360,10.926880,,,,,,
1478503981.50,-2.899948,-1.415117,0.970722,0.147282,3.402732,0.257991,-0.037104,0.987906,0.150547,0.188715,0.383721,0.337887,-20.868408,40.223877,8.366577,,,,,,
1478503981.52,-2.833260,-1.426473,0.972660,0.724726,3.126856,0.096587,-0.043646,0.989604,0.137040,0.224707,0.278493,0.267501,-20.868408,40.223877,8.366577,,,,,,
1478503981.54,-2.756200,-1.440694,0.993873,0.682478,2.649615,0.111985,-0.048771,0.991549,0.120220,0.316669,-0.032442,0.202061,-21.846558,40.677490,6.259033,,,,,,
1478503981.56,-2.684684,-1.453973,1.016903,0.675796,2.346557,0.159247,-0.051422,0.993184,0.104601,0.386368,-0.106953,0.170576,-22.374146,41.130676,4.379761,,,,,,
1478503981.58,-2.605059,-1.466963,1.053678,0.660176,2.052208,0.107449,-0.052980,0.994614,0.089083,0.455598,-0.109833,0.140684,-23.276367,41.433289,2.872803,,,,,,
1478503981.60,-2.504522,-1.477646,1.117780,0.599127,1.725190,-0.023322,-0.055330,0.995665,0.074770,0.500428,-0.127028,0.138777,-22.982117,41.362366,0.100098,,,,,,
1478503981.62,-2.376695,-1.484535,1.215516,0.521100,1.426922,-0.148907,-0.059659,0.996282,0.062156,0.448148,-0.100789,0.155068,-22.982117,41.362366,0.100098,,,,,,
1478503981.64,-2.239583,-1.488630,1.327099,0.472638,1.260182,-0.158500,-0.064393,0.996626,0.050889,0.401216,-0.086836,0.151702,-23.210510,41.214783,-1.401489,,,,,,
1478503981.66,-2.107664,-1.492669,1.433841,0.474027,1.316259,-0.008483,-0.067068,0.996950,0.039917,0.316717,-0.060060,0.169067,-23.062012,41.441162,-2.450562,,,,,,
1478503981.68,-1.980649,-1.499518,1.534328,0.496181,1.360432,0.221503,-0.065320,0.997461,0.028378,0.225766,-0.081064,0.197024,-23.964417,41.518616,-3.732300,,,,,,
1478503981.70,-1.857704,-1.508961,1.631238,0.452163,1.262464,0.391730,-0.059270,0.998089,0.017488,0.201528,-0.100491,0.209212,-22.994141,41.221191,-5.749878,,,,,,
1478503981.72,-1.713256,-1.518424,1.754094,0.427133,1.017052,0.338741,-0.051818,0.998629,0.007432,0.206771,-0.110613,0.152663,-22.994141,41.221191,-5.749878,,,,,,
1478503981.74,-1.574974,-1.521035,1.871193,0.222266,1.152352,-0.044745,-0.049741,0.998762,0.000208,0.203717,-0.034147,0.136297,-22.470398,41.522339,-6.721069,,,,,,
1478503981.76,-1.528927,-1.516222,1.891427,-0.033054,1.367362,-0.322181,-0.054499,0.998511,-0.002283,0.148280,0.086755,0.251856,-22.470337,42.048218,-7.321289,,,,,,
1478503981.78,-1.537692,-1.511381,1.854668,-0.104229,1.440632,-0.142783,-0.059348,0.998235,-0.001965,0.175467,-0.025930,0.416562,-22.547668,41.674438,-8.071655,,,,,,
1478503981.80,-1.531268,-1.512465,1.831959,-0.062166,1.418797,0.103381,-0.058252,0.998299,-0.002304,0.214945,-0.241418,0.348861,-22.326416,41.075928,-9.194702,,,,,,
1478503981.82,-1.544116,-1.511451,1.796979,-0.144113,0.893351,-0.203910,-0.059289,0.998240,-0.001582,0.236246,0.107061,-0.144093,-22.326416,41.075928,-9.194702,,,,,,
1478503981.84,-1.632063,-1.499084,1.695098,-0.497683,0.623538,-0.884592,-0.071516,0.997430,0.004387,0.085051,0.122138,-0.199608,-22.626953,41.226807,-9.647095,,,,,,
1478503981.86,-1.761488,-1.474146,1.552734,-0.880111,0.631757,-1.224153,-0.094751,0.995333,0.018291,-0.188894,-0.048052,-0.281444,-22.252380,41.001526,-9.569092,,,,,,
1478503981.88,-1.910328,-1.451978,1.394718,-1.300429,0.201297,-0.518979,-0.111771,0.992949,0.039479,-0.278213,-0.201156,-0.462727,-23.753662,40.251770,-9.280029,,,,,,
1478503981.90,-2.154010,-1.438211,1.151063,-1.879706,-0.248132,0.382282,-0.110344,0.991223,0.072802,-0.295768,-0.340497,-0.381991,-24.051697,39.649414,-7.557129,,,,,,
1478503981.92,-2.442692,-1.423051,0.867581,-1.987238,-0.444397,0.944045,-0.094710,0.989105,0.112696,-0.189317,-0.270508,-0.167673,-24.051697,39.649414,-7.557129,,,,,,
1478503981.94,-2.718802,-1.402899,0.598290,-2.015574,-0.578153,1.482730,-0.068566,0.985938,0.152395,0.247857,-0.165580,0.014551,-23.823792,39.496765,-5.905273,,,,,,
1478503981.96,-2.976946,-1.375099,0.352446,-1.857876,-0.962974,1.773726,-0.031871,0.980912,0.191821,0.733775,0.345015,0.111478,-22.544250,40.093872,-4.395996,,,,,,
1478503981.98,-3.128014,-1.352499,0.214696,-0.834188,-0.649059,0.938984,-0.002941,0.976268,0.216547,1.189189,0.975316,0.033910,-21.639282,40.615601,-2.514526,,,,,,
1478503982.00,3.119408,-1.340877,0.191396,-0.651552,-0.736162,-0.037090,0.005055,0.973685,0.227843,1.070628,0.491357,-0.411772,-19.607178,41.435852,-0.024658,,,,,,
1478503982.02,3.101634,-1.321142,0.186829,-1.208106,-0.619025,0.272636,0.009870,0.968998,0.246871,0.188448,-0.556385,-0.133529,-19.607178,41.435852,-0.024658,,,,,,
1478503982.04,3.034719,-1.297339,0.132331,-0.933816,-0.876482,1.070781,0.028808,0.962843,0.268521,-0.274627,-0.276884,-0.036328,-20.055359,41.434692,0.872070,,,,,,
1478503982.06,2.929436,-1.285957,0.049253,-0.136907,-1.451355,1.251677,0.059171,0.959707,0.274703,-0.271237,-0.026189,0.017701,-19.302979,41.507690,2.002563,,,,,,
1478503982.08,2.836133,-1.275703,-0.018494,-0.435828,-1.319025,0.915581,0.087461,0.956775,0.277366,-0.253401,0.171506,0.044945,-17.422119,42.328857,3.891235,,,,,,
1478503982.10,2.795362,-1.257760,-0.039453,-0.898924,-0.925381,0.403606,0.104504,0.951403,0.289674,-0.082165,0.202360,0.078490,-16.670898,42.402771,4.421875,,,,,,
1478503982.12,2.787534,-1.238675,-0.028995,-0.931774,-0.898069,0.049970,0.113044,0.945353,0.305825,0.180520,0.046026,-0.018930,-16.670898,42.402771,4.421875,,,,,,
1478503982.14,2.788622,-1.226328,-0.007975,-0.538455,-0.987132,-0.205342,0.116737,0.941255,0.316877,0.243324,-0.011461,-0.071913,-16.218262,42.175110,6.000488,,,,,,
1478503982.16,2.787093,-1.224469,0.014283,-0.026708,-1.206404,-0.391676,0.117829,0.940626,0.318339,0.146118,-0.027586,-0.080485,-15.842346,41.948792,6.753418,,,,,,
1478503982.18,2.784310,-1.231860,0.037084,0.320500,-1.204064,-0.547318,0.116280,0.943109,0.311488,0.085747,-0.094446,0.027731,-15.915649,41.722168,7.877930,,,,,,
1478503982.20,2.786912,-1.243561,0.064724,0.419392,-1.180768,-0.675614,0.111628,0.946935,0.301420,0.073278,-0.182271,0.128496,-16.140930,41.421936,8.101440,,,,,,
1478503982.22,2.792516,-1.257940,0.095856,0.570722,-1.227975,-0.710904,0.105269,0.951458,0.289215,0.114427,-0.216610,0.195129,-16.140930,41.421936,8.101440,,,,,,
1478503982.24,2.792929,-1.271254,0.120416,0.406800,-1.064120,-0.468283,0.100813,0.955472,0.277327,0.244433,-0.520245,0.230149,-16.441650,41.197205,8.024292,,,,,,
1478503982.26,2.791334,-1.278902,0.136128,0.284593,-0.701465,-0.314090,0.098744,0.957700,0.270295,0.428142,-0.437406,0.202865,-16.743225,40.672485,7.947266,,,,,,
1478503982.28,2.779293,-1.289228,0.138821,0.607171,-0.846253,-0.190744,0.098482,0.960621,0.259825,0.422789,0.008419,0.022829,-16.517273,41.272827,7.648682,,,,,,
1478503982.30,2.755775,-1.302557,0.133727,0.549188,-0.855754,-0.122920,0.099737,0.964239,0.245552,0.167582,0.160059,0.110848,-16.667114,41.272766,7.722656,,,,,,
1478503982.32,2.745940,-1.299565,0.136123,-0.614744,-0.657796,0.085412,0.103258,0.963442,0.247220,0.143064,0.323286,-0.019132,-16.667114,41.272766,7.722656,,,,,,
1478503982.34,2.745296,-1.289237,0.150820,-0.180943,-0.680380,0.037798,0.107253,0.960623,0.256319,0.238587,0.706293,-0.316531,-16.593262,41.048157,7.423218,,,,,,
1478503982.36,2.678168,-1.302366,0.095391,1.532215,-0.546597,0.602677,0.118556,0.964188,0.237245,-0.034877,1.872024,0.199843,-15.991760,40.746155,8.552856,,,,,,
1478503982.38,2.577546,-1.330847,-0.089102,1.809180,-0.235912,0.097031,0.127052,0.971350,0.200840,-0.631599,0.534738,-0.110050,-15.390564,41.947205,7.656738,,,,,,
1478503982.40,2.519150,-1.349740,-0.175869,0.586400,-0.145774,0.115725,0.127834,0.975666,0.178140,-0.544887,-0.830586,-0.023889,-15.243713,41.949524,6.082886,,,,,,
1478503982.42,2.505313,-1.349864,-0.198008,0.203250,0.568835,0.116790,0.130214,0.975693,0.176257,-0.032512,-0.531983,-0.098681,-15.243713,41.949524,6.082886,,,,,,
1478503982.44,2.467907,-1.357491,-0.259328,0.813750,0.162729,0.218698,0.132068,0.977337,0.165443,-0.027286,-0.305706,-0.243766,-14.942932,42.249390,6.085083,,,,,,
1478503982.46,2.390702,-1.369567,-0.346347,1.022794,-0.250242,0.119349,0.136372,0.979822,0.146124,0.072521,0.064261,-0.359884,-14.794128,42.024719,5.786255,,,,,,
1478503982.48,2.343599,-1.386167,-0.393450,0.727341,-0.531737,-0.662123,0.131437,0.983004,0.128167,-0.231336,0.476133,-0.368859,-14.570740,43.002625,3.762329,,,,,,
1478503982.50,2.376659,-1.409202,-0.351154,0.429308,-0.801976,-1.194534,0.111416,0.986972,0.116072,-0.539730,0.444394,-0.102492,-15.470276,43.002808,3.980713,,,,,,
1478503982.52,2.420661,-1.428626,-0.296527,0.514423,-0.233002,-0.858550,0.093528,0.989911,0.106438,-0.350258,-0.159680,0.140160,-15.470276,43.002808,3.980713,,,,,,
1478503982.54,2.445075,-1.448156,-0.285590,0.729068,0.974660,-0.605858,0.078483,0.992489,0.093839,-0.261039,-0.435421,0.252306,-15.846802,42.628418,3.677979,,,,,,
1478503982.56,2.470403,-1.462174,-0.296157,0.436725,1.993572,-0.304568,0.067421,0.994106,0.084893,-0.236748,-0.501034,0.202659,-16.374451,41.879272,3.299438,,,,,,
1478503982.58,2.511273,-1.467390,-0.296141,0.098242,1.845457,-0.092237,0.060839,0.994658,0.083387,-0.119204,-0.431960,0.002566,-17.577515,42.408203,1.115112,,,,,,
1478503982.60,2.530802,-1.467480,-0.307235,0.017533,1.377565,0.116673,0.059148,0.994668,0.084486,-0.059011,-0.279900,-0.080228,-18.029053,42.484680,0.211792,,,,,,
1478503982.62,2.535554,-1.466752,-0.326938,0.047061,1.184084,0.056454,0.059158,0.994592,0.085361,-0.042679,-0.005167,-0.074512,-18.029053,42.484680,0.211792,,,,,,
1478503982.64,2.570569,-1.469028,-0.315516,0.059592,1.203693,-0.233051,0.054910,0.994826,0.085475,-0.008264,0.205858,-0.041103,-17.879089,42.484619,0.212891,,,,,,
1478503982.66,2.657705,-1.473920,-0.251813,0.072783,1.183888,-0.479912,0.044998,0.995311,0.085620,0.077743,0.245549,0.044767,-17.880005,42.560425,-0.312134,,,,,,
1478503982.68,2.762891,-1.481630,-0.170025,0.277493,1.226819,-0.483110,0.032922,0.996027,0.082739,0.111212,0.136083,0.168406,-18.557800,42.638062,-1.817261,,,,,,
1478503982.70,2.844142,-1.493001,-0.115325,0.574662,1.419142,-0.366804,0.022778,0.996975,0.074304,0.022205,0.035419,0.148535,-19.383728,42.864563,-2.573730,,,,,,
1478503982.72,2.918666,-1.507906,-0.069637,0.720652,1.461165,-0.350098,0.013895,0.998023,0.061294,0.022177,-0.004661,0.062837,-19.383728,42.864563,-2.573730,,,,,,
1478503982.74,3.041779,-1.523520,0.026069,0.726962,1.324112,-0.413725,0.004709,0.998883,0.047023,0.041372,-0.040554,0.096943,-18.936584,42.490784,-3.545044,,,,,,
1478503982.76,-2.995735,-1.536774,0.248424,0.646511,1.118170,-0.440465,-0.004944,0.999421,0.033654,0.110107,-0.122544,0.195288,-19.466492,41.743286,-5.048706,,,,,,
1478503982.78,-2.624162,-1.545119,0.597687,0.513646,1.173612,-0.286927,-0.012700,0.999670,0.022313,0.221303,-0.251791,0.313929,-19.694397,41.895935,-6.700439,,,,,,
1478503982.80,-2.300683,-1.550516,0.896038,0.363000,1.303249,0.026075,-0.015113,0.999794,0.013521,0.301444,-0.334145,0.316007,-20.295715,42.122620,-7.680054,,,,,,
1478503982.82,-2.139385,-1.557972,1.036743,0.324200,0.787229,0.320449,-0.010807,0.999918,0.006905,0.353321,-0.276270,0.142463,-20.295715,42.122620,-7.680054,,,,,,
1478503982.84,-1.727586,-1.565674,1.436493,0.270021,0.644065,0.216049,-0.005059,0.999987,0.000800,0.187829,-0.104342,0.199563,-20.372742,41.823608,-8.280518,,,,,,
1478503982.86,-0.751391,-1.564853,2.395690,0.243790,0.948625,-0.018749,-0.004057,0.999982,-0.004343,-0.092546,0.093981,0.291269,-19.099731,42.049927,-9.546021,,,,,,
1478503982.88,-0.509873,-1.561674,2.617712,0.131864,0.965962,0.001900,-0.004452,0.999958,-0.007962,-0.128162,0.249981,0.463482,-18.725952,42.200928,-10.368408,,,,,,
