timestamp(unix),attitude_roll(radians),attitude_pitch(radians),attitude_yaw(radians),rotation_rate_x(radians/s),rotation_rate_y(radians/s),rotation_rate_z(radians/s),gravity_x(G),gravity_y(G),gravity_z(G),user_acc_x(G),user_acc_y(G),user_acc_z(G),magnetic_field_x(microteslas),magnetic_field_y(microteslas),magnetic_field_z(microteslas),latitude(degree),longitude(degree),altitude(meter),speed(m/s),course(degree),timestamp(unix)
1478503865.48,0.975607,-1.269207,-0.115691,-0.025408,-0.042526,-0.024495,0.245961,0.954865,-0.166539,-0.001774,-0.018128,-0.003581,19.476868,37.051331,9.945679,,,,,,
,,,,,,,,,,,,,,,,37.392598,-122.003843,10.924927,-1.000000,-1.000000,1478503865.46
,,,,,,,,,,,,,,,,37.391756,-122.011203,10.924927,1.560000,-1.000000,1478503688.00
,,,,,,,,,,,,,,,,37.392598,-122.003843,10.924927,-1.000000,-1.000000,1478503865.48
,,,,,,,,,,,,,,,,37.392598,-122.003843,10.924927,-1.000000,-1.000000,1478503865.48
1478503865.50,0.974899,-1.269092,-0.115070,-0.009631,-0.070249,-0.007332,0.245933,0.954831,-0.166775,0.015282,-0.014432,-0.002888,19.476868,37.051331,9.945679,,,,,,
1478503865.52,0.975381,-1.268788,-0.113623,0.002158,-0.028845,0.004381,0.246254,0.954741,-0.166819,0.005638,-0.006484,0.010493,19.177307,37.201416,10.018311,,,,,,
1478503865.54,0.978059,-1.269227,-0.111518,-0.001847,0.050900,0.007431,0.246352,0.954872,-0.165925,-0.004439,-0.006172,0.023545,18.501099,36.902039,9.788452,,,,,,
1478503865.56,0.980575,-1.269096,-0.110345,0.004561,0.071064,0.015952,0.246872,0.954833,-0.165374,0.000991,-0.008681,0.006759,19.027954,37.200989,10.317261,,,,,,
1478503865.58,0.982571,-1.268709,-0.109500,0.001290,0.047687,0.014906,0.247509,0.954718,-0.165086,0.002262,-0.001913,-0.000045,19.177124,37.051331,10.093506,,,,,,
1478503865.60,0.983178,-1.268618,-0.109264,-0.011556,0.005228,0.001061,0.247682,0.954691,-0.164984,0.002181,0.007666,-0.006800,19.177124,37.051331,10.093506,,,,,,
1478503865.62,0.982788,-1.268864,-0.109406,-0.011559,-0.014954,-0.009554,0.247422,0.954764,-0.164950,-0.001450,0.000604,-0.005369,19.027954,37.200989,10.317261,,,,,,
1478503865.64,0.982376,-1.269049,-0.109469,-0.004119,-0.016045,-0.007382,0.247208,0.954819,-0.164954,0.001419,-0.002502,0.000281,18.951599,36.826416,10.091919,,,,,,
1478503865.66,0.982676,-1.269232,-0.109118,-0.008338,0.009471,0.000008,0.247111,0.954873,-0.164783,-0.001521,-0.008889,0.003864,18.952332,37.126465,10.091797,,,,,,
1478503865.68,0.983530,-1.269079,-0.108735,0.001305,0.032822,0.004284,0.247373,0.954828,-0.164653,0.003817,0.002570,-0.001516,19.177368,37.051086,10.243530,,,,,,
1478503865.70,0.983950,-1.269089,-0.109151,0.003500,0.043454,0.000021,0.247435,0.954831,-0.164544,-0.006224,-0.003964,-0.000312,19.177368,37.051086,10.243530,,,,,,
1478503865.72,0.984162,-1.269166,-0.109689,-0.008215,0.040306,-0.002168,0.247409,0.954853,-0.164451,-0.006412,-0.007939,-0.002282,19.326111,36.826538,9.869751,,,,,,
1478503865.74,0.984928,-1.268796,-0.109708,-0.015688,0.035014,-0.002199,0.247829,0.954744,-0.164456,0.008290,-0.029313,-0.016757,19.477173,37.051147,10.095703,,,,,,
1478503865.76,0.984637,-1.268442,-0.110471,-0.032742,0.035064,-0.000163,0.248062,0.954638,-0.164715,-0.007935,-0.036288,-0.019001,19.026489,36.901550,9.942383,,,,,,
1478503865.78,0.985371,-1.268489,-0.110650,-0.047551,0.078685,0.008204,0.248146,0.954652,-0.164508,-0.017525,-0.035600,-0.021588,19.402649,36.825378,10.620361,,,,,,
1478503865.80,0.985603,-1.268732,-0.112323,-0.077118,0.148948,0.006867,0.247991,0.954724,-0.164323,-0.035192,-0.044827,-0.045348,19.402649,36.825378,10.620361,,,,,,
1478503865.82,0.995194,-1.269629,-0.106252,-0.110019,0.208567,0.020434,0.248837,0.954991,-0.161470,-0.055630,-0.065770,-0.069807,19.252197,36.900879,10.319092,,,,,,
1478503865.84,1.000530,-1.270039,-0.104487,-0.100746,0.211629,0.073699,0.249365,0.955112,-0.159929,-0.079505,-0.057117,-0.077345,19.326355,36.751282,10.094727,,,,,,
1478503865.86,1.012418,-1.269374,-0.096488,-0.071004,0.225315,0.095132,0.251787,0.954915,-0.157290,-0.072237,0.002894,-0.059187,19.026489,36.751282,10.167480,,,,,,
1478503865.88,1.018701,-1.269536,-0.094904,-0.039669,0.268881,0.049458,0.252639,0.954963,-0.155623,-0.067717,0.041436,-0.038636,19.401550,36.600708,10.395264,,,,,,
1478503865.90,1.026542,-1.269924,-0.092189,-0.053108,0.253110,-0.025107,0.253534,0.955078,-0.153446,-0.069071,0.028824,-0.056896,19.401550,36.600708,10.395264,,,,,,
1478503865.92,1.028309,-1.272355,-0.095178,-0.073852,0.254395,-0.113581,0.251816,0.955796,-0.151799,-0.045151,0.022811,-0.054638,18.877319,36.600403,10.766357,,,,,,
1478503865.94,1.031609,-1.275582,-0.096488,-0.060911,0.206604,-0.165598,0.249668,0.956740,-0.149383,-0.060642,-0.012663,-0.045289,18.802124,36.750854,10.540771,,,,,,
1478503865.96,1.026381,-1.280008,-0.103995,-0.079226,0.055785,-0.216570,0.245258,0.958018,-0.148491,-0.057301,-0.031154,-0.044289,18.727600,36.825745,10.615234,,,,,,
1478503865.98,1.022713,-1.284965,-0.105896,-0.125793,-0.187498,-0.231358,0.240656,0.959428,-0.146913,-0.019006,-0.040314,-0.051115,18.728210,36.825256,10.915161,,,,,,
1478503866.00,1.016288,-1.289994,-0.106750,-0.166637,-0.307486,-0.239914,0.235602,0.960833,-0.145914,0.018335,-0.009082,-0.033895,18.728210,36.825256,10.915161,,,,,,
1478503866.02,1.013782,-1.295280,-0.104179,-0.169743,-0.183186,-0.184767,0.230921,0.962285,-0.143817,0.044149,-0.015569,0.004687,18.428528,37.050537,10.837891,,,,,,
1478503866.04,1.020730,-1.301216,-0.097972,-0.123155,0.136880,-0.302088,0.227041,0.963883,-0.139221,0.059336,0.058639,0.075485,18.278015,36.825562,10.836792,,,,,,
1478503866.06,1.013722,-1.308071,-0.108751,-0.030819,0.176082,-0.395316,0.220446,0.965686,-0.137312,0.040235,0.002820,0.055692,18.353577,36.975464,10.912231,,,,,,
1478503866.08,0.997356,-1.315442,-0.127240,-0.001169,0.056981,-0.433294,0.212184,0.967574,-0.137036,0.040043,-0.041106,0.029934,18.278748,37.050476,10.911743,,,,,,
1478503866.10,0.985190,-1.322789,-0.140861,-0.102710,0.064650,-0.375316,0.204571,0.969404,-0.135674,0.040912,-0.149656,0.082833,18.278748,37.050476,10.911743,,,,,,
1478503866.12,0.985619,-1.329522,-0.142334,-0.213144,0.109426,-0.233340,0.199184,0.971034,-0.131978,0.079686,-0.138805,0.086034,17.379883,37.350647,11.129761,,,,,,
1478503866.14,0.997731,-1.334638,-0.131438,-0.256845,0.041285,-0.097220,0.196591,0.972244,-0.126861,0.149127,-0.064331,0.084487,16.780151,37.200500,11.425415,,,,,,
1478503866.16,1.009128,-1.338194,-0.119268,-0.179500,-0.055735,-0.083874,0.195097,0.973070,-0.122770,0.204439,0.034605,0.065229,16.855835,37.350220,11.575928,,,,,,
1478503866.18,1.008592,-1.341649,-0.117365,-0.082413,-0.174963,-0.173641,0.192185,0.973861,-0.121081,0.183105,0.115541,0.020648,17.155029,36.974976,11.653320,,,,,,
1478503866.20,0.997825,-1.346171,-0.122541,-0.077245,-0.349207,-0.245733,0.187168,0.974878,-0.120755,0.118313,0.151053,0.033688,17.155029,36.974976,11.653320,,,,,,
1478503866.22,0.984057,-1.351723,-0.127837,-0.120157,-0.478728,-0.270255,0.180977,0.976099,-0.120322,0.074058,0.102041,0.072943,16.329956,37.125793,11.421997,,,,,,
1478503866.24,0.978762,-1.357480,-0.122834,-0.163310,-0.542463,-0.220360,0.175672,0.977334,-0.118140,0.073657,0.028708,0.107353,16.705261,37.200439,11.499756,,,,,,
1478503866.26,0.972750,-1.362359,-0.118248,-0.181738,-0.511693,-0.152380,0.171016,0.978355,-0.116508,0.098302,-0.023613,0.123741,16.480530,37.425720,11.348145,,,,,,
1478503866.28,0.981524,-1.365620,-0.099590,-0.140482,-0.506592,-0.104249,0.169378,0.979025,-0.113230,0.103434,-0.049215,0.109659,16.705383,37.500916,11.199707,,,,,,
1478503866.30,0.973879,-1.367791,-0.096588,-0.053591,-0.552675,-0.055799,0.166750,0.979465,-0.113327,0.087492,-0.043445,0.087234,16.705383,37.500916,11.199707,,,,,,
1478503866.32,0.971932,-1.368598,-0.087385,-0.025019,-0.580431,-0.041755,0.165875,0.979627,-0.113205,0.060062,-0.019392,0.071366,16.630371,37.425781,11.274170,,,,,,
1478503866.34,0.961924,-1.369870,-0.085639,-0.078244,-0.591930,-0.054804,0.163711,0.979882,-0.114146,0.018326,0.008323,0.058910,16.929199,37.201111,10.976562,,,,,,
1478503866.36,0.958186,-1.372728,-0.076946,-0.143412,-0.638502,-0.051899,0.160992,0.980449,-0.113147,-0.016796,0.031087,0.044208,16.929565,37.351135,10.976440,,,,,,
1478503866.38,0.955072,-1.375344,-0.067227,-0.152957,-0.622528,-0.049847,0.158544,0.980960,-0.112166,-0.055639,0.011716,0.055602,17.454712,37.350708,11.055420,,,,,,
1478503866.40,0.952316,-1.379298,-0.058360,-0.121795,-0.548205,-0.051924,0.155074,0.981720,-0.110353,-0.080443,-0.004730,0.069032,17.679504,37.501038,10.756958,,,,,,
1478503866.42,0.949114,-1.381448,-0.052035,-0.112882,-0.429169,-0.047798,0.153003,0.982127,-0.109619,-0.085407,-0.029521,0.071930,17.679504,37.501038,10.756958,,,,,,
1478503866.44,0.950563,-1.383520,-0.042695,-0.144808,-0.372766,-0.021447,0.151506,0.982515,-0.108215,-0.082643,-0.032854,0.062759,17.304016,37.426514,10.604248,,,,,,
1478503866.46,0.957234,-1.385243,-0.028597,-0.164214,-0.366395,0.018888,0.150840,0.982834,-0.106227,-0.068824,-0.007752,0.055445,17.904114,37.200623,10.908813,,,,,,
1478503866.48,0.966494,-1.386562,-0.011525,-0.165481,-0.380255,0.043385,0.150750,0.983077,-0.104089,-0.059121,0.027864,0.054238,17.828308,37.201294,10.533203,,,,,,
1478503866.50,0.975061,-1.387776,0.004561,-0.152478,-0.353683,0.023191,0.150648,0.983299,-0.102123,-0.035414,0.023919,0.051373,17.828308,37.201294,10.533203,,,,,,
1478503866.52,0.983525,-1.389311,0.020299,-0.172682,-0.356794,0.015633,0.150250,0.983577,-0.100008,-0.022687,0.012502,0.048876,18.278259,36.975708,10.761719,,,,,,
1478503866.54,1.001216,-1.392429,0.045747,-0.203851,-0.395002,0.036806,0.149413,0.984135,-0.095681,0.003373,-0.024601,0.065682,17.904358,37.200439,11.058838,,,,,,
1478503866.56,1.028100,-1.393863,0.081246,-0.218343,-0.442926,0.111316,0.150722,0.984388,-0.090900,0.015538,-0.000730,0.059681,17.829163,37.125549,11.058350,,,,,,
1478503866.58,1.050097,-1.393827,0.113172,-0.256075,-0.483290,0.160137,0.152716,0.984382,-0.087581,0.025369,0.043801,0.062297,18.954041,37.049988,11.066772,,,,,,
1478503866.60,1.077713,-1.393656,0.150738,-0.251769,-0.479041,0.154832,0.155224,0.984352,-0.083410,0.013050,0.034615,0.033194,18.954041,37.049988,11.066772,,,,,,
1478503866.62,1.099499,-1.393906,0.183083,-0.272886,-0.527776,0.097307,0.156785,0.984396,-0.079898,-0.006150,-0.013509,0.021395,19.403625,36.974915,10.920166,,,,,,
1478503866.64,1.122474,-1.395929,0.218136,-0.349457,-0.617768,0.025702,0.156785,0.984750,-0.075411,-0.036622,-0.079278,0.031375,19.328369,36.824890,10.994751,,,,,,
1478503866.66,1.153602,-1.399419,0.263222,-0.486980,-0.690634,0.000573,0.155912,0.985351,-0.069102,-0.048323,-0.131774,0.050242,19.553162,36.599426,11.221558,,,,,,
1478503866.68,1.206660,-1.403823,0.330962,-0.695905,-0.680434,0.026022,0.155301,0.986092,-0.059190,-0.044858,-0.141564,0.068010,20.077942,36.298828,11.450562,,,,,,
1478503866.70,1.290288,-1.407946,0.428431,-0.903677,-0.597991,0.077980,0.155795,0.986769,-0.044885,-0.031970,-0.125487,0.082803,20.077942,36.298828,11.450562,,,,,,
1478503866.72,1.400974,-1.410328,0.551856,-1.050804,-0.544442,0.126057,0.157482,0.987153,-0.027004,-0.003231,-0.086853,0.085033,20.379211,36.523071,11.827759,,,,,,
1478503866.74,1.527057,-1.409532,0.689953,-1.126568,-0.494315,0.174532,0.160412,0.987025,-0.007021,0.031742,-0.021846,0.087969,20.378601,35.696960,12.578125,,,,,,
1478503866.76,1.658794,-1.405303,0.832380,-1.188157,-0.411216,0.188970,0.164101,0.986337,0.014478,0.072334,-0.002924,0.078814,20.453369,35.396545,12.803833,,,,,,
1478503866.78,1.790120,-1.396896,0.973122,-1.287583,-0.358951,0.274569,0.168880,0.984917,0.037645,0.093129,-0.050637,0.039656,21.203674,34.268860,14.385132,,,,,,
1478503866.80,1.910758,-1.382503,1.103156,-1.337511,-0.378169,0.411644,0.176470,0.982325,0.062416,0.108427,-0.049983,0.019585,21.203674,34.268860,14.385132,,,,,,
1478503866.82,2.001737,-1.365190,1.204382,-1.171706,-0.440415,0.438198,0.185495,0.978937,0.085283,0.137976,0.023199,0.058897,21.879456,34.042480,15.065308,,,,,,
1478503866.84,2.056461,-1.348718,1.270074,-0.888393,-0.487019,0.421730,0.194788,0.975442,0.102815,0.149954,0.115150,0.111403,21.880310,33.591003,16.040405,,,,,,
1478503866.86,2.087763,-1.335194,1.311260,-0.670237,-0.408895,0.332327,0.202925,0.972374,0.115371,0.145815,0.189278,0.123383,22.478516,32.615295,16.345459,,,,,,
1478503866.88,2.111267,-1.324264,1.343052,-0.572697,-0.359124,0.264660,0.209259,0.969764,0.125570,0.121521,0.156700,0.050349,23.152832,31.563416,17.326050,,,,,,
1478503866.90,2.126788,-1.314367,1.366637,-0.472714,-0.374361,0.281200,0.215426,0.967302,0.133861,0.063383,0.108275,-0.005123,23.152832,31.563416,17.326050,,,,,,
1478503866.92,2.131553,-1.305371,1.379220,-0.311940,-0.367471,0.299105,0.222146,0.964981,0.139509,0.059165,0.061020,0.016802,22.927917,31.563416,17.399414,,,,,,
1478503866.94,2.124930,-1.296693,1.380025,-0.134877,-0.371165,0.260705,0.230178,0.962668,0.142436,0.075013,0.016397,0.037755,23.977905,31.337585,17.632324,,,,,,
1478503866.96,2.113770,-1.292208,1.375186,-0.020260,-0.287452,0.206918,0.235447,0.961445,0.142087,0.075344,0.007107,0.058138,24.576965,31.037415,17.561890,,,,,,
1478503866.98,2.103100,-1.286166,1.368284,0.086048,-0.172844,0.133889,0.241951,0.959765,0.142513,0.075813,-0.017581,0.059345,24.800415,30.587646,17.338867,,,,,,
1478503867.00,2.089542,-1.286176,1.357971,0.143051,-0.203676,0.029928,0.243852,0.959768,0.139215,0.085036,-0.052313,0.054450,24.800415,30.587646,17.338867,,,,,,
1478503867.02,2.078461,-1.283653,1.351497,0.174637,-0.278979,-0.126247,0.247495,0.959057,0.137681,0.106936,-0.082134,0.081115,25.026489,30.887268,17.490479,,,,,,
1478503867.04,2.066273,-1.290077,1.345112,0.275733,-0.325767,-0.305521,0.243729,0.960857,0.131722,0.109115,-0.125377,0.116172,25.026306,30.812256,17.490479,,,,,,
1478503867.06,2.055498,-1.297100,1.340951,0.341492,-0.361864,-0.451997,0.239159,0.962778,0.125941,0.130058,-0.186823,0.130422,25.026184,31.263184,16.890259,,,,,,
1478503867.08,2.046852,-1.308970,1.339321,0.244161,-0.349674,-0.553677,0.230064,0.965919,0.118623,0.174858,-0.260932,0.158172,24.950989,31.639038,16.289551,,,,,,
1478503867.10,2.050582,-1.320409,1.350739,0.074883,-0.387332,-0.591808,0.219804,0.968816,0.114372,0.197097,-0.289602,0.195625,24.950989,31.639038,16.289551,,,,,,
1478503867.12,2.061123,-1.331754,1.370505,0.063146,-0.456329,-0.622632,0.208875,0.971565,0.111499,0.223132,-0.295143,0.199337,24.726440,32.014526,16.062622,,,,,,
1478503867.14,2.068791,-1.343121,1.386792,0.123875,-0.360936,-0.570283,0.198299,0.974194,0.107815,0.275334,-0.309063,0.188602,24.426880,32.390076,15.835205,,,,,,
1478503867.16,2.075612,-1.353540,1.399794,0.119552,-0.278096,-0.514014,0.188664,0.976493,0.104250,0.311748,-0.134848,0.168577,24.351624,32.615784,15.384521,,,,,,
1478503867.18,2.084861,-1.363917,1.416685,0.069136,-0.441593,-0.550235,0.178858,0.978677,0.101003,0.262441,0.124061,0.142009,24.351624,32.615784,15.384521,,,,,,
1478503867.20,2.110730,-1.371203,1.452547,-0.288269,-0.420405,-0.454298,0.170065,0.980147,0.101927,0.257532,0.163148,0.157961,24.352661,33.516602,14.784180,,,,,,
1478503867.22,2.155937,-1.370345,1.503380,-0.463579,-0.120799,-0.020337,0.165986,0.979977,0.109973,0.322051,0.634052,0.065534,24.352295,33.441711,14.709106,,,,,,
1478503867.24,2.135626,-1.363294,1.485292,0.341327,-0.208348,0.517534,0.174018,0.978549,0.110275,0.139779,1.545865,0.037156,23.828369,33.516357,15.155151,,,,,,
1478503867.26,2.051328,-1.371034,1.406038,1.068685,-0.352949,-0.205302,0.175963,0.980114,0.091727,-0.225630,0.571430,-0.011451,24.652771,33.666748,14.636353,,,,,,
1478503867.28,1.970425,-1.385195,1.327829,0.842653,-0.111634,-0.381489,0.169997,0.982825,0.071799,-0.134261,-0.299369,0.071877,24.428223,34.192383,14.259399,,,,,,
1478503867.30,1.952628,-1.397101,1.307496,0.166359,0.233202,-0.558179,0.160377,0.984953,0.064397,0.062783,-0.548887,0.126048,24.428223,34.192383,14.259399,,,,,,
1478503867.32,1.965794,-1.410672,1.315783,0.305373,0.180858,-0.671237,0.147164,0.987207,0.061354,0.007545,-0.423685,-0.103987,24.052063,34.268616,13.581299,,,,,,
1478503867.34,1.935330,-1.425210,1.287252,0.526802,-0.296322,-0.572424,0.135540,0.989421,0.051720,0.016926,-0.279491,-0.327843,24.278625,34.868530,13.582764,,,,,,
1478503867.36,1.887972,-1.440147,1.249455,0.469714,-0.596887,-0.640408,0.123780,0.991477,0.040632,-0.158814,0.050805,-0.298322,23.154541,35.845154,12.823853,,,,,,
1478503867.38,1.840671,-1.452627,1.216052,0.290067,-0.757173,-0.451670,0.113627,0.993026,0.031432,-0.318751,0.123368,-0.195510,23.227844,36.071838,11.699341,,,,,,
1478503867.40,1.832477,-1.459609,1.221515,-0.044676,-0.607464,-0.330256,0.107181,0.993825,0.028705,-0.278323,0.001750,0.047192,23.227844,36.071838,11.699341,,,,,,
1478503867.42,1.831788,-1.465651,1.227728,0.188479,-0.176750,-0.235954,0.101397,0.994477,0.027082,-0.166369,-0.346635,0.063327,23.152466,36.222412,11.323608,,,,,,
1478503867.44,1.728979,-1.469690,1.123456,0.774338,0.175011,-0.028886,0.099674,0.994893,0.015900,-0.104023,-0.284291,-0.047089,23.153015,36.522522,11.248535,,,,,,
1478503867.46,1.576044,-1.472681,0.963458,0.712833,0.354023,-0.144463,0.097957,0.995191,0.000514,-0.103999,-0.032834,-0.066890,22.552917,37.199219,10.343750,,,,,,
1478503867.48,1.514669,-1.478051,0.894680,0.105964,0.380820,-0.357544,0.092466,0.995702,-0.005195,-0.190199,0.158640,0.039955,22.553101,37.574768,9.968506,,,,,,
1478503867.50,1.502878,-1.486904,0.872251,0.155577,0.642407,-0.479023,0.083601,0.996483,-0.005687,-0.273222,0.170906,0.052897,22.553101,37.574768,9.968506,,,,,,
1478503867.52,1.412912,-1.495385,0.767146,0.453141,0.773240,-0.460555,0.074403,0.997158,-0.011846,-0.214250,-0.005962,0.023686,22.253845,37.574341,10.341309,,,,,,
1478503867.54,1.291609,-1.500700,0.631015,0.388930,0.687034,-0.291521,0.067327,0.997544,-0.019301,-0.043737,-0.197068,0.023802,21.654541,37.799561,10.411621,,,,,,
1478503867.56,1.190733,-1.501837,0.517493,0.358950,0.599695,-0.145716,0.063988,0.997623,-0.025562,0.073692,-0.153736,0.030430,20.681702,38.850403,10.178833,,,,,,
1478503867.58,1.065466,-1.501553,0.378889,0.510192,0.707831,-0.250435,0.060541,0.997604,-0.033494,0.106818,0.006608,0.063340,20.306824,39.000854,10.025879,,,,,,
1478503867.60,0.888113,-1.500846,0.184896,0.594668,0.886380,-0.371595,0.054229,0.997554,-0.044094,0.009568,0.105549,0.089260,20.306824,39.000854,10.025879,,,,,,
1478503867.62,0.730832,-1.498480,0.008320,0.490301,0.955764,-0.338211,0.048228,0.997386,-0.053801,-0.030970,0.065831,0.093016,20.306946,39.301270,9.725830,,,,,,
1478503867.64,0.609665,-1.495535,-0.131417,0.424859,0.879375,-0.307583,0.043053,0.997169,-0.061644,0.001716,-0.052604,0.113432,19.333069,39.751831,9.718262,,,,,,
1478503867.66,0.494319,-1.491732,-0.262382,0.431955,0.698695,-0.350914,0.037471,0.996876,-0.069527,0.124058,-0.089604,0.102486,18.360107,40.577271,9.710571,,,,,,
1478503867.68,0.384519,-1.487109,-0.385613,0.411610,0.659434,-0.356288,0.031356,0.996500,-0.077486,0.225938,-0.079279,0.129564,18.209045,40.503052,9.259399,,,,,,
1478503867.70,0.301940,-1.481809,-0.482929,0.393302,0.769894,-0.262881,0.026428,0.996043,-0.084850,0.272706,-0.127620,0.192501,18.209045,40.503052,9.259399,,,,,,
1478503867.72,0.251584,-1.474921,-0.549887,0.433361,0.854612,-0.147824,0.023830,0.995408,-0.092714,0.249760,-0.116410,0.229509,17.609680,40.953674,9.029785,,,,,,
1478503867.74,0.252547,-1.466918,-0.567973,0.382294,0.992567,0.089069,0.025909,0.994610,-0.100402,0.164749,-0.155620,0.251937,16.710754,41.253967,9.172852,,,,,,
1478503867.76,0.292396,-1.460135,-0.548165,0.251536,1.027815,0.235198,0.031833,0.993883,-0.105748,0.129697,-0.122896,0.304173,16.786377,41.629150,9.023193,,,,,,
1478503867.78,0.334122,-1.454826,-0.525564,0.203773,0.914376,0.143561,0.037946,0.993283,-0.109312,0.160754,-0.071927,0.321744,16.111206,41.855042,8.643066,,,,,,
1478503867.80,0.334166,-1.451813,-0.542676,0.151044,0.839592,-0.154674,0.038932,0.992930,-0.112136,0.143410,0.003881,0.247451,16.111206,41.855042,8.643066,,,,,,
1478503867.82,0.310757,-1.451667,-0.582743,0.039534,0.805003,-0.229749,0.036341,0.992912,-0.113156,0.028585,0.062248,0.232327,16.036133,41.704773,8.792603,,,,,,
1478503867.84,0.294959,-1.453274,-0.612286,-0.085025,0.584213,-0.196033,0.034085,0.993102,-0.112189,0.163455,0.003251,0.148932,16.036255,41.704651,8.867554,,,,,,
1478503867.86,0.273053,-1.462373,-0.642956,-0.624712,0.365166,-0.387082,0.029181,0.994128,-0.104202,0.199426,0.212751,-0.093857,15.586914,41.854736,9.014160,,,,,,
1478503867.88,0.195549,-1.485726,-0.728995,-1.277752,0.438282,-0.857032,0.016510,0.996384,-0.083349,-0.045486,0.231216,-0.176448,15.288879,41.778259,10.062012,,,,,,
1478503867.90,-0.041106,-1.517067,-0.974562,-1.590380,0.398035,-0.971526,-0.002207,0.998557,-0.053658,-0.370352,0.119653,-0.241218,15.288879,41.778259,10.062012,,,,,,
1478503867.92,-0.602511,-1.546369,-1.540631,-1.749304,0.068801,-0.272522,-0.013842,0.999702,-0.020124,-0.556760,-0.074546,-0.429262,13.938416,41.027832,10.802246,,,,,,
1478503867.94,-2.761721,-1.551703,2.585191,-2.007353,-0.122357,0.682272,-0.007079,0.999818,0.017731,-0.682618,-0.179856,-0.405533,13.191406,41.025940,12.296631,,,,,,
1478503867.96,2.902110,-1.510316,1.962446,-2.033832,0.343426,1.259440,0.014337,0.998172,0.058718,-0.549478,-0.064792,-0.150667,13.718262,39.296143,15.376465,,,,,,
1478503867.98,2.745999,-1.468036,1.795724,-1.640232,0.543029,1.291106,0.039530,0.994725,0.094657,-0.005502,0.080745,0.019799,14.242188,37.793823,16.731079,,,,,,
1478503868.00,2.690892,-1.433115,1.728490,-1.349938,0.628871,0.913608,0.059784,0.990537,0.123541,0.506363,0.437060,0.031976,14.242188,37.793823,16.731079,,,,,,
1478503868.02,2.716991,-1.404766,1.743001,-1.386748,0.465407,0.234505,0.068083,0.986249,0.150593,0.932741,0.579746,-0.249256,15.142395,36.741272,18.163330,,,,,,
1478503868.04,2.784138,-1.374771,1.809446,-1.750728,0.019245,0.097992,0.068149,0.980848,0.182461,0.557400,-0.232741,-0.434658,15.443359,35.312622,20.416260,,,,,,
1478503868.06,2.782901,-1.337547,1.806458,-1.586895,0.028825,0.991993,0.081142,0.972920,0.216430,0.001363,-0.350865,-0.225860,15.069824,34.936035,21.613770,,,,,,
1478503868.08,2.717638,-1.311569,1.743801,-0.449237,-0.392130,1.283107,0.105447,0.966588,0.233640,-0.070459,-0.068029,-0.048307,16.043701,33.734253,22.521606,,,,,,
1478503868.10,2.622177,-1.302667,1.655488,0.331958,-0.528391,1.155609,0.131503,0.964268,0.229986,-0.100970,0.059780,0.016703,16.043701,33.734253,22.521606,,,,,,
1478503868.12,2.551580,-1.294578,1.590048,-0.148952,-0.282835,0.858797,0.151733,0.962094,0.226611,-0.074661,0.142902,-0.044345,16.867249,32.908325,22.828247,,,,,,
1478503868.14,2.534050,-1.275906,1.575484,-0.871372,-0.150357,0.614049,0.165910,0.956834,0.238627,0.021850,0.075210,-0.093958,18.140747,32.232483,22.988159,,,,,,
1478503868.16,2.535037,-1.257651,1.579982,-0.653818,-0.194240,0.382186,0.175603,0.951369,0.253101,0.100063,-0.018355,-0.039981,19.341492,32.005981,23.597290,,,,,,
1478503868.18,2.529617,-1.249956,1.581282,-0.140422,-0.446277,0.084138,0.181172,0.948971,0.258130,0.057994,-0.029827,-0.035291,19.489929,31.255615,23.748779,,,,,,
1478503868.20,2.520484,-1.252723,1.584411,0.187777,-0.682798,-0.231984,0.181993,0.949840,0.254328,0.011290,-0.053264,-0.019877,19.489929,31.255615,23.748779,,,,,,
1478503868.22,2.513821,-1.262404,1.592621,0.393618,-0.747884,-0.476653,0.178275,0.952823,0.245656,0.009164,-0.103244,0.014155,19.565186,31.255371,23.899292,,,,,,
1478503868.24,2.511429,-1.276860,1.607114,0.478610,-0.872188,-0.679316,0.170726,0.957111,0.234075,0.066166,-0.222995,0.082636,20.238586,31.331360,23.004395,,,,,,
1478503868.26,2.514732,-1.292537,1.629995,0.393427,-0.936687,-0.722266,0.161130,0.961535,0.222458,0.132830,-0.363253,0.135498,20.015015,32.081848,22.777222,,,,,,
1478503868.28,2.526013,-1.302185,1.655448,0.056800,-0.432164,-0.441727,0.153246,0.964140,0.216677,0.198926,-0.557722,0.178037,20.314087,32.382874,21.954346,,,,,,
1478503868.30,2.545957,-1.304691,1.676812,-0.067098,0.123921,-0.249515,0.147539,0.964802,0.217689,0.279982,-0.263173,0.055077,20.314087,32.382874,21.954346,,,,,,
1478503868.32,2.562808,-1.306209,1.694043,-0.090737,-0.142946,-0.196013,0.143048,0.965201,0.218918,0.125949,0.131037,-0.034973,20.389648,32.758240,21.729736,,,,,,
1478503868.34,2.569386,-1.301292,1.707644,-0.468332,-0.403735,0.074821,0.144173,0.963903,0.223841,-0.071480,0.227030,0.169240,20.464600,32.683044,21.805298,,,,,,
1478503868.36,2.572384,-1.292318,1.722987,-0.372012,-0.669746,0.025723,0.148158,0.961475,0.231550,0.194280,0.187222,0.133212,20.315002,32.457336,22.329346,,,,,,
1478503868.38,2.569898,-1.295035,1.733297,0.285704,-0.543703,-0.311494,0.147319,0.962218,0.228983,0.498219,0.213380,0.072592,20.988647,32.232727,21.884521,,,,,,
1478503868.40,2.550360,-1.311550,1.716773,1.167060,-0.149237,-0.145447,0.142887,0.966583,0.212838,0.179669,1.457031,-0.097268,20.988647,32.232727,21.884521,,,,,,
1478503868.42,2.464462,-1.335948,1.635493,1.708908,-0.190703,0.065171,0.145798,0.972550,0.181357,-0.563217,1.702392,-0.270529,20.763000,32.233337,21.582886,,,,,,
1478503868.44,2.380138,-1.361070,1.553609,1.332721,-0.427129,-0.216500,0.143648,0.978088,0.150696,-0.685380,-0.252502,-0.549164,21.362488,33.736267,19.411499,,,,,,
1478503868.46,2.321656,-1.369868,1.498469,0.412104,0.039630,0.245046,0.145913,0.979882,0.136167,-0.053658,-0.857369,-0.038281,21.135986,34.188171,18.134644,,,,,,
1478503868.48,2.270738,-1.373251,1.444898,0.722159,-0.005967,0.211691,0.150118,0.980551,0.126428,0.072889,-0.512900,0.021415,21.435791,34.413696,17.761719,,,,,,
1478503868.50,2.173612,-1.384880,1.350400,1.193599,-0.287723,-0.037576,0.152266,0.982767,0.104802,0.049867,-0.384241,-0.200123,21.435791,34.413696,17.761719,,,,,,
1478503868.52,2.088940,-1.403577,1.268138,1.012833,-0.129708,-0.684961,0.144594,0.986051,0.082433,-0.166735,0.088045,-0.525487,21.285339,34.414062,17.535522,,,,,,
1478503868.54,2.088341,-1.429228,1.272640,0.260709,-0.411012,-1.351848,0.122618,0.989996,0.069807,-0.665114,0.473764,-0.366712,20.909424,35.767517,15.357178,,,,,,
1478503868.56,2.197980,-1.444463,1.392452,-0.352424,-0.330440,-0.702802,0.102018,0.992031,0.073944,-0.649305,0.379292,0.183136,20.159424,36.068481,14.976440,,,,,,
1478503868.58,2.177771,-1.452772,1.364268,0.942766,0.970913,-0.107933,0.096717,0.993043,0.067163,-0.281455,-0.090715,0.414252,19.185547,36.368652,15.193970,,,,,,
1478503868.60,1.996747,-1.469848,1.144880,1.563568,2.252276,-0.199084,0.091772,0.994909,0.041640,-0.143393,-0.445822,0.329500,19.185547,36.368652,15.193970,,,,,,
1478503868.62,1.814521,-1.480747,0.915982,0.937326,2.174391,-0.098085,0.087270,0.995948,0.021701,-0.201894,-0.531196,0.023739,19.036194,36.894287,14.817505,,,,,,
1478503868.64,1.734545,-1.483803,0.800791,0.324214,1.513932,-0.037643,0.085722,0.996218,0.014164,-0.233869,-0.285418,-0.276127,17.238220,38.095886,14.353516,,,,,,
1478503868.66,1.746576,-1.485656,0.783968,-0.016137,1.509879,-0.127861,0.083727,0.996378,0.014871,-0.180117,-0.008020,-0.190790,16.339050,38.621704,14.121460,,,,,,
1478503868.68,1.810762,-1.490948,0.815239,-0.083013,1.722123,-0.388289,0.077478,0.996814,0.018957,-0.059228,0.289044,0.030619,15.441467,39.221436,14.564453,,,,,,
1478503868.70,1.875405,-1.500419,0.846385,0.122077,1.639834,-0.522228,0.067082,0.997525,0.021090,0.071270,0.263248,0.182386,15.441467,39.221436,14.564453,,,,,,
1478503868.72,1.832686,-1.511089,0.771353,0.552617,1.649865,-0.370848,0.057637,0.998218,0.015449,0.130000,0.026761,0.266792,13.567566,39.221497,15.150391,,,,,,
1478503868.74,1.604859,-1.518520,0.508873,0.887475,1.740980,-0.205213,0.052222,0.998634,0.001780,0.167428,-0.099678,0.116980,12.894226,39.896851,15.145020,,,,,,
1478503868.76,1.279162,-1.519986,0.149806,0.880515,1.584714,-0.201820,0.048644,0.998709,-0.014603,0.205430,-0.046393,0.001144,11.845642,40.572571,14.986694,,,,,,
1478503868.78,1.004640,-1.517993,-0.154059,0.690598,1.389822,-0.264308,0.044543,0.998606,-0.028310,0.239148,-0.053721,0.020818,10.870544,41.174377,14.154175,,,,,,
1478503868.80,0.782866,-1.515080,-0.402391,0.577714,1.286114,-0.328640,0.039277,0.998448,-0.039477,0.260863,-0.094975,0.120470,10.870544,41.174377,14.154175,,,,,,
1478503868.82,0.625480,-1.511640,-0.585323,0.395084,1.285512,-0.255128,0.034615,0.998251,-0.047929,0.291648,-0.180685,0.224610,9.446716,41.925537,13.843140,,,,,,
1478503868.84,0.560098,-1.508493,-0.676744,0.245890,1.301611,-0.067556,0.033078,0.998060,-0.052749,0.311343,-0.301221,0.265319,8.396362,41.851196,13.760254,,,,,,
1478503868.86,0.561372,-1.504073,-0.700441,0.234855,1.213083,0.114548,0.035493,0.997775,-0.056441,0.267363,-0.276309,0.227507,7.946960,42.377014,13.381592,,,,,,
1478503868.88,0.585013,-1.496955,-0.699022,0.341220,1.041393,0.215457,0.040739,0.997275,-0.061506,0.212603,-0.116705,0.146467,7.798645,42.751526,13.755371,,,,,,
1478503868.90,0.559758,-1.490329,-0.742687,0.368022,0.875970,-0.074752,0.042681,0.996764,-0.068114,0.135511,0.093858,0.065703,7.798645,42.751526,13.755371,,,,,,
1478503868.92,0.506037,-1.488212,-0.815163,0.145780,0.996061,-0.243282,0.039984,0.996592,-0.072152,0.000726,0.128286,0.199654,7.273010,42.977661,13.151245,,,,,,
1478503868.94,0.487123,-1.488975,-0.856429,0.019837,1.161026,-0.113292,0.038256,0.996655,-0.072223,0.098676,-0.047512,0.252475,6.598267,43.128113,13.071045,,,,,,
1478503868.96,0.509668,-1.492322,-0.857023,-0.302057,1.132282,-0.102243,0.038247,0.996922,-0.068431,0.128073,-0.004613,0.082072,6.373230,43.053101,13.144409,,,,,,
1478503868.98,0.535315,-1.505777,-0.850786,-0.771241,0.891059,-0.506835,0.033144,0.997887,-0.055884,0.135100,0.200065,-0.173821,5.848511,42.752625,13.665649,,,,,,
1478503869.00,0.452055,-1.532495,-0.950106,-1.226382,0.760605,-1.050967,0.016727,0.999267,-0.034446,-0.054813,0.254869,-0.261086,5.848511,42.752625,13.665649,,,,,,
1478503869.02,-0.742076,-1.563393,-2.155813,-1.587919,0.389630,-1.024712,-0.005003,0.999973,-0.005457,-0.284288,0.177487,-0.398245,3.825439,42.226196,15.300781,,,,,,
1478503869.04,-2.702267,-1.534954,2.166167,-2.129892,-0.113020,-0.156165,-0.015241,0.999358,0.032431,-0.394671,-0.003050,-0.593589,2.626526,41.699951,16.492065,,,,,,
1478503869.06,-3.060483,-1.490128,1.807193,-2.500103,0.190574,0.783421,-0.006529,0.996748,0.080316,-0.535463,-0.080595,-0.400064,2.026611,40.497986,18.063110,,,,,,
1478503869.08,3.020160,-1.445204,1.590748,-1.944830,0.908642,1.316564,0.015174,0.992124,0.124340,-0.396521,0.011874,-0.047878,1.877319,38.994751,20.237793,,,,,,
1478503869.10,2.894313,-1.414038,1.442313,-1.008642,1.055604,1.264002,0.038212,0.987739,0.151368,0.113658,-0.027625,0.131606,1.877319,38.994751,20.237793,,,,,,
1478503869.12,2.821830,-1.394776,1.351012,-0.645706,0.753308,0.811922,0.055045,0.984548,0.166237,0.591042,0.156260,0.005562,3.452759,37.114990,22.875610,,,,,,
1478503869.14,2.821476,-1.376545,1.341489,-1.060601,0.258360,0.101439,0.060743,0.981192,0.183226,0.876101,0.298974,-0.304701,3.753479,36.888916,23.477905,,,,,,
1478503869.16,2.844222,-1.346172,1.361799,-1.716794,0.161878,0.552522,0.065264,0.974878,0.212964,0.526960,-0.256341,-0.471173,3.678345,36.363098,24.077637,,,,,,
1478503869.18,2.816101,-1.312562,1.328705,-1.216900,0.198726,1.042753,0.081662,0.966842,0.241965,0.006564,-0.121170,-0.090232,3.678833,35.310669,25.653076,,,,,,
1478503869.20,2.747111,-1.294809,1.256434,-0.048734,-0.104243,1.291275,0.104729,0.962157,0.251568,-0.132698,0.018831,0.010364,3.678833,35.310669,25.653076,,,,,,
1478503869.22,2.651711,-1.291309,1.162084,0.514958,-0.272775,1.174341,0.129800,0.961197,0.243418,-0.145272,0.209900,-0.022044,5.103699,34.107849,27.089355,,,,,,
1478503869.24,2.584753,-1.286137,1.096838,-0.029705,-0.173539,0.764558,0.148421,0.959757,0.238405,-0.062559,0.176366,-0.108614,6.078125,34.107849,26.796631,,,,,,
1478503869.26,2.564591,-1.273673,1.078316,-0.500480,-0.095976,0.452084,0.159711,0.956183,0.245372,0.126651,0.019541,-0.058528,6.602417,34.108093,26.425537,,,,,,
1478503869.28,2.561602,-1.264551,1.076683,-0.237506,-0.067592,0.152233,0.165217,0.953472,0.252179,0.179235,-0.029369,0.004428,7.353210,34.257324,26.656250,,,,,,
1478503869.30,2.562156,-1.264702,1.080230,0.080358,-0.221147,-0.168330,0.164998,0.953518,0.252150,0.135982,-0.046993,-0.001723,7.353210,34.257324,26.656250,,,,,,
1478503869.32,2.565623,-1.271858,1.092017,0.279351,-0.475392,-0.445748,0.160402,0.955650,0.246991,0.117400,-0.101478,-0.008145,7.728149,33.806335,27.184204,,,,,,
1478503869.34,2.573721,-1.284619,1.111717,0.431688,-0.569048,-0.668313,0.151825,0.959330,0.237982,0.122772,-0.201670,0.043451,7.727539,33.806824,26.884277,,,,,,
1478503869.36,2.592622,-1.299428,1.143479,0.340923,-0.588692,-0.815683,0.139871,0.963405,0.228663,0.169913,-0.360164,0.103597,8.176758,34.032593,26.212402,,,,,,
1478503869.38,2.628630,-1.310256,1.190206,0.035850,-0.307122,-0.765627,0.126421,0.966251,0.224448,0.218427,-0.445865,0.207742,7.277710,34.558289,26.055420,,,,,,
1478503869.40,2.676824,-1.314755,1.237740,-0.093074,0.355273,-0.561896,0.113512,0.967400,0.226389,0.268843,-0.432839,0.203024,7.277710,34.558289,26.055420,,,,,,
1478503869.42,2.714564,-1.319360,1.267665,0.114846,0.356474,-0.420241,0.103043,0.968556,0.226454,0.204727,-0.160389,-0.104338,6.603271,34.933960,25.825195,,,,,,
1478503869.44,2.735162,-1.319915,1.289891,-0.350403,-0.204989,-0.099399,0.098145,0.968694,0.228034,-0.020645,-0.078588,0.043175,6.228760,35.008911,25.972412,,,,,,
1478503869.46,2.724982,-1.303484,1.286430,-0.833383,-0.602268,0.593669,0.106888,0.964484,0.241547,0.064590,0.049844,0.242492,6.003296,34.633667,26.195801,,,,,,
1478503869.48,2.677676,-1.288447,1.256956,-0.216622,-0.923208,0.593289,0.124667,0.960403,0.249166,0.654630,0.106415,0.164729,7.353577,34.031677,27.106323,,,,,,
1478503869.50,2.641975,-1.296007,1.225125,1.078671,-0.036658,0.087033,0.129998,0.962482,0.238177,0.692634,1.039639,-0.026217,7.353577,34.031677,27.106323,,,,,,
1478503869.52,2.550560,-1.321609,1.149685,1.727948,-1.123156,0.080546,0.137419,0.969113,0.204782,-0.117583,2.137531,-0.255350,7.954895,34.932007,26.660400,,,,,,
1478503869.54,2.468067,-1.351230,1.084086,1.586737,-0.946414,-0.408040,0.135856,0.975992,0.170243,-0.862738,0.413733,-0.442063,8.628296,35.534058,25.090088,,,,,,
1478503869.56,2.389230,-1.368951,1.015272,0.806561,-0.199770,0.239075,0.136999,0.979698,0.146364,-0.338507,-0.885445,-0.121934,9.227966,36.059937,24.269409,,,,,,
1478503869.58,2.327460,-1.373686,0.949678,0.675309,0.152447,0.300623,0.142399,0.980637,0.134442,0.017498,-0.527161,0.064075,8.552795,37.187561,22.763794,,,,,,
1478503869.60,2.245994,-1.380140,0.869575,0.818944,-0.370920,0.207468,0.147923,0.981880,0.118449,-0.027882,-0.527672,-0.148769,8.552795,37.187561,22.763794,,,,,,
1478503869.62,2.182441,-1.391333,0.817132,0.663447,-0.637147,-0.459357,0.146140,0.983940,0.102498,-0.125541,0.010659,-0.440526,9.751770,37.563416,21.797607,,,,,,
1478503869.64,2.182310,-1.413117,0.825951,0.489902,-0.345097,-1.164389,0.128570,0.987594,0.090150,-0.582535,0.407212,-0.286058,9.826172,37.789185,21.272949,,,,,,
1478503869.66,2.249907,-1.433952,0.901148,-0.001104,-0.312979,-0.992558,0.106151,0.990651,0.085684,-0.624904,0.449809,0.149332,9.676025,38.240356,20.596558,,,,,,
1478503869.68,2.260951,-1.442268,0.907525,0.561127,0.704131,-0.041484,0.098841,0.991752,0.081603,-0.299098,-0.051597,0.380754,8.478271,39.140930,20.587158,,,,,,
1478503869.70,2.142550,-1.453086,0.758520,1.220513,1.873313,0.108325,0.098761,0.993080,0.063547,-0.112005,-0.424705,0.222189,8.478271,39.140930,20.587158,,,,,,
1478503869.72,2.013197,-1.462280,0.588592,0.908852,1.907382,0.051207,0.097876,0.994118,0.046366,-0.137427,-0.573403,-0.054865,7.727539,39.442383,19.831299,,,,,,
1478503869.74,1.932302,-1.465763,0.477322,0.465285,1.214557,0.067921,0.098064,0.994489,0.037080,-0.193203,-0.256223,-0.338426,6.977844,40.043701,19.225464,,,,,,
1478503869.76,1.907573,-1.467408,0.433311,0.118869,0.937357,-0.057043,0.097406,0.994660,0.034103,-0.108713,0.092223,-0.196747,6.152466,40.495239,18.468994,,,,,,
1478503869.78,1.942322,-1.472031,0.443609,0.026570,1.421920,-0.358476,0.091877,0.995127,0.035797,-0.031315,0.379217,0.057831,5.178040,40.946045,18.236572,,,,,,
1478503869.80,1.987929,-1.481993,0.458014,0.225329,1.602307,-0.525849,0.081082,0.996060,0.035931,0.001010,0.249103,0.152027,5.178040,40.946045,18.236572,,,,,,
1478503869.82,1.971855,-1.493485,0.410497,0.509786,1.568165,-0.377333,0.071105,0.997013,0.030152,0.052491,-0.118931,0.170379,3.979309,41.321411,18.377441,,,,,,
1478503869.84,1.863259,-1.502294,0.270452,0.697017,1.551251,-0.174024,0.065542,0.997655,0.019735,0.071268,-0.208790,0.116511,2.554199,41.322266,18.291626,,,,,,
1478503869.86,1.676788,-1.508115,0.054521,0.762451,1.401110,-0.159597,0.062289,0.998036,0.006627,0.110563,-0.093877,0.034816,1.953796,41.548279,17.837036,,,,,,
1478503869.88,1.472177,-1.512190,-0.177194,0.665623,1.324986,-0.220690,0.058288,0.998283,-0.005767,0.188690,-0.025413,0.049316,0.228516,42.526184,16.473633,,,,,,
1478503869.90,1.279053,-1.514691,-0.396993,0.553958,1.322216,-0.253234,0.053706,0.998427,-0.016129,0.217778,-0.032179,0.120117,0.228516,42.526184,16.473633,,,,,,
1478503869.92,1.126483,-1.515435,-0.576426,0.385287,1.358773,-0.176508,0.049960,0.998468,-0.023784,0.245847,-0.176523,0.204723,-0.371582,42.902283,15.943970,,,,,,
1478503869.94,1.048887,-1.514436,-0.681972,0.239621,1.399382,-0.028340,0.048831,0.998412,-0.028083,0.249051,-0.304214,0.257972,-0.748352,43.129333,14.740967,,,,,,
1478503869.96,1.035706,-1.510270,-0.722227,0.195170,1.310852,0.216385,0.052035,0.998169,-0.030845,0.207578,-0.342117,0.247169,-2.098022,43.355103,14.655762,,,,,,
1478503869.98,1.033752,-1.504303,-0.746768,0.253131,1.038591,0.164958,0.057090,0.997790,-0.033993,0.175591,-0.139544,0.215069,-2.773743,43.431152,14.200806,,,,,,
1478503870.00,0.971790,-1.502342,-0.828780,0.272464,1.017934,-0.212801,0.056492,0.997658,-0.038566,0.072201,0.079826,0.153709,-2.773743,43.431152,14.200806,,,,,,
1478503870.02,0.899198,-1.505876,-0.923687,0.072453,1.166590,-0.342931,0.050786,0.997893,-0.040368,-0.093327,0.156907,0.240532,-3.223022,43.881592,14.047119,,,,,,
1478503870.04,0.885568,-1.509856,-0.962387,-0.098599,1.298672,-0.172688,0.047155,0.998144,-0.038542,0.017786,-0.019826,0.237135,-3.973755,43.807434,13.741455,,,,,,
1478503870.06,0.977280,-1.516916,-0.895806,-0.580158,1.222688,-0.209282,0.044644,0.998549,-0.030120,0.212879,-0.028563,-0.178621,-4.799561,43.733276,13.435425,,,,,,
1478503870.08,1.266110,-1.532409,-0.627036,-1.061290,0.917714,-0.612778,0.036610,0.999263,-0.011513,0.199657,0.242558,-0.376976,-5.474487,43.282654,14.030518,,,,,,
1478503870.10,2.283080,-1.547734,0.371531,-1.460512,1.007079,-1.117551,0.017454,0.999734,0.015071,-0.190702,0.399894,-0.330043,-5.474487,43.282654,14.030518,,,,,,
1478503870.12,-3.087852,-1.521101,1.263760,-1.907996,0.981360,-0.778260,-0.002668,0.998765,0.049603,-0.463137,0.358550,-0.436703,-6.449158,42.681885,14.923584,,,,,,
1478503870.14,-3.056771,-1.478536,1.276629,-2.224207,0.900970,0.169659,-0.007805,0.995747,0.091798,-0.584175,0.222209,-0.450212,-8.324524,41.480774,16.260010,,,,,,
1478503870.16,3.119448,-1.436070,1.147474,-2.036979,1.256245,0.922748,0.002974,0.990938,0.134286,-0.648070,0.183546,-0.270028,-9.148926,39.451904,19.104858,,,,,,
1478503870.18,3.017607,-1.402479,1.012372,-1.299896,1.741326,1.212410,0.020717,0.985868,0.166237,-0.220440,0.022738,-0.057076,-9.374268,38.400330,20.228638,,,,,,
1478503870.20,2.944584,-1.382464,0.904230,-0.640810,1.589642,1.011879,0.036646,0.982318,0.183600,0.371557,-0.020007,0.004389,-9.374268,38.400330,20.228638,,,,,,
1478503870.22,2.907385,-1.364598,0.839626,-0.941874,1.146782,0.696871,0.047514,0.978816,0.199150,0.850557,0.119481,-0.156609,-9.599976,37.875061,20.527222,,,,,,
1478503870.24,2.917207,-1.333756,0.829190,-1.751966,0.975697,0.332880,0.052251,0.972037,0.228939,0.969646,-0.006309,-0.371075,-9.599548,37.874695,20.752197,,,,,,
1478503870.26,2.927395,-1.298380,0.818961,-1.488016,1.047453,0.753634,0.057192,0.963124,0.262911,0.495771,-0.344532,-0.336840,-10.124268,36.296814,22.849121,,,,,,
1478503870.28,2.888976,-1.279948,0.759493,-0.233028,0.830081,1.135565,0.071674,0.958001,0.277664,0.163068,-0.134850,-0.172058,-9.674438,35.996155,23.152710,,,,,,
1478503870.30,2.816979,-1.280662,0.673098,0.686628,0.375195,1.175375,0.091243,0.958206,0.271140,-0.063060,0.055253,-0.036948,-9.674438,35.996155,23.152710,,,,,,
1478503870.32,2.738014,-1.288360,0.586020,0.737904,0.200126,0.884250,0.109447,0.960379,0.256306,-0.161999,0.216989,-0.057683,-9.599487,36.221558,22.853149,,,,,,
1478503870.34,2.694141,-1.289038,0.534386,0.066425,0.363486,0.517318,0.120301,0.960568,0.250672,-0.103502,0.084232,-0.119965,-8.998840,36.596436,22.707397,,,,,,
1478503870.36,2.684410,-1.283211,0.515557,-0.181236,0.425286,0.292318,0.125204,0.958931,0.254508,0.075892,-0.088860,-0.061286,-8.398560,37.121948,22.186646,,,,,,
1478503870.38,2.681846,-1.281900,0.504507,0.169288,0.376670,0.088870,0.126414,0.958559,0.255312,0.242880,-0.155733,0.003660,-8.548279,37.121826,22.335571,,,,,,
1478503870.40,2.681973,-1.289083,0.499508,0.419648,0.155250,-0.207477,0.123324,0.960580,0.249152,0.261076,-0.175653,-0.013754,-8.548279,37.121826,22.335571,,,,,,
1478503870.42,2.694224,-1.299737,0.511933,0.369551,-0.057775,-0.492714,0.115828,0.963488,0.241402,0.249620,-0.206255,-0.032540,-8.398621,37.347412,21.886597,,,,,,
1478503870.44,2.725996,-1.308431,0.548552,0.062180,-0.263744,-0.688892,0.104715,0.965779,0.237288,0.249670,-0.296941,0.006258,-8.924011,37.498230,21.507568,,,,,,
1478503870.46,2.776781,-1.309596,0.608447,-0.435322,-0.369405,-0.747884,0.092133,0.966081,0.241246,0.289001,-0.425157,0.079479,-9.674561,37.273621,21.502075,,,,,,
1478503870.48,2.836137,-1.301966,0.673850,-0.696870,-0.038101,-0.645504,0.079875,0.964082,0.253309,0.333837,-0.446168,0.191576,-9.975586,36.523071,21.950073,,,,,,
1478503870.50,2.885207,-1.295437,0.721994,-0.311795,0.150605,-0.448872,0.068948,0.962328,0.263005,0.454611,-0.200822,0.065776,-9.975586,36.523071,21.950073,,,,,,
1478503870.52,2.905003,-1.299353,0.745261,0.342843,-0.347201,-0.301874,0.062845,0.963385,0.260653,0.285666,0.133371,-0.085085,-10.049377,36.522217,22.549561,,,,,,
1478503870.54,2.892363,-1.305167,0.745992,0.096746,-0.829803,0.111599,0.064752,0.964927,0.254406,0.144294,0.026085,0.112141,-10.424622,36.597778,22.321655,,,,,,
1478503870.56,2.840084,-1.296873,0.714307,-0.431636,-1.245937,0.728867,0.080331,0.962717,0.258307,0.453849,0.186850,0.148004,-10.125793,36.297913,22.099121,,,,,,
1478503870.58,2.787044,-1.289318,0.677106,0.083525,-0.391241,0.427015,0.096435,0.960646,0.260499,0.598145,0.638841,-0.033143,-8.849548,36.446594,22.558594,,,,,,
1478503870.60,2.746636,-1.299662,0.639694,0.963381,-0.630961,0.307668,0.103050,0.963468,0.247206,0.015846,1.807498,-0.443540,-8.849548,36.446594,22.558594,,,,,,
1478503870.62,2.686909,-1.320755,0.595025,1.280467,-0.630127,-0.143003,0.108672,0.968902,0.222304,-0.846663,0.906174,-0.299193,-8.172668,36.820557,23.013550,,,,,,
1478503870.64,2.660721,-1.347461,0.573982,1.236409,-0.133191,-0.315385,0.102448,0.975164,0.196366,-0.612961,-0.528356,-0.280655,-8.171326,37.570862,22.788208,,,,,,
1478503870.66,2.620508,-1.358698,0.524334,0.515797,0.727940,0.410655,0.104797,0.977591,0.182572,-0.061966,-0.740973,-0.006929,-8.174377,37.948914,20.762817,,,,,,
1478503870.68,2.575084,-1.363798,0.461505,0.649952,0.793335,0.459195,0.110302,0.978652,0.173416,-0.051251,-0.515502,-0.037735,-8.248657,38.474487,20.462036,,,,,,
1478503870.70,2.510779,-1.371028,0.385406,0.757709,0.300982,0.328539,0.117042,0.980113,0.160251,0.083123,-0.222178,-0.380588,-8.248657,38.474487,20.462036,,,,,,
1478503870.72,2.481794,-1.385069,0.354110,0.713261,0.039018,-0.547389,0.113190,0.982802,0.145904,-0.154877,0.272615,-0.557052,-8.025024,38.775879,19.413574,,,,,,
1478503870.74,2.546113,-1.404118,0.416634,0.236082,0.189423,-1.158069,0.093058,0.986141,0.137351,-0.637965,0.664753,-0.133857,-8.024841,39.677490,18.363159,,,,,,
1478503870.76,2.615878,-1.414610,0.479301,0.335907,0.594886,-0.369344,0.078061,0.987828,0.134547,-0.495145,0.366390,0.239263,-9.451050,39.303467,18.202637,,,,,,
1478503870.78,2.594286,-1.430147,0.432865,1.101245,1.662361,-0.013349,0.072951,0.990125,0.119709,-0.228545,-0.225431,0.273967,-10.052063,39.454773,17.523071,,,,,,
1478503870.80,2.547539,-1.449574,0.340340,1.103186,2.487388,-0.032691,0.067685,0.992662,0.100209,-0.227201,-0.492616,0.121959,-10.052063,39.454773,17.523071,,,,,,
1478503870.82,2.512909,-1.463839,0.257066,0.685736,2.285621,0.000451,0.062779,0.994286,0.086342,-0.276296,-0.453163,-0.160424,-10.278931,39.681702,16.321167,,,,,,
1478503870.84,2.500916,-1.469498,0.206148,0.214855,1.796915,0.069929,0.060447,0.994874,0.081071,-0.242759,-0.190903,-0.280138,-12.381165,40.961792,13.604858,,,,,,
1478503870.86,2.523242,-1.469011,0.190662,-0.018596,2.031590,0.054450,0.058902,0.994824,0.082795,-0.071735,0.133853,-0.022431,-12.981445,41.262878,13.075073,,,,,,
1478503870.88,2.568982,-1.472817,0.192747,0.297098,2.242630,-0.226228,0.053003,0.995204,0.082219,0.092367,0.316381,0.142009,-13.432800,41.264160,12.396729,,,,,,
1478503870.90,2.611682,-1.483867,0.192620,0.538604,2.068637,-0.272539,0.043884,0.996224,0.074913,0.162751,0.144554,0.143929,-13.432800,41.264160,12.396729,,,,,,
1478503870.92,2.607157,-1.495458,0.149365,0.634683,1.887224,-0.065222,0.038338,0.997163,0.064771,0.246376,-0.092775,0.137545,-15.234314,41.491638,11.333130,,,,,,
1478503870.94,2.525267,-1.507838,0.031351,0.802956,1.746169,0.033852,0.036369,0.998019,0.051341,0.285241,-0.093035,0.053701,-16.288574,41.645691,9.000122,,,,,,
1478503870.96,2.362079,-1.520100,-0.086710,0.819279,1.521586,0.022580,0.035621,0.998715,0.036043,0.338464,-0.032422,0.020018,-16.665161,42.172974,7.572144,,,,,,
1478503870.98,2.134636,-1.530063,-0.315535,0.738166,1.364532,-0.039369,0.034418,0.999171,0.021763,0.353643,-0.063715,0.042919,-17.116882,42.099365,6.818848,,,,,,
1478503871.00,1.848349,-1.536711,-0.628873,0.621175,1.359655,-0.073004,0.032774,0.999419,0.009338,0.295763,-0.153441,0.071503,-17.116882,42.099365,6.818848,,,,,,
1478503871.02,1.574555,-1.538805,-0.915928,0.440507,1.331338,0.014396,0.031986,0.999488,0.000120,0.195263,-0.256278,0.146410,-17.568970,42.401794,5.390137,,,,,,
1478503871.04,1.389277,-1.535508,-1.116001,0.323140,1.011343,0.207974,0.034702,0.999377,-0.006369,0.184689,-0.249637,0.190009,-18.096802,42.779846,3.510986,,,,,,
1478503871.06,1.318287,-1.528520,-1.198592,0.202065,0.767997,0.355640,0.040924,0.999106,-0.010559,0.213929,-0.141578,0.250748,-18.472961,42.780884,2.908203,,,,,,
1478503871.08,1.264817,-1.520653,-1.264817,0.326433,0.558285,0.282128,0.047794,0.998743,-0.015098,0.218853,0.026312,0.154884,-18.097351,43.306274,2.535767,,,,,,
1478503871.10,1.134248,-1.516603,-1.406902,0.437516,0.610654,-0.076077,0.049086,0.998532,-0.022902,0.145814,0.241397,0.026778,-18.097351,43.306274,2.535767,,,,,,
1478503871.12,0.998719,-1.517291,-1.556778,0.251961,0.776451,-0.290242,0.044965,0.998569,-0.028953,0.052356,0.242123,0.129600,-17.872803,43.381592,2.237427,,,,,,
1478503871.14,0.928305,-1.520694,-1.647062,0.019653,1.156651,-0.236743,0.040095,0.998745,-0.030008,0.051839,0.006382,0.339182,-18.251770,43.234436,0.434692,,,,,,
1478503871.16,0.950693,-1.522962,-1.651034,-0.130111,1.374689,-0.015417,0.038914,0.998856,-0.027787,0.047955,-0.252457,0.224274,-18.852295,43.385437,-0.019897,,,,,,
1478503871.18,1.088189,-1.527124,-1.539136,-0.440161,1.184503,-0.114765,0.038672,0.999047,-0.020261,0.059579,-0.116890,-0.027148,-19.078674,42.860535,-0.021362,,,,,,
1478503871.20,1.368055,-1.538422,-1.277609,-0.832869,0.820829,-0.551750,0.031705,0.999476,-0.006518,0.039675,0.119939,-0.194227,-19.078674,42.860535,-0.021362,,,,,,
1478503871.22,2.497941,-1.548308,-0.163567,-1.435703,0.812040,-1.089427,0.013495,0.999747,0.017987,-0.093832,0.279733,-0.186460,-19.153687,43.010986,-0.246948,,,,,,
1478503871.24,-3.017871,-1.517125,0.591857,-1.978819,0.464582,-0.803404,-0.006620,0.998560,0.053235,-0.167406,0.107061,-0.382428,-20.129578,41.960144,0.646240,,,,,,
1478503871.26,-3.014555,-1.472793,0.590029,-2.287836,0.163179,0.062924,-0.012397,0.995202,0.097058,-0.255975,-0.151467,-0.417508,-20.804321,40.983459,1.991577,,,,,,
1478503871.29,-3.130559,-1.433165,0.470171,-1.773642,0.197381,0.820428,-0.001514,0.990544,0.137189,-0.313931,-0.192906,-0.258908,-21.252136,40.305725,3.938599,,,,,,
1478503871.31,3.034308,-1.408384,0.345396,-0.888835,0.199393,1.066928,0.017315,0.986840,0.160769,0.012745,-0.242730,-0.112445,-21.252136,40.305725,3.938599,,,,,,
1478503871.33,2.920416,-1.391114,0.230815,-0.673056,-0.193654,1.094260,0.039207,0.983900,0.174364,0.509362,-0.157423,-0.154939,-20.723816,40.152771,5.742676,,,,,,
1478503871.35,2.852583,-1.371679,0.166794,-0.893828,-0.225030,0.605554,0.056375,0.980242,0.189600,0.953086,0.311064,-0.178431,-18.771118,40.525452,6.657227,,,,,,
1478503871.37,2.861834,-1.349197,0.183457,-1.273828,-0.258931,0.026558,0.060689,0.975547,0.211245,0.824748,0.579522,-0.249911,-18.319946,40.524292,7.260498,,,,,,
1478503871.39,2.859400,-1.321930,0.186290,-1.245723,0.021630,0.631984,0.068587,0.969192,0.236563,-0.085204,-0.108825,0.012674,-18.167297,40.296875,8.836792,,,,,,
1478503871.41,2.812427,-1.302434,0.133690,-0.357471,0.174216,1.093303,0.085712,0.964206,0.250918,-0.265811,-0.010257,0.076094,-18.167297,40.296875,8.836792,,,,,,
1478503871.43,2.727022,-1.296598,0.050535,0.328250,-0.405429,1.166081,0.109067,0.962643,0.247837,-0.245008,0.015369,-0.104023,-17.715088,40.219788,10.040161,,,,,,
1478503871.45,2.648872,-1.292126,-0.015881,0.036867,-0.717362,0.740219,0.130119,0.961422,0.242357,-0.088264,0.129658,-0.145372,-16.439392,40.669495,9.824585,,,,,,
1478503871.47,2.625174,-1.283247,-0.028193,-0.486171,-0.502036,0.173897,0.140034,0.958942,0.246619,0.164806,0.112103,-0.045051,-15.613403,41.044067,9.830566,,,,,,
1478503871.49,2.636695,-1.272655,-0.008323,-0.616164,-0.335332,-0.069777,0.142089,0.955884,0.257092,0.352891,0.024310,-0.029476,-14.712036,41.117737,10.437256,,,,,,
1478503871.51,2.655270,-1.267037,0.019378,-0.289157,-0.475235,-0.311537,0.139797,0.954219,0.264431,0.274769,-0.053050,-0.058589,-14.712036,41.117737,10.437256,,,,,,
1478503871.53,2.662837,-1.271399,0.042195,0.211165,-0.856127,-0.464689,0.135873,0.955515,0.261783,0.170920,-0.141611,-0.070392,-15.236633,40.215942,11.783691,,,,,,
1478503871.55,2.665489,-1.283266,0.065194,0.437519,-1.018154,-0.636712,0.129972,0.958947,0.252046,0.098391,-0.218042,0.015044,-15.236572,40.366150,11.633667,,,,,,
1478503871.57,2.678432,-1.297007,0.099821,0.343785,-1.011172,-0.805428,0.120801,0.962753,0.241896,0.073444,-0.301468,0.102953,-14.936768,40.291016,11.635864,,,,,,
1478503871.59,2.710578,-1.308713,0.152019,0.161788,-0.815871,-0.894015,0.108247,0.965852,0.235397,0.092375,-0.391954,0.177338,-15.612915,39.841309,11.631104,,,,,,
1478503871.61,2.750096,-1.315585,0.201300,-0.020010,-0.116322,-0.561826,0.096328,0.967610,0.233349,0.155106,-0.492818,0.197651,-15.612915,39.841309,11.631104,,,,,,
1478503871.63,2.781819,-1.314866,0.228527,-0.226131,0.390816,-0.195414,0.089123,0.967428,0.236938,0.172855,-0.312872,0.113678,-15.838196,39.466003,11.929565,,,,,,
1478503871.65,2.801242,-1.310708,0.246442,-0.293610,-0.171518,-0.110833,0.085846,0.966367,0.242414,-0.014649,0.002215,-0.002439,-16.438354,39.466431,11.850220,,,,,,
1478503871.67,2.802198,-1.302318,0.258519,-0.554031,-0.667411,0.030070,0.088311,0.964176,0.250133,-0.112633,-0.062824,0.250355,-16.437927,39.466064,12.075195,,,,,,
1478503871.69,2.792496,-1.292678,0.265275,-0.398585,-0.862604,0.105736,0.093909,0.961574,0.257987,0.253244,0.021870,0.194742,-16.438232,38.865234,12.675415,,,,,,
1478503871.71,2.767043,-1.290149,0.251551,0.304202,-0.478369,0.371944,0.101333,0.960876,0.257776,0.589371,0.249451,0.035254,-16.438232,38.865234,12.675415,,,,,,
1478503871.73,2.670355,-1.302417,0.162001,1.431167,-0.513001,1.056276,0.120384,0.964202,0.236268,0.599541,1.642884,-0.075089,-15.385742,39.163391,13.508179,,,,,,
1478503871.75,2.574440,-1.321373,0.079752,1.215309,-1.285547,0.048185,0.132613,0.969055,0.208198,-0.278335,1.325608,-0.541770,-14.110352,39.989075,12.692261,,,,,,
1478503871.77,2.511944,-1.339330,0.047484,0.753048,-1.434542,-0.219188,0.135087,0.973331,0.185413,-0.408876,-0.154895,-0.333804,-14.111023,40.515564,11.717041,,,,,,
1478503871.79,2.481423,-1.349741,0.030301,0.559393,-0.309253,-0.137870,0.134461,0.975667,0.173190,-0.019516,-0.550450,0.079404,-13.210388,40.514587,12.023804,,,,,,
1478503871.81,2.432289,-1.363367,-0.012358,0.942756,-0.492455,-0.046067,0.134133,0.978564,0.156274,-0.069146,-0.529803,-0.076059,-13.210388,40.514587,12.023804,,,,,,
1478503871.83,2.363262,-1.379191,-0.072416,0.991683,-0.436043,-0.172559,0.133703,0.981700,0.135606,-0.156423,-0.222407,-0.334352,-12.987000,40.741028,10.975342,,,,,,
1478503871.85,2.318237,-1.398940,-0.112641,0.913432,-0.231860,-0.662969,0.125425,0.985269,0.116248,-0.583815,0.287192,-0.458960,-13.287354,41.117249,10.297974,,,,,,
1478503871.87,2.333080,-1.420712,-0.092120,0.385360,-0.292421,-0.919129,0.108143,0.988759,0.103256,-0.697865,0.475628,-0.079132,-12.914124,41.193542,9.325684,,,,,,
1478503871.89,2.361548,-1.429768,-0.062616,0.212594,0.245962,-0.247070,0.098858,0.990072,0.099923,-0.321377,0.091242,0.238716,-13.739807,41.344727,8.794434,,,,,,
1478503871.91,2.327237,-1.439749,-0.116950,0.838780,1.457685,-0.045348,0.095036,0.991426,0.089685,-0.124821,-0.331437,0.244818,-13.739807,41.344727,8.794434,,,,,,
1478503871.93,2.267561,-1.452429,-0.217558,0.839332,2.175354,-0.073050,0.090567,0.993003,0.075784,-0.147742,-0.468192,0.059973,-14.490906,41.571350,7.963745,,,,,,
1478503871.95,2.228342,-1.459927,-0.296696,0.432639,1.807594,0.021080,0.087573,0.993860,0.067622,-0.263125,-0.272989,-0.190226,-14.867371,42.098633,6.535645,,,,,,
1478503871.97,2.224660,-1.461772,-0.331635,0.094635,1.466309,0.048484,0.086365,0.994063,0.066183,-0.271226,-0.018858,-0.244498,-14.944641,42.175476,5.334961,,,,,,
1478503871.99,2.259827,-1.461725,-0.326913,-0.061740,1.614811,-0.075019,0.084021,0.994058,0.069209,-0.135413,0.274619,-0.103389,-15.694031,42.776550,4.879028,,,,,,
1478503872.01,2.315550,-1.464113,-0.305485,0.075925,1.754931,-0.205409,0.078290,0.994315,0.072172,0.005511,0.295083,0.073947,-15.694031,42.776550,4.879028,,,,,,
1478503872.03,2.335602,-1.472864,-0.318807,0.518176,1.630339,-0.298594,0.070547,0.995208,0.067700,0.135187,0.073563,0.137226,-15.922485,42.478699,3.527466,,,,,,
1478503872.05,2.299495,-1.485949,-0.386972,0.744617,1.591237,-0.245129,0.063224,0.996403,0.056432,0.182687,-0.075458,0.066417,-16.974365,42.330383,2.769653,,,,,,
1478503872.07,2.208572,-1.498800,-0.509777,0.780341,1.575049,-0.174651,0.057794,0.997409,0.042830,0.155585,-0.029117,0.006837,-17.277161,42.407776,1.267334,,,,,,
1478503872.09,2.097422,-1.509510,-0.650971,0.630980,1.449083,-0.210409,0.052950,0.998123,0.030785,0.188261,0.007538,0.026161,-17.428528,42.784546,0.141113,,,,,,
1478503872.11,1.982995,-1.519660,-0.792530,0.579952,1.304834,-0.308403,0.046833,0.998693,0.020477,0.265072,-0.048375,0.078705,-17.428528,42.784546,0.141113,,,,,,
1478503872.13,1.800044,-1.529782,-1.001057,0.650285,1.275960,-0.324997,0.039930,0.999159,0.009318,0.295062,-0.143721,0.128713,-17.807983,42.562683,-1.811646,,,,,,
1478503872.15,1.471729,-1.536025,-1.355416,0.698686,1.305370,-0.211939,0.034594,0.999396,-0.003438,0.279844,-0.204733,0.146078,-18.110107,42.714722,-3.089111,,,,,,
1478503872.17,1.136914,-1.534569,-1.714982,0.581025,1.183174,-0.033563,0.032864,0.999344,-0.015227,0.248325,-0.192551,0.133925,-18.111328,43.016174,-4.064209,,,,,,
1478503872.19,0.963611,-1.528452,-1.910467,0.442026,1.046169,0.141524,0.034765,0.999104,-0.024152,0.204737,-0.148182,0.141081,-18.340454,43.019348,-6.090942,,,,,,
1478503872.21,0.865357,-1.521382,-2.027300,0.441922,0.866647,0.057701,0.037605,0.998779,-0.032026,0.170769,-0.058762,0.103193,-18.340454,43.019348,-6.090942,,,,,,
1478503872.23,0.725883,-1.516901,-2.184906,0.426068,0.976732,-0.241678,0.035758,0.998548,-0.040290,0.146157,0.055270,0.046531,-17.966309,43.019836,-6.538086,,,,,,
1478503872.25,0.600489,-1.517722,-2.334636,0.069965,1.310841,-0.349528,0.029975,0.998592,-0.043769,0.013085,0.151143,0.285850,-17.668579,42.871094,-7.510864,,,,,,
1478503872.27,0.559096,-1.521194,-2.401723,-0.127061,1.358987,-0.161203,0.026299,0.998770,-0.042032,0.179817,-0.108633,0.408151,-18.270386,42.647339,-8.115234,,,,,,
1478503872.29,0.572186,-1.526391,-2.417386,-0.215696,1.469973,-0.235310,0.024036,0.999014,-0.037320,0.259945,0.153162,0.052472,-17.972534,42.197937,-8.637695,,,,,,
1478503872.31,0.465484,-1.537106,-2.551188,-0.452244,1.270593,-0.680202,0.015119,0.999433,-0.030100,0.069048,0.262424,-0.195135,-17.972534,42.197937,-8.637695,,,,,,
1478503872.33,-0.152220,-1.554530,3.091189,-0.855870,1.066192,-0.985491,-0.002466,0.999868,-0.016077,-0.100118,0.091655,-0.229894,-18.198547,41.973450,-8.864258,,,,,,
1478503872.35,-1.864801,-1.549621,1.361979,-1.286629,0.689836,-0.795675,-0.020265,0.999776,0.006136,-0.178328,-0.101781,-0.339067,-18.648254,42.048523,-8.792603,,,,,,
1478503872.37,-2.476403,-1.524194,0.738913,-1.704608,0.531624,-0.142000,-0.028753,0.998914,0.036654,-0.217844,-0.280012,-0.382937,-19.549988,41.449219,-8.949097,,,,,,
1478503872.39,-2.833848,-1.494748,0.367938,-1.820182,0.745488,0.572383,-0.023014,0.997110,0.072406,-0.236126,-0.363656,-0.210406,-19.545715,41.220642,-6.548950,,,,,,
1478503872.41,-3.062309,-1.467321,0.119043,-1.344052,1.114295,0.959787,-0.008181,0.994651,0.102966,-0.154417,-0.243690,-0.065597,-19.545715,41.220642,-6.548950,,,,,,
1478503872.43,3.055551,-1.446013,-0.072561,-0.970759,1.318954,1.175491,0.010696,0.992225,0.124000,0.069474,-0.065818,-0.081809,-19.018738,41.369141,-5.720215,,,,,,
1478503872.45,2.933530,-1.422146,-0.220943,-1.104223,1.145118,1.126056,0.030593,0.988972,0.144909,0.370667,0.327999,-0.179409,-18.117188,41.517761,-5.113525,,,,,,
1478503872.47,2.884838,-1.395669,-0.285420,-1.190358,0.511675,0.576201,0.044246,0.984704,0.168522,0.700460,0.694327,-0.256611,-16.990967,42.117371,-5.255371,,,,,,
1478503872.49,2.891634,-1.371912,-0.282244,-1.124627,0.053913,0.200426,0.048873,0.980288,0.191436,0.628342,0.260160,-0.374007,-15.935913,42.488831,-3.222656,,,,,,
1478503872.51,2.888003,-1.350907,-0.295053,-0.874259,0.799757,0.614757,0.054723,0.975922,0.211146,0.233730,-0.479980,-0.131678,-15.935913,42.488831,-3.222656,,,,,,
1478503872.53,2.831633,-1.335668,-0.373151,-0.251349,0.947568,1.256654,0.071060,0.972484,0.221866,-0.055542,-0.220791,-0.104419,-15.860229,42.413147,-2.771973,,,,,,
1478503872.55,2.743690,-1.325786,-0.476125,0.007336,0.403347,1.322774,0.093991,0.970135,0.223616,-0.074429,-0.065411,-0.078627,-15.183228,42.862122,-2.317139,,,,,,
,,,,,,,,,,,,,,,,37.392598,-122.003843,10.924927,-1.000000,-1.000000,1478503872.54
1478503872.57,2.667842,-1.314092,-0.558245,-0.197544,0.130196,1.053811,0.115833,0.967232,0.225931,-0.010014,0.206443,-0.072717,-14.057861,43.011536,-2.308838,,,,,,
,,,,,,,,,,,,,,,,37.392598,-122.003843,10.924927,-1.000000,-1.000000,1478503872.56
,,,,,,,,,,,,,,,,37.392598,-122.003843,10.924927,-1.000000,-1.000000,1478503872.58
1478503872.59,2.635784,-1.300520,-0.595242,-0.472300,0.198929,0.565720,0.129364,0.963697,0.233565,0.133438,0.362643,-0.009276,-12.554504,43.985046,-1.848022,,,,,,
,,,,,,,,,,,,,,,,37.392598,-122.003843,10.924927,-1.000000,-1.000000,1478503872.59
1478503872.61,2.634739,-1.288648,-0.599793,-0.432049,0.156853,0.238140,0.135153,0.960459,0.243416,0.246683,0.130590,-0.032570,-12.554504,43.985046,-1.848022,,,,,,
1478503872.63,2.640658,-1.284168,-0.596627,-0.088493,0.126453,-0.033502,0.135775,0.959202,0.247983,0.249753,-0.041569,0.005862,-12.029419,43.984741,-1.843994,,,,,,
1478503872.65,2.648333,-1.288149,-0.589048,0.243668,-0.066620,-0.277282,0.132058,0.960321,0.245652,0.206748,-0.098489,0.009017,-12.330750,43.685303,-2.071167,,,,,,
1478503872.67,2.658288,-1.298652,-0.573928,0.415817,-0.326148,-0.523970,0.124912,0.963197,0.238010,0.188397,-0.193742,0.027722,-11.806030,43.535034,-2.067139,,,,,,
1478503872.69,2.679712,-1.311722,-0.542151,0.351553,-0.532843,-0.755004,0.114165,0.966628,0.229341,0.201982,-0.273650,0.078703,-12.407776,43.311218,-2.671631,,,,,,
1478503872.71,2.717923,-1.322042,-0.492353,0.083558,-0.410766,-0.760921,0.101214,0.969220,0.224430,0.266416,-0.473431,0.206112,-12.407776,43.311218,-2.671631,,,,,,
