timestamp(unix),attitude_roll(radians),attitude_pitch(radians),attitude_yaw(radians),rotation_rate_x(radians/s),rotation_rate_y(radians/s),rotation_rate_z(radians/s),gravity_x(G),gravity_y(G),gravity_z(G),user_acc_x(G),user_acc_y(G),user_acc_z(G),magnetic_field_x(microteslas),magnetic_field_y(microteslas),magnetic_field_z(microteslas),latitude(degree),longitude(degree),altitude(meter),speed(m/s),course(degree),timestamp(unix)
1478503603.65,0.414328,-0.400344,2.071286,0.028542,-0.087269,0.078942,0.370742,0.389736,-0.843005,-0.003753,-0.011806,-0.000211,2.406677,-0.664429,-40.488403,,,,,,
,,,,,,,,,,,,,,,,37.392598,-122.003843,10.474915,-1.000000,-1.000000,1478503550.24
,,,,,,,,,,,,,,,,37.391947,-122.011798,10.474915,0.620000,301.640625,1478503124.00
1478503603.67,0.412725,-0.398037,2.071815,0.074644,-0.017241,0.071638,0.369750,0.387610,-0.844419,-0.015350,-0.017874,-0.011965,2.406677,-0.664429,-40.488403,,,,,,
,,,,,,,,,,,,,,,,37.392598,-122.003843,10.474915,-1.000000,-1.000000,1478503550.24
1478503603.69,0.413393,-0.395787,2.072381,0.094044,0.033740,0.064216,0.370663,0.385535,-0.844969,-0.018017,-0.009833,-0.035311,2.181274,-0.739197,-40.565063,,,,,,
1478503603.71,0.412920,-0.394325,2.072523,0.019449,-0.023381,0.036215,0.370490,0.384185,-0.845659,-0.031195,0.001481,-0.053908,2.031311,-0.814270,-40.491089,,,,,,
1478503603.73,0.410830,-0.394635,2.072774,-0.030769,-0.157083,-0.014953,0.368673,0.384472,-0.846322,-0.044714,0.014256,-0.051032,2.182312,-0.739990,-40.040039,,,,,,
,,,,,,,,,,,,,,,,37.392598,-122.003843,10.474915,-1.000000,-1.000000,1478503603.72
1478503603.75,0.407395,-0.395166,2.071890,0.020810,-0.121013,-0.065821,0.365683,0.384962,-0.847396,-0.044898,0.008761,0.003890,1.283630,-0.289673,-39.972046,,,,,,
,,,,,,,,,,,,,,,,37.392598,-122.003843,10.474915,-1.000000,-1.000000,1478503603.74
1478503603.77,0.406089,-0.394093,2.069579,0.127992,0.037075,-0.081440,0.364739,0.383971,-0.848252,-0.031624,-0.008574,0.025117,1.283630,-0.289673,-39.972046,,,,,,
,,,,,,,,,,,,,,,,37.392598,-122.003843,10.474915,-1.000000,-1.000000,1478503603.76
,,,,,,,,,,,,,,,,37.392598,-122.003843,10.474915,-1.000000,-1.000000,1478503603.77
1478503603.79,0.406647,-0.392383,2.066675,0.117642,0.098796,-0.095429,0.365472,0.382391,-0.848650,-0.020074,-0.008978,0.018420,1.508179,-0.514954,-39.895142,,,,,,
,,,,,,,,,,,,,,,,37.392598,-122.003843,10.474915,-1.000000,-1.000000,1478503603.78
,,,,,,,,,,,,,,,,37.392598,-122.003843,10.474915,-1.000000,-1.000000,1478503603.79
1478503603.81,0.407035,-0.391538,2.064085,0.052470,0.050097,-0.092519,0.365929,0.381610,-0.848805,-0.009636,-0.012668,0.000309,1.432373,-0.589417,-40.195801,,,,,,
1478503603.83,0.406381,-0.391780,2.062304,0.005201,-0.025271,-0.071374,0.365337,0.381834,-0.848959,0.001805,-0.015593,-0.001718,1.507385,-0.664551,-40.120117,,,,,,
1478503603.85,0.405121,-0.392168,2.061329,-0.008920,-0.059289,-0.046916,0.364208,0.382193,-0.849283,0.004947,-0.008840,0.001672,1.954285,-1.413879,-40.716431,,,,,,
1478503603.87,0.403563,-0.392565,2.060404,0.004935,-0.059332,-0.047904,0.362825,0.382560,-0.849709,-0.002153,0.002466,-0.006476,1.954285,-1.413879,-40.716431,,,,,,
1478503603.89,0.401668,-0.392973,2.059209,0.007095,-0.069952,-0.058521,0.361153,0.382937,-0.850252,-0.004418,0.010572,-0.008055,1.880920,-1.264771,-40.116943,,,,,,
1478503603.91,0.399731,-0.393386,2.057863,0.008231,-0.066749,-0.068100,0.359445,0.383318,-0.850804,-0.008966,0.011442,-0.009975,2.180786,-1.189636,-40.264771,,,,,,
1478503603.93,0.397776,-0.393383,2.056179,0.045560,-0.044555,-0.062607,0.357781,0.383315,-0.851506,-0.008996,0.002717,-0.006480,1.731628,-0.964722,-40.118286,,,,,,
1478503603.95,0.396197,-0.392658,2.054438,0.059392,-0.036108,-0.055092,0.356543,0.382646,-0.852326,-0.000525,-0.001619,-0.000747,1.580078,-1.339172,-40.419312,,,,,,
1478503603.97,0.395149,-0.392184,2.053030,0.030682,-0.023255,-0.056334,0.355719,0.382207,-0.852866,0.000222,-0.004034,0.007514,1.580078,-1.339172,-40.419312,,,,,,
1478503603.99,0.394786,-0.392297,2.051690,0.024478,0.017178,-0.063881,0.355393,0.382312,-0.852956,-0.002884,-0.004657,0.016240,1.730042,-1.414368,-40.343140,,,,,,
1478503604.01,0.394861,-0.392324,2.050013,0.046998,0.044762,-0.072315,0.355454,0.382336,-0.852919,-0.006210,-0.001889,0.012954,1.579224,-1.563904,-40.569214,,,,,,
1478503604.03,0.395403,-0.392031,2.048149,0.058809,0.071303,-0.072291,0.355958,0.382066,-0.852830,-0.002351,-0.002184,0.017427,1.728943,-1.789246,-40.417969,,,,,,
1478503604.05,0.396753,-0.391749,2.046322,0.062118,0.102126,-0.073384,0.357151,0.381806,-0.852448,0.000698,-0.002548,0.022904,1.879639,-1.639526,-40.266846,,,,,,
1478503604.07,0.399617,-0.390904,2.044810,0.087740,0.171097,-0.043541,0.359717,0.381025,-0.851718,0.005136,-0.010099,0.033649,1.879639,-1.639526,-40.266846,,,,,,
1478503604.09,0.404817,-0.388854,2.043687,0.124207,0.281509,-0.021153,0.364447,0.379128,-0.850553,0.002450,-0.020714,0.052244,1.954163,-1.789490,-40.341309,,,,,,
1478503604.11,0.412654,-0.386921,2.042758,0.113955,0.437786,0.001973,0.371395,0.377339,-0.848340,0.020313,-0.025913,0.103040,2.253662,-1.789246,-40.563965,,,,,,
1478503604.13,0.423311,-0.384894,2.042540,0.087621,0.610015,0.050533,0.380728,0.375461,-0.845030,0.031000,-0.027484,0.130567,2.703125,-2.014526,-40.560547,,,,,,
1478503604.15,0.438547,-0.383151,2.043181,0.052167,0.849317,0.061684,0.393835,0.373844,-0.839723,0.026789,-0.002522,0.178926,3.303589,-1.940063,-40.406006,,,,,,
1478503604.17,0.459117,-0.382958,2.043658,-0.036925,1.143155,-0.007381,0.411056,0.373665,-0.831509,0.012330,0.036598,0.230404,3.303589,-1.940063,-40.406006,,,,,,
1478503604.19,0.485161,-0.384869,2.043013,-0.087546,1.424158,-0.102827,0.432236,0.375438,-0.819889,0.020629,0.054829,0.228657,4.203003,-2.315674,-40.249023,,,,,,
1478503604.21,0.516695,-0.386765,2.041091,-0.000988,1.748193,-0.134780,0.457519,0.377194,-0.805233,0.019104,0.030719,0.250470,5.328430,-2.091248,-40.315796,,,,,,
1478503604.23,0.553656,-0.388366,2.037962,-0.010434,1.991784,-0.191621,0.486643,0.378677,-0.787262,0.029882,0.037796,0.239777,6.752808,-2.392029,-40.229858,,,,,,
1478503604.25,0.593760,-0.392783,2.035069,-0.181037,2.132791,-0.258772,0.516875,0.382761,-0.765725,0.029481,0.049597,0.250039,9.528809,-2.319031,-39.834106,,,,,,
1478503604.27,0.638328,-0.400147,2.033632,-0.309043,2.368181,-0.270479,0.548783,0.389554,-0.739652,0.030105,0.034580,0.262449,9.528809,-2.319031,-39.834106,,,,,,
1478503604.29,0.687697,-0.410326,2.035022,-0.556907,2.476355,-0.266683,0.582069,0.398908,-0.708568,0.046761,0.043276,0.213771,11.179749,-2.320557,-39.371826,,,,,,
1478503604.31,0.737357,-0.426885,2.042297,-1.060407,2.203775,-0.311614,0.611998,0.414037,-0.673818,0.074830,0.056651,0.106054,13.432495,-1.572388,-38.905273,,,,,,
1478503604.33,0.780556,-0.453064,2.060799,-1.838668,1.492864,-0.275422,0.632681,0.437723,-0.638838,0.098718,0.044226,0.019972,15.384949,-0.974060,-38.440918,,,,,,
1478503604.35,0.817169,-0.487218,2.093307,-2.425023,0.926880,-0.181978,0.644360,0.468169,-0.604663,0.105549,0.054978,0.021762,17.868591,1.723206,-37.448730,,,,,,
1478503604.37,0.853893,-0.521951,2.132223,-2.379375,0.964922,-0.134947,0.653468,0.498572,-0.569566,0.091863,0.069894,0.062272,17.868591,1.723206,-37.448730,,,,,,
1478503604.39,0.897350,-0.551087,2.167141,-1.900979,1.529028,-0.171498,0.665954,0.523613,-0.531351,0.073624,0.104499,0.081919,18.248657,3.672913,-37.371704,,,,,,
1478503604.41,0.950070,-0.573141,2.192638,-1.329008,2.229032,-0.274806,0.683467,0.542274,-0.488683,0.051732,0.117165,0.053335,19.379639,5.245911,-36.389038,,,,,,
1478503604.43,1.009149,-0.591437,2.207961,-0.904109,2.702209,-0.495672,0.702614,0.557554,-0.442117,0.036797,0.125994,-0.032020,20.734375,6.669312,-35.779663,,,,,,
1478503604.45,1.071078,-0.610382,2.217224,-0.784983,2.887177,-0.702876,0.719227,0.573181,-0.392653,0.047451,0.123429,-0.111955,24.193665,8.539124,-33.504639,,,,,,
1478503604.47,1.131437,-0.631200,2.224604,-0.715235,2.778760,-0.843906,0.730644,0.590114,-0.343402,0.074730,0.064030,-0.197904,24.193665,8.539124,-33.504639,,,,,,
1478503604.49,1.188370,-0.652640,2.228850,-0.476997,2.736692,-0.968192,0.737091,0.607286,-0.296479,0.077667,0.050902,-0.214843,25.848755,9.511292,-32.142700,,,,,,
1478503604.51,1.241966,-0.673186,2.223468,0.064673,2.982847,-1.079491,0.739949,0.623480,-0.252484,0.073054,0.023066,-0.201633,27.578186,10.183411,-30.780151,,,,,,
1478503604.53,1.293767,-0.691578,2.202200,0.798926,3.502631,-1.169923,0.740873,0.637753,-0.210661,0.070376,-0.006665,-0.165713,29.307800,11.080688,-29.567505,,,,,,
1478503604.55,1.345320,-0.709788,2.162683,1.484845,4.099232,-1.324608,0.739300,0.651673,-0.169578,0.089221,-0.037873,-0.158318,31.791504,11.674072,-25.949219,,,,,,
1478503604.57,1.396162,-0.730850,2.108397,1.960402,4.469086,-1.526942,0.733282,0.667503,-0.129374,0.113947,-0.062874,-0.224538,31.791504,11.674072,-25.949219,,,,,,
1478503604.59,1.442287,-0.757598,2.045261,2.153495,4.398742,-1.780189,0.720498,0.687178,-0.093104,0.147666,-0.124709,-0.331930,34.045349,11.444580,-23.757080,,,,,,
1478503604.61,1.479854,-0.790104,1.984279,1.868588,3.772596,-1.885122,0.700863,0.710427,-0.063914,0.197284,-0.200356,-0.403905,35.475464,11.740601,-21.571655,,,,,,
1478503604.63,1.508625,-0.823769,1.934851,1.418478,2.919073,-1.763878,0.678148,0.733712,-0.042216,0.244596,-0.262276,-0.438939,37.884460,12.258667,-17.728882,,,,,,
1478503604.65,1.528672,-0.854619,1.897049,1.084034,2.155324,-1.519719,0.655924,0.754321,-0.027647,0.292029,-0.278704,-0.426256,38.115417,13.306030,-16.077637,,,,,,
1478503604.67,1.539662,-0.880814,1.863405,1.067006,1.709463,-1.260460,0.636215,0.771257,-0.019815,0.329391,-0.280870,-0.376014,38.115417,13.306030,-16.077637,,,,,,
1478503604.69,1.541354,-0.901914,1.824287,1.306784,1.594463,-0.997101,0.619841,0.784515,-0.018255,0.337786,-0.308762,-0.313837,37.742920,13.830322,-15.480591,,,,,,
1478503604.71,1.535402,-0.917201,1.775814,1.557651,1.656920,-0.704144,0.607664,0.793903,-0.021517,0.340319,-0.351489,-0.279402,38.196716,14.428345,-14.277588,,,,,,
1478503604.73,1.525980,-0.925697,1.721857,1.636622,1.696459,-0.363131,0.600674,0.799040,-0.026938,0.325962,-0.392485,-0.261270,38.725159,14.801208,-13.073853,,,,,,
1478503604.75,1.516219,-0.926898,1.668960,1.551984,1.581288,-0.010007,0.599424,0.799761,-0.032748,0.318453,-0.396136,-0.265928,38.800171,14.575806,-12.773071,,,,,,
1478503604.77,1.506208,-0.921566,1.620622,1.443848,1.346160,0.285688,0.603312,0.796550,-0.039021,0.322469,-0.364665,-0.269572,38.800171,14.575806,-12.773071,,,,,,
1478503604.79,1.494150,-0.910883,1.575309,1.413876,1.120450,0.523250,0.611248,0.790046,-0.046942,0.318027,-0.324714,-0.240900,38.875366,14.049622,-12.022339,,,,,,
1478503604.81,1.480609,-0.895877,1.532759,1.353476,0.936392,0.709486,0.622295,0.780757,-0.056276,0.318745,-0.284572,-0.215040,39.624817,13.523682,-11.641479,,,,,,
1478503604.83,1.469165,-0.877523,1.495808,1.193435,0.834579,0.862050,0.635761,0.769158,-0.064837,0.337597,-0.214516,-0.193815,39.847046,11.571960,-10.588745,,,,,,
1478503604.85,1.461876,-0.856578,1.465772,1.021918,0.756237,0.988966,0.651146,0.755605,-0.071205,0.386162,-0.134618,-0.196953,40.520752,10.971375,-10.433472,,,,,,
1478503604.87,1.457485,-0.833636,1.440715,0.942253,0.704217,1.092929,0.667878,0.740380,-0.076004,0.416183,-0.076302,-0.207749,40.520752,10.971375,-10.433472,,,,,,
1478503604.89,1.453571,-0.808400,1.416716,0.986124,0.681524,1.219880,0.685917,0.723183,-0.080777,0.417156,-0.058800,-0.207980,41.044006,9.920593,-10.054077,,,,,,
1478503604.91,1.449228,-0.779883,1.392010,1.068063,0.656504,1.390688,0.705748,0.703197,-0.086222,0.401140,-0.054759,-0.208075,41.192627,9.094849,-9.677490,,,,,,
1478503604.93,1.443568,-0.746785,1.366593,1.151421,0.561179,1.636126,0.727945,0.679283,-0.093118,0.355078,-0.084953,-0.195624,42.014404,6.767639,-8.395142,,,,,,
1478503604.95,1.436603,-0.708530,1.341847,1.177166,0.423533,1.871732,0.752492,0.650719,-0.101590,0.300669,-0.086281,-0.173770,42.310181,4.967163,-8.241943,,,,,,
1478503604.97,1.428623,-0.666339,1.319237,1.147806,0.258533,2.045335,0.778159,0.618112,-0.111385,0.249048,-0.050256,-0.145298,42.310181,4.967163,-8.241943,,,,,,
1478503604.99,1.420115,-0.621252,1.300330,1.033387,0.073676,2.181244,0.803936,0.582054,-0.122064,0.199878,-0.016289,-0.111655,42.305725,3.167175,-8.241089,,,,,,
1478503605.01,1.411110,-0.574850,1.287352,0.787022,-0.197802,2.244173,0.828596,0.543709,-0.133452,0.127657,0.028938,-0.095247,42.977295,1.441162,-7.785278,,,,,,
1478503605.03,1.400605,-0.528733,1.282535,0.471540,-0.516813,2.259958,0.850972,0.504440,-0.146242,0.071529,0.058594,-0.061842,43.567261,-2.684326,-7.628784,,,,,,
1478503605.05,1.388117,-0.483432,1.283996,0.273716,-0.731987,2.258133,0.870672,0.464820,-0.160847,0.016245,0.084740,-0.009151,43.187134,-4.558777,-7.855591,,,,,,
1478503605.07,1.374822,-0.438420,1.288582,0.204244,-0.774310,2.270590,0.888092,0.424509,-0.176306,-0.039170,0.119955,0.041877,43.187134,-4.558777,-7.855591,,,,,,
1478503605.09,1.362489,-0.393776,1.294322,0.191905,-0.708294,2.236358,0.903504,0.383678,-0.190977,-0.073395,0.184574,0.073988,42.956116,-6.507812,-8.456299,,,,,,
1478503605.11,1.351822,-0.350666,1.299883,0.218537,-0.592311,2.130943,0.916718,0.343523,-0.204009,-0.103867,0.257017,0.095748,42.574829,-8.606750,-8.983154,,,,,,
1478503605.13,1.343072,-0.310429,1.304376,0.255262,-0.468783,1.948927,0.927619,0.305467,-0.214970,-0.122718,0.319137,0.107274,41.889526,-11.980103,-9.886719,,,,,,
1478503605.15,1.336029,-0.274185,1.307316,0.292264,-0.351550,1.719020,0.936239,0.270762,-0.223928,-0.129522,0.373448,0.128102,41.285278,-13.629700,-9.965454,,,,,,
1478503605.17,1.331251,-0.242568,1.308600,0.328466,-0.192818,1.469885,0.943006,0.240196,-0.230315,-0.130003,0.405571,0.159331,41.285278,-13.629700,-9.965454,,,,,,
1478503605.19,1.330561,-0.215282,1.308667,0.296574,0.073431,1.267049,0.948861,0.213622,-0.232439,-0.083840,0.503525,0.183626,40.906372,-15.129395,-10.042603,,,,,,
1478503605.21,1.336192,-0.192091,1.311055,0.060040,0.359430,1.091801,0.954717,0.190912,-0.228183,0.014567,0.690481,0.159228,40.751709,-16.328064,-10.868042,,,,,,
1478503605.23,1.346631,-0.175529,1.318161,-0.279196,0.497249,0.732055,0.959999,0.174629,-0.218877,0.041283,0.836296,0.094030,40.223083,-18.203613,-10.346069,,,,,,
1478503605.25,1.358617,-0.170380,1.328133,-0.476747,0.512770,0.133762,0.963419,0.169557,-0.207541,-0.009562,0.857680,0.039862,40.072693,-18.503906,-10.122070,,,,,,
1478503605.27,1.368942,-0.177617,1.335663,-0.367566,0.412570,-0.516959,0.964283,0.176685,-0.197332,-0.139637,0.625394,0.015448,40.072693,-18.503906,-10.122070,,,,,,
1478503605.29,1.374850,-0.194154,1.334418,0.072575,0.235489,-0.983715,0.962435,0.192936,-0.191037,-0.268679,0.285427,0.047070,39.997192,-18.653748,-10.197510,,,,,,
1478503605.31,1.375330,-0.213771,1.323973,0.430409,0.087731,-1.048587,0.958628,0.212147,-0.189803,-0.349894,0.017864,0.130752,40.899902,-17.529114,-10.266357,,,,,,
1478503605.33,1.374294,-0.227893,1.310423,0.521856,0.125019,-0.659599,0.955397,0.225926,-0.190192,-0.384063,-0.119572,0.223014,40.827759,-16.629456,-9.967285,,,,,,
1478503605.35,1.375853,-0.234434,1.301518,0.230089,0.201867,-0.296196,0.954223,0.232293,-0.188412,-0.385894,-0.035851,0.244214,41.353516,-16.329712,-9.963501,,,,,,
1478503605.37,1.380187,-0.239341,1.301092,-0.177015,0.246686,-0.246340,0.953900,0.237062,-0.184057,-0.377530,0.102309,0.227300,41.353516,-16.329712,-9.963501,,,,,,
1478503605.39,1.388210,-0.246971,1.307589,-0.486764,0.381887,-0.382375,0.953539,0.244468,-0.176064,-0.327074,0.249474,0.205849,41.428223,-16.329590,-10.113037,,,,,,
1478503605.41,1.400756,-0.259020,1.317705,-0.641396,0.579432,-0.586845,0.952700,0.256134,-0.163577,-0.272708,0.352402,0.155292,41.429199,-15.653992,-10.488281,,,,,,
1478503605.43,1.416938,-0.275332,1.329579,-0.732382,0.681105,-0.801464,0.950967,0.271866,-0.147480,-0.218789,0.410064,0.079151,42.257263,-14.830200,-9.957520,,,,,,
1478503605.45,1.433793,-0.297255,1.342865,-0.839139,0.635258,-1.131975,0.947185,0.292897,-0.130585,-0.201366,0.427852,0.001786,42.334534,-13.930237,-9.957397,,,,,,
1478503605.47,1.449307,-0.326563,1.358222,-0.961951,0.484295,-1.509253,0.940169,0.320790,-0.114785,-0.207763,0.380138,-0.068061,42.334534,-13.930237,-9.957397,,,,,,
1478503605.49,1.463126,-0.362529,1.374624,-0.968863,0.386997,-1.814699,0.929588,0.354640,-0.100477,-0.191231,0.290898,-0.086382,42.712463,-12.880676,-9.805054,,,,,,
1478503605.51,1.476273,-0.402591,1.389411,-0.826002,0.393239,-1.999146,0.915942,0.391804,-0.086836,-0.149416,0.221706,-0.094850,43.620483,-9.806335,-9.649902,,,,,,
1478503605.53,1.489022,-0.445249,1.400224,-0.591622,0.433145,-2.149078,0.899487,0.430683,-0.073719,-0.092069,0.181881,-0.113400,43.850708,-7.856750,-9.423950,,,,,,
1478503605.55,1.500613,-0.490007,1.405876,-0.322321,0.465437,-2.265806,0.880157,0.470632,-0.061874,-0.021286,0.147547,-0.121949,44.606689,-5.832825,-8.969360,,,,,,
1478503605.57,1.510530,-0.536021,1.406967,-0.141885,0.472400,-2.325502,0.858187,0.510719,-0.051782,0.044584,0.106927,-0.120352,44.606689,-5.832825,-8.969360,,,,,,
1478503605.59,1.519980,-0.582633,1.407392,-0.194040,0.444967,-2.348101,0.833939,0.550224,-0.042415,0.106308,0.062477,-0.126104,44.161926,-4.033203,-8.598511,,,,,,
1478503605.61,1.530069,-0.629567,1.413715,-0.480290,0.233264,-2.347222,0.807612,0.588795,-0.032910,0.164556,0.019939,-0.171375,43.796570,-0.358337,-8.378174,,,,,,
1478503605.63,1.539498,-0.676141,1.428337,-0.775771,-0.100749,-2.301500,0.779611,0.625788,-0.024409,0.214468,-0.028406,-0.208196,44.328003,1.740479,-7.775269,,,,,,
1478503605.65,1.547397,-0.721438,1.449557,-0.922182,-0.393845,-2.220956,0.750652,0.660465,-0.017568,0.235051,-0.101795,-0.221308,44.107178,3.616089,-8.077759,,,,,,
1478503605.67,1.553438,-0.764500,1.474101,-0.958819,-0.611875,-2.105859,0.721620,0.692176,-0.012527,0.263076,-0.158958,-0.227280,44.107178,3.616089,-8.077759,,,,,,
1478503605.69,1.556821,-0.805064,1.499511,-0.919795,-0.801466,-1.978681,0.692997,0.720875,-0.009686,0.289959,-0.220967,-0.216648,43.212219,5.641602,-8.085449,,,,,,
1478503605.71,1.557708,-0.843073,1.525167,-0.898755,-0.959101,-1.853779,0.665115,0.746690,-0.008706,0.351853,-0.252809,-0.188560,42.094055,9.168579,-9.070557,,,,,,
1478503605.73,1.558813,-0.878760,1.552199,-0.912178,-0.959238,-1.751660,0.638061,0.769948,-0.007646,0.394608,-0.278539,-0.147230,41.421387,10.745178,-9.901611,,,,,,
1478503605.75,1.563167,-0.912653,1.579889,-0.866365,-0.802196,-1.664358,0.611631,0.791129,-0.004666,0.462267,-0.286277,-0.136386,40.975037,12.170227,-9.830566,,,,,,
1478503605.77,1.571242,-0.943628,1.605968,-0.735618,-0.520184,-1.460750,0.586854,0.809692,0.000262,0.560820,-0.298813,-0.139330,40.975037,12.170227,-9.830566,,,,,,
1478503605.79,1.583322,-0.969285,1.626671,-0.479764,-0.078070,-1.241794,0.565845,0.824481,0.007088,0.752621,-0.178149,-0.153954,40.002563,13.596558,-10.363647,,,,,,
1478503605.81,1.593215,-0.994995,1.634823,-0.025007,0.282134,-1.360132,0.544370,0.838756,0.012206,0.951235,-0.075069,-0.194579,38.132202,16.073608,-11.128906,,,,,,
1478503605.83,1.596375,-1.022630,1.626461,0.405497,0.672987,-1.330685,0.520952,0.853482,0.013328,1.038191,-0.186383,-0.192695,37.984802,17.048584,-11.055542,,,,,,
1478503605.85,1.594093,-1.042752,1.604027,0.695556,0.912320,-0.732271,0.503708,0.863794,0.011737,1.020691,-0.456888,-0.200320,37.986877,17.948669,-11.130859,,,,,,
1478503605.87,1.587213,-1.045781,1.578284,0.565955,0.622905,0.240410,0.501159,0.865316,0.008228,0.851273,-0.709295,-0.253513,37.986877,17.948669,-11.130859,,,,,,
1478503605.89,1.579189,-1.029245,1.564663,0.201864,-0.096233,1.162425,0.515448,0.856910,0.004326,0.511636,-0.783088,-0.294975,37.463562,18.699097,-11.210327,,,,,,
1478503605.91,1.566773,-0.998609,1.562181,0.017191,-0.733442,1.718049,0.541468,0.840719,-0.002179,0.358602,-0.652196,-0.231418,37.759094,17.725464,-12.257446,,,,,,
1478503605.93,1.545031,-0.962277,1.558648,0.243410,-1.008691,1.845322,0.571464,0.820495,-0.014727,0.270440,-0.500763,-0.132627,39.179138,16.826782,-13.596313,,,,,,
1478503605.95,1.514335,-0.926047,1.541702,0.798971,-0.693534,1.765929,0.600040,0.799251,-0.033915,0.240185,-0.400325,0.000498,39.623535,15.553406,-14.792480,,,,,,
1478503605.97,1.483233,-0.890587,1.508379,1.355123,0.059671,1.666711,0.626546,0.777441,-0.055003,0.277400,-0.285269,0.077678,39.623535,15.553406,-14.792480,,,,,,
1478503605.99,1.461616,-0.855722,1.463801,1.748881,0.980320,1.565281,0.651770,0.755044,-0.071445,0.335871,-0.173654,0.100162,40.736145,12.331055,-16.957397,,,,,,
1478503606.01,1.453495,-0.821696,1.410741,2.112943,1.938276,1.463632,0.676301,0.732302,-0.079697,0.380569,-0.078768,0.083099,41.481384,10.230347,-16.725708,,,,,,
1478503606.03,1.458130,-0.787996,1.346583,2.623845,2.922259,1.404265,0.700796,0.708941,-0.079292,0.405405,-0.021807,0.022621,42.302917,8.278931,-16.043701,,,,,,
1478503606.05,1.472389,-0.754999,1.272167,2.908393,3.480632,1.358141,0.724749,0.685288,-0.071552,0.428328,-0.001206,-0.125988,44.101929,6.625610,-14.454346,,,,,,
1478503606.07,1.492589,-0.722278,1.202398,2.555225,3.225354,1.473684,0.748008,0.661096,-0.058619,0.465966,-0.010583,-0.267873,44.101929,6.625610,-14.454346,,,,,,
1478503606.09,1.513222,-0.685194,1.150584,1.800590,2.389250,1.921093,0.773013,0.632823,-0.044555,0.479443,-0.037639,-0.328782,45.079834,3.166443,-8.670166,,,,,,
1478503606.11,1.530757,-0.637743,1.122251,0.891770,1.399119,2.577596,0.802798,0.595384,-0.032161,0.461057,0.006103,-0.327901,45.379822,1.588318,-6.717285,,,,,,
1478503606.13,1.544022,-0.579544,1.115642,0.076993,0.551390,3.096014,0.836412,0.547643,-0.022400,0.415693,0.139033,-0.309174,44.702942,-0.513855,-4.996338,,,,,,
1478503606.15,1.550453,-0.513908,1.123919,-0.457935,-0.126801,3.420908,0.870650,0.491585,-0.017715,0.351991,0.281075,-0.295792,44.325623,-2.240112,-4.023315,,,,,,
1478503606.17,1.549122,-0.443689,1.139226,-0.668398,-0.568721,3.609905,0.902962,0.429274,-0.019574,0.279030,0.400438,-0.259311,44.325623,-2.240112,-4.023315,,,,,,
1478503606.19,1.541430,-0.371310,1.155918,-0.669576,-0.779345,3.680476,0.931451,0.362836,-0.027361,0.187125,0.500262,-0.210218,42.889099,-7.265198,-3.506592,,,,,,
1478503606.21,1.530684,-0.298830,1.171557,-0.577856,-0.796606,3.654394,0.954913,0.294402,-0.038324,0.079450,0.583497,-0.170904,42.207886,-9.589478,-3.735474,,,,,,
1478503606.23,1.519389,-0.228330,1.184496,-0.383784,-0.695982,3.510536,0.972759,0.226351,-0.050051,-0.023998,0.650083,-0.150938,41.226074,-12.213928,-3.816528,,,,,,
1478503606.25,1.508883,-0.161781,1.192297,-0.066441,-0.554120,3.268293,0.985051,0.161076,-0.061066,-0.111165,0.697582,-0.136474,40.694702,-14.463074,-4.194336,,,,,,
1478503606.27,1.499908,-0.100564,1.193360,0.280111,-0.398418,2.962320,0.992449,0.100394,-0.070472,-0.195818,0.736810,-0.111520,40.694702,-14.463074,-4.194336,,,,,,
1478503606.29,1.493568,-0.045211,1.188473,0.537285,-0.250894,2.634579,0.996001,0.045195,-0.077072,-0.263182,0.763170,-0.078338,38.357849,-19.337097,-4.059570,,,,,,
1478503606.31,1.490003,0.003211,1.180049,0.647754,-0.122987,2.246449,0.996733,-0.003211,-0.080705,-0.342451,0.767921,-0.038680,37.378601,-21.136841,-3.916016,,,,,,
1478503606.33,1.489273,0.043994,1.170277,0.646228,-0.010688,1.871566,0.995714,-0.043980,-0.081354,-0.408770,0.752812,-0.003805,37.000000,-22.937317,-3.467896,,,,,,
1478503606.35,1.490206,0.077675,1.161369,0.539864,0.023232,1.522839,0.993749,-0.077597,-0.080261,-0.456502,0.754691,0.027648,35.948242,-24.513428,-2.349976,,,,,,
1478503606.37,1.491438,0.104424,1.155433,0.293801,0.041632,1.188271,0.991423,-0.104235,-0.078843,-0.406218,0.877810,0.038255,35.948242,-24.513428,-2.349976,,,,,,
1478503606.39,1.491695,0.122343,1.155285,-0.053784,-0.008463,0.695703,0.989422,-0.122038,-0.078428,-0.394985,0.961439,0.034284,34.744019,-26.688721,-1.757812,,,,,,
1478503606.41,1.489964,0.127437,1.161122,-0.395990,-0.082687,0.010527,0.988652,-0.127092,-0.080089,-0.409673,0.983125,0.017177,34.067810,-27.213501,-1.687622,,,,,,
1478503606.43,1.485110,0.116347,1.171354,-0.625585,-0.243091,-0.843154,0.989595,-0.116084,-0.085003,-0.444750,0.907725,0.011456,33.992554,-27.213257,-1.838379,,,,,,
1478503606.45,1.477190,0.087951,1.181819,-0.651862,-0.413757,-1.677606,0.991774,-0.087838,-0.093108,-0.489714,0.707604,0.039702,34.217590,-27.138245,-1.911743,,,,,,
1478503606.47,1.466231,0.046050,1.190401,-0.629740,-0.576556,-2.240357,0.993484,-0.046034,-0.104264,-0.504272,0.455900,0.088532,34.217590,-27.138245,-1.911743,,,,,,
1478503606.49,1.453857,-0.001173,1.197490,-0.617679,-0.610550,-2.307344,0.993170,0.001173,-0.116673,-0.501562,0.207446,0.146656,35.945251,-25.037231,-3.174805,,,,,,
1478503606.51,1.442895,-0.045323,1.205546,-0.735146,-0.535143,-2.049431,0.990813,0.045308,-0.127422,-0.465514,0.131160,0.174007,37.298340,-23.386963,-3.765381,,,,,,
1478503606.53,1.433759,-0.084777,1.218311,-1.001767,-0.486871,-1.805070,0.987067,0.084675,-0.136118,-0.371482,0.219600,0.178843,38.349731,-21.735474,-5.108276,,,,,,
1478503606.55,1.427077,-0.122980,1.236158,-1.231558,-0.372394,-1.791604,0.982215,0.122670,-0.142144,-0.253318,0.399287,0.180382,39.779846,-18.584229,-6.449097,,,,,,
1478503606.57,1.425869,-0.163494,1.256797,-1.343676,-0.092171,-1.934225,0.976321,0.162767,-0.142495,-0.134509,0.558364,0.154778,39.779846,-18.584229,-6.449097,,,,,,
1478503606.59,1.432077,-0.208723,1.277896,-1.359879,0.231598,-2.228609,0.968899,0.207210,-0.135273,-0.006527,0.701725,0.096791,40.157959,-17.008728,-6.897095,,,,,,
1478503606.61,1.443542,-0.262249,1.298593,-1.360384,0.379233,-2.747247,0.958000,0.259254,-0.122572,0.117745,0.774713,0.008025,40.386475,-15.208191,-7.346313,,,,,,
1478503606.63,1.456299,-0.326891,1.317919,-1.283278,0.329022,-3.351383,0.940844,0.321101,-0.108197,0.188321,0.731954,-0.064196,41.365967,-13.032898,-7.864990,,,,,,
1478503606.65,1.466455,-0.399898,1.335667,-1.216107,0.105021,-3.656183,0.916091,0.389324,-0.095934,0.205399,0.610218,-0.092817,42.428833,-7.482605,-8.384888,,,,,,
1478503606.67,1.473952,-0.476457,1.353359,-1.152007,-0.041703,-3.767380,0.884461,0.458634,-0.085924,0.230544,0.332641,-0.082884,42.428833,-7.482605,-8.384888,,,,,,
1478503606.69,1.480155,-0.551105,1.370067,-1.038386,-0.130630,-3.587785,0.848449,0.523629,-0.077116,0.302720,0.107978,-0.081942,42.511597,-4.257446,-8.535889,,,,,,
1478503606.71,1.487267,-0.621409,1.384746,-0.840990,0.000217,-3.394225,0.810224,0.582181,-0.067835,0.330279,-0.010129,-0.043768,42.218445,-1.331970,-8.764526,,,,,,
1478503606.73,1.496102,-0.685641,1.396821,-0.685086,0.121353,-3.044396,0.771855,0.633169,-0.057761,0.384410,-0.138418,-0.054331,42.001038,1.893555,-8.992676,,,,,,
1478503606.75,1.506194,-0.741653,1.406948,-0.518178,0.184899,-2.612454,0.735815,0.675508,-0.047601,0.436106,-0.196336,-0.073157,41.187927,6.844177,-9.226318,,,,,,
1478503606.77,1.516596,-0.788218,1.417653,-0.575678,0.105593,-2.149592,0.704074,0.709098,-0.038198,0.473233,-0.225211,-0.108012,41.187927,6.844177,-9.226318,,,,,,
1478503606.79,1.529602,-0.826909,1.436787,-0.881385,-0.147089,-1.785764,0.676579,0.735842,-0.027887,0.491115,-0.136416,-0.199011,40.967224,8.419128,-9.078735,,,,,,
1478503606.81,1.545652,-0.860445,1.466787,-1.146599,-0.420840,-1.605839,0.651894,0.758133,-0.016395,0.469795,-0.084427,-0.256463,39.621765,10.144653,-8.939697,,,,,,
1478503606.83,1.562688,-0.892840,1.503166,-1.194011,-0.618387,-1.630283,0.627182,0.778856,-0.005086,0.433533,-0.091432,-0.288585,38.951111,11.719543,-8.720459,,,,,,
1478503606.85,1.576018,-0.926417,1.537483,-0.955195,-0.724255,-1.719291,0.600694,0.799473,0.003136,0.420836,-0.163487,-0.289010,37.981750,14.345703,-9.179077,,,,,,
1478503606.87,1.581155,-0.960535,1.562188,-0.576051,-0.745692,-1.713982,0.573051,0.819498,0.005936,0.443734,-0.257441,-0.252442,37.981750,14.345703,-9.179077,,,,,,
1478503606.89,1.578915,-0.993677,1.576072,-0.253337,-0.642673,-1.644237,0.545594,0.838038,0.004429,0.475753,-0.339045,-0.204747,37.909790,15.846375,-9.555542,,,,,,
1478503606.91,1.570161,-1.025459,1.577459,0.092277,-0.390887,-1.575658,0.518706,0.854953,-0.000329,0.526613,-0.384509,-0.160849,37.087219,16.896973,-9.637207,,,,,,
1478503606.93,1.558949,-1.055402,1.567241,0.325380,0.070613,-1.455855,0.492843,0.870099,-0.005839,0.665085,-0.331677,-0.113255,35.964111,18.098206,-10.171143,,,,,,
1478503606.95,1.549597,-1.082664,1.546247,0.619909,0.696736,-1.356192,0.468872,0.883210,-0.009941,0.870483,-0.248048,-0.109230,34.619324,20.349304,-10.407349,,,,,,
1478503606.97,1.532055,-1.109315,1.502842,1.180166,1.264779,-1.363558,0.444941,0.895394,-0.017246,1.018743,-0.301919,-0.127971,34.619324,20.349304,-10.407349,,,,,,
1478503606.99,1.499640,-1.131528,1.432963,1.574645,1.649890,-1.027724,0.424201,0.905063,-0.030236,1.091226,-0.517734,-0.152671,34.622192,21.323975,-10.182861,,,,,,
1478503607.01,1.464793,-1.138216,1.360002,1.408259,1.457386,-0.080941,0.416862,0.907887,-0.044355,1.036065,-0.751332,-0.215670,33.874451,21.623230,-9.438477,,,,,,
1478503607.03,1.440805,-1.122113,1.311433,0.937665,0.678520,1.143962,0.430120,0.901019,-0.056229,0.884592,-0.880175,-0.245666,34.025635,22.148315,-9.512573,,,,,,
1478503607.05,1.431445,-1.085136,1.299479,0.238658,-0.299102,2.157142,0.462268,0.884367,-0.064838,0.679898,-0.813612,-0.203671,34.848511,20.796814,-8.830811,,,,,,
1478503607.07,1.432725,-1.035515,1.320780,-0.390035,-1.167711,2.719194,0.505228,0.860125,-0.070204,0.525396,-0.622470,-0.144517,34.848511,20.796814,-8.830811,,,,,,
1478503607.09,1.433620,-0.981108,1.356313,-0.615183,-1.584029,2.885717,0.550878,0.831114,-0.076045,0.403926,-0.430647,-0.069997,35.744385,19.296692,-9.048340,,,,,,
1478503607.11,1.427680,-0.925376,1.387240,-0.380710,-1.500853,2.915620,0.595384,0.798847,-0.085796,0.348113,-0.293201,0.008418,37.690552,18.021301,-9.408081,,,,,,
1478503607.13,1.416580,-0.868228,1.405449,-0.018346,-1.120390,2.933000,0.638511,0.763185,-0.099257,0.327507,-0.176759,0.070982,38.433960,15.997009,-10.151611,,,,,,
1478503607.15,1.409109,-0.811348,1.415775,0.191007,-0.529786,2.834253,0.679541,0.725216,-0.110841,0.323053,-0.000942,0.099839,40.746033,11.947937,-11.557251,,,,,,
1478503607.17,1.407189,-0.756581,1.417266,0.538167,0.064729,2.676646,0.717477,0.686439,-0.118443,0.342185,0.120202,0.069890,40.746033,11.947937,-11.557251,,,,,,
1478503607.19,1.407264,-0.702121,1.407032,1.014049,0.500222,2.629631,0.753288,0.645839,-0.124297,0.426079,0.226933,0.040160,41.265564,9.998169,-11.852295,,,,,,
1478503607.21,1.408004,-0.646218,1.385063,1.473291,0.863360,2.647569,0.787812,0.602171,-0.129395,0.482757,0.318819,0.059327,43.060181,7.671875,-11.612793,,,,,,
1478503607.23,1.413118,-0.588146,1.356433,1.657250,1.217708,2.730007,0.821650,0.554820,-0.130641,0.496176,0.309621,0.082682,44.700745,2.869141,-10.322998,,,,,,
1478503607.25,1.425108,-0.528223,1.331969,1.329100,1.214211,2.903852,0.854554,0.503999,-0.125387,0.458251,0.298766,0.026357,45.295410,0.167786,-9.642334,,,,,,
1478503607.27,1.437005,-0.463943,1.320027,0.752654,0.637061,3.280524,0.886303,0.447477,-0.119293,0.414371,0.317690,-0.020905,45.295410,0.167786,-9.642334,,,,,,
1478503607.29,1.442066,-0.393919,1.321403,0.195519,0.020590,3.613719,0.915772,0.383810,-0.118543,0.331680,0.407984,0.022717,46.265869,-2.384033,-8.733643,,,,,,
1478503607.31,1.441227,-0.320419,1.332753,-0.176680,-0.374021,3.798562,0.941148,0.314964,-0.122631,0.279860,0.532249,0.059749,46.559692,-5.685791,-7.679688,,,,,,
1478503607.33,1.435054,-0.245257,1.349154,-0.325048,-0.630950,3.871588,0.961152,0.242805,-0.131276,0.220489,0.659325,0.086537,45.718750,-11.834900,-7.983032,,,,,,
1478503607.35,1.424498,-0.170931,1.366216,-0.273634,-0.730874,3.770895,0.974900,0.170099,-0.143653,0.116119,0.749884,0.134101,44.734741,-15.058716,-8.438721,,,,,,
1478503607.37,1.412560,-0.100190,1.380984,-0.135606,-0.671371,3.537374,0.982554,0.100023,-0.156787,-0.005656,0.790892,0.179583,44.734741,-15.058716,-8.438721,,,,,,
1478503607.39,1.401575,-0.034528,1.393029,-0.014028,-0.542611,3.247237,0.985129,0.034521,-0.168315,-0.137884,0.789835,0.210673,43.751343,-17.982422,-8.969604,,,,,,
1478503607.41,1.392584,0.025149,1.402395,0.099335,-0.404178,2.913397,0.983851,-0.025146,-0.177215,-0.248759,0.781738,0.223022,42.693298,-20.906372,-9.351074,,,,,,
1478503607.43,1.386114,0.078319,1.408922,0.192661,-0.247567,2.557064,0.979981,-0.078239,-0.183072,-0.338883,0.771797,0.234479,39.754211,-26.229248,-9.745605,,,,,,
1478503607.45,1.383079,0.124132,1.413422,0.200118,-0.058696,2.151243,0.974873,-0.123813,-0.185181,-0.403996,0.770328,0.239228,38.400452,-27.803711,-9.680054,,,,,,
1478503607.47,1.383844,0.160926,1.417593,0.095147,0.146610,1.675588,0.969880,-0.160232,-0.183464,-0.442719,0.777343,0.238609,38.400452,-27.803711,-9.680054,,,,,,
1478503607.49,1.387815,0.187418,1.422777,-0.067338,0.290441,1.169863,0.966087,-0.186323,-0.178775,-0.480842,0.773191,0.214664,37.795593,-29.603149,-9.833618,,,,,,
1478503607.51,1.393546,0.204238,1.428672,-0.165474,0.382967,0.730610,0.963874,-0.202821,-0.172659,-0.503165,0.740419,0.193350,37.193726,-30.653442,-9.462402,,,,,,
1478503607.53,1.401335,0.213631,1.435083,-0.290837,0.512587,0.407180,0.963269,-0.212010,-0.164817,-0.456357,0.788578,0.180335,35.916199,-32.003418,-9.021362,,,,,,
1478503607.55,1.411251,0.215425,1.445822,-0.655233,0.677155,-0.002776,0.964479,-0.213763,-0.155197,-0.373918,0.973406,0.151886,35.615601,-32.228271,-9.023560,,,,,,
1478503607.57,1.422197,0.203230,1.462516,-1.039852,0.737250,-0.815064,0.968626,-0.201834,-0.145006,-0.277464,1.166525,0.059709,35.615601,-32.228271,-9.023560,,,,,,
1478503607.59,1.432915,0.171806,1.481600,-1.195704,0.694868,-1.811163,0.975927,-0.170962,-0.135422,-0.259954,1.187365,-0.025299,36.141724,-31.553101,-9.319946,,,,,,
1478503607.61,1.442924,0.121469,1.497747,-1.064632,0.573822,-2.737437,0.984527,-0.121170,-0.126585,-0.224914,1.045029,-0.069262,36.743347,-30.878296,-9.390747,,,,,,
1478503607.63,1.451802,0.056715,1.508397,-0.865013,0.455242,-3.380182,0.991332,-0.056684,-0.118523,-0.209853,0.750578,-0.036918,38.926758,-27.429260,-9.451050,,,,,,
1478503607.65,1.459784,-0.016511,1.516694,-0.838249,0.394956,-3.605620,0.993709,0.016510,-0.110770,-0.224452,0.403351,0.014044,41.107605,-24.880005,-9.736084,,,,,,
1478503607.67,1.468037,-0.086110,1.528177,-1.037667,0.375822,-3.242628,0.991039,0.086003,-0.102199,-0.203747,0.082027,0.025096,41.107605,-24.880005,-9.736084,,,,,,
1478503607.69,1.476596,-0.145055,1.547042,-1.350747,0.264144,-2.642736,0.985111,0.144547,-0.093073,-0.118061,0.129562,-0.036245,42.689941,-21.580139,-10.175903,,,,,,
1478503607.71,1.483519,-0.194924,1.572993,-1.586200,0.043081,-2.251958,0.977328,0.193692,-0.085516,-0.009585,0.270511,-0.069696,45.026733,-16.630798,-10.460815,,,,,,
1478503607.73,1.488680,-0.238843,1.602302,-1.624615,-0.131599,-1.998552,0.968338,0.236578,-0.079695,0.131546,0.414820,-0.097520,45.107178,-14.155334,-10.836548,,,,,,
1478503607.75,1.490986,-0.280361,1.632804,-1.676666,-0.351543,-1.975084,0.957897,0.276702,-0.076613,0.212574,0.500718,-0.119844,45.335510,-12.354492,-11.435669,,,,,,
1478503607.77,1.492988,-0.323269,1.667169,-1.932207,-0.440955,-2.046609,0.945333,0.317668,-0.073704,0.265070,0.516439,-0.136395,45.335510,-12.354492,-11.435669,,,,,,
1478503607.79,1.497295,-0.367526,1.710416,-2.386434,-0.594664,-2.068032,0.930700,0.359307,-0.068531,0.239039,0.424064,-0.213970,45.789368,-10.028259,-12.408325,,,,,,
1478503607.81,1.501305,-0.411475,1.763116,-2.705554,-0.954149,-2.004304,0.914320,0.399961,-0.063640,0.139452,0.261431,-0.267735,46.173767,-5.076294,-13.907959,,,,,,
1478503607.83,1.501482,-0.453780,1.820491,-2.757575,-1.344320,-1.910320,0.896638,0.438366,-0.062249,0.074630,0.140522,-0.264823,45.803894,-2.900818,-14.061768,,,,,,
1478503607.85,1.497970,-0.494292,1.877109,-2.612776,-1.512924,-1.820914,0.877971,0.474408,-0.064053,0.048847,0.058978,-0.207523,45.283691,0.026428,-15.342163,,,,,,
1478503607.87,1.495689,-0.532968,1.930460,-2.389022,-1.350076,-1.735837,0.858875,0.508092,-0.064630,0.052731,0.014689,-0.131568,45.283691,0.026428,-15.342163,,,,,,
1478503607.89,1.498520,-0.569576,1.979608,-2.151889,-1.019292,-1.652006,0.839931,0.539275,-0.060813,0.071842,0.015092,-0.108681,44.760742,2.128967,-16.922119,,,,,,
1478503607.91,1.508732,-0.604489,2.025713,-2.001609,-0.625421,-1.613458,0.821208,0.568342,-0.051034,0.098103,0.034701,-0.116340,43.645569,6.780945,-17.832886,,,,,,
1478503607.93,1.527141,-0.638859,2.071837,-1.964155,-0.326746,-1.643513,0.802012,0.596280,-0.035034,0.116400,0.047351,-0.180680,42.823486,8.432251,-18.439819,,,,,,
1478503607.95,1.550914,-0.673632,2.119065,-1.927141,-0.238488,-1.721152,0.781407,0.623828,-0.015539,0.135143,0.033017,-0.279307,41.854126,10.682739,-18.448242,,,,,,
1478503607.97,1.576503,-0.709426,2.168035,-1.896956,-0.322390,-1.825179,0.758724,0.651398,0.004330,0.156010,0.024429,-0.340100,41.854126,10.682739,-18.448242,,,,,,
1478503607.99,1.600885,-0.745746,2.217455,-1.768368,-0.507699,-1.878480,0.734250,0.678520,0.022099,0.183765,-0.010688,-0.385045,41.559082,12.557617,-18.301514,,,,,,
1478503608.01,1.620815,-0.782662,2.265594,-1.619643,-0.781256,-1.964535,0.708152,0.705169,0.035450,0.223290,-0.041183,-0.412602,40.070496,16.983093,-18.089844,,,,,,
1478503608.04,1.635686,-0.821389,2.312854,-1.501626,-1.066344,-2.086934,0.679771,0.732093,0.044172,0.269814,-0.084418,-0.405195,38.650208,18.558289,-17.726196,,,,,,
1478503608.06,1.647495,-0.861482,2.361866,-1.507566,-1.343704,-2.144028,0.649399,0.758809,0.049906,0.352280,-0.142491,-0.372385,37.380432,20.583862,-17.661865,,,,,,
1478503608.08,1.660555,-0.901034,2.415613,-1.578544,-1.453058,-2.098478,0.618300,0.783969,0.055647,0.456651,-0.189930,-0.338729,37.380432,20.583862,-17.661865,,,,,,
1478503608.10,1.680794,-0.937012,2.475310,-1.662246,-1.281963,-1.905459,0.588619,0.805793,0.065009,0.630680,-0.163031,-0.309303,35.659973,22.685120,-17.975830,,,,,,
1478503608.12,1.710148,-0.970509,2.537318,-1.483886,-0.925248,-1.948666,0.559404,0.825173,0.078462,0.975416,0.037284,-0.344698,32.443726,26.211914,-18.076660,,,,,,
1478503608.14,1.741828,-1.008894,2.589873,-0.901823,-0.405689,-2.233673,0.525023,0.846243,0.090681,1.138490,-0.115118,-0.356306,31.023438,28.087524,-18.013306,,,,,,
1478503608.16,1.771847,-1.049089,2.625415,-0.336664,0.183157,-1.990887,0.488323,0.866970,0.099522,1.157460,-0.529033,-0.408497,29.528870,29.587036,-17.200073,,,,,,
1478503608.18,1.790949,-1.074010,2.641355,-0.029882,0.187478,-0.790582,0.465099,0.879119,0.104080,0.983998,-0.979705,-0.561874,29.528870,29.587036,-17.200073,,,,,,
1478503608.20,1.778387,-1.068969,2.637700,0.054491,-1.018182,0.887239,0.470701,0.876705,0.099141,0.745699,-1.081829,-0.751775,27.133423,31.388184,-17.144043,,,,,,
1478503608.22,1.726315,-1.036913,2.624457,0.015189,-2.643455,2.005092,0.502738,0.860838,0.078822,0.520760,-0.900251,-0.660807,27.432190,31.388916,-17.741821,,,,,,
1478503608.24,1.641630,-0.985869,2.606400,0.112704,-3.703251,2.343647,0.550754,0.833752,0.039077,0.370755,-0.659329,-0.363189,28.177307,30.190002,-18.710571,,,,,,
1478503608.26,1.556117,-0.940522,2.592390,0.481749,-3.585062,2.167727,0.589303,0.807866,-0.008651,0.266745,-0.515645,-0.034913,28.170654,28.842468,-20.359985,,,,,,
1478503608.28,1.479685,-0.899601,2.570824,0.942743,-2.540030,1.946189,0.619343,0.783079,-0.056586,0.229366,-0.445508,0.192130,28.170654,28.842468,-20.359985,,,,,,
1478503608.30,1.423234,-0.859405,2.540537,1.354000,-1.144253,1.867551,0.645793,0.757454,-0.095993,0.288533,-0.352852,0.267578,27.406616,26.148254,-23.964233,,,,,,
1478503608.32,1.389722,-0.819075,2.505614,1.554825,0.040689,1.761465,0.671733,0.730514,-0.122980,0.357946,-0.207550,0.225138,27.924927,24.800598,-25.684814,,,,,,
1478503608.34,1.374467,-0.780260,2.469352,1.649785,0.778418,1.639511,0.697077,0.703464,-0.138643,0.431295,-0.099948,0.106172,28.368896,23.076721,-26.580566,,,,,,
1478503608.36,1.369313,-0.741767,2.433590,1.649470,1.056900,1.675279,0.722361,0.675592,-0.147546,0.491536,-0.060052,-0.008704,30.012634,21.201965,-27.317383,,,,,,
1478503608.38,1.369210,-0.699761,2.402274,1.536835,0.995141,1.935556,0.749505,0.644035,-0.153171,0.508368,-0.022666,-0.073483,30.012634,21.201965,-27.317383,,,,,,
1478503608.40,1.368473,-0.650963,2.376541,1.432245,0.584252,2.417825,0.779274,0.605953,-0.159853,0.529136,-0.040401,-0.138380,31.804016,17.525635,-27.002197,,,,,,
1478503608.42,1.362823,-0.592667,2.359528,1.177951,-0.004741,2.889962,0.811581,0.558575,-0.171263,0.517704,0.081272,-0.138200,33.223328,15.500427,-27.365479,,,,,,
1478503608.44,1.351222,-0.528017,2.351915,0.882610,-0.641255,3.255496,0.843068,0.503821,-0.188149,0.527781,0.125665,-0.122398,33.966309,12.574829,-27.208374,,,,,,
1478503608.46,1.333508,-0.457836,2.355109,0.542320,-1.105321,3.580069,0.871876,0.442008,-0.210859,0.455974,0.224389,-0.051455,35.082581,10.101135,-28.473877,,,,,,
1478503608.48,1.314393,-0.385141,2.365440,0.394360,-1.172022,3.694324,0.896449,0.375689,-0.235026,0.379278,0.360517,0.045695,35.082581,10.101135,-28.473877,,,,,,
1478503608.50,1.296428,-0.312453,2.377190,0.464325,-1.059528,3.648725,0.915990,0.307394,-0.257820,0.327601,0.473231,0.099846,34.765991,4.628479,-29.898315,,,,,,
1478503608.52,1.280231,-0.240968,2.386549,0.638253,-0.880216,3.533378,0.930401,0.238643,-0.278216,0.261021,0.542455,0.147098,34.533386,2.229858,-30.723999,,,,,,
1478503608.54,1.265980,-0.171659,2.393135,0.738919,-0.725026,3.365504,0.939882,0.170817,-0.295707,0.180280,0.586629,0.183234,34.599487,-0.618896,-31.621948,,,,,,
1478503608.56,1.254507,-0.105989,2.399255,0.699257,-0.550181,3.161700,0.945063,0.105791,-0.309297,0.048712,0.599822,0.233171,34.291138,-3.317444,-32.447998,,,,,,
1478503608.58,1.246049,-0.044750,2.405750,0.636141,-0.395444,2.949283,0.946783,0.044735,-0.318750,-0.023992,0.630070,0.249795,34.291138,-3.317444,-32.447998,,,,,,
1478503608.60,1.240027,0.011826,2.412575,0.565653,-0.264026,2.710248,0.945727,-0.011826,-0.324748,-0.081225,0.692383,0.257289,33.452637,-8.341370,-32.901855,,,,,,
1478503608.62,1.236010,0.062146,2.419059,0.495789,-0.138805,2.367969,0.942657,-0.062106,-0.327933,-0.152359,0.742800,0.274177,32.473328,-10.291321,-32.608154,,,,,,
1478503608.64,1.234981,0.105008,2.423530,0.507588,0.044764,1.946213,0.938941,-0.104815,-0.327724,-0.227256,0.741183,0.301188,32.392639,-12.466064,-32.757568,,,,,,
1478503608.66,1.239849,0.140057,2.424418,0.550777,0.388748,1.535030,0.936474,-0.139600,-0.321757,-0.273709,0.750455,0.318781,32.313904,-13.966003,-32.757324,,,,,,
1478503608.68,1.252614,0.168107,2.422002,0.568299,0.757215,1.153475,0.936416,-0.167317,-0.308430,-0.295486,0.788120,0.306828,32.313904,-13.966003,-32.757324,,,,,,
1478503608.70,1.272700,0.188092,2.417140,0.501880,1.086718,0.715099,0.939038,-0.186985,-0.288521,-0.284009,0.878819,0.281014,32.234558,-16.592651,-31.631714,,,,,,
1478503608.72,1.298385,0.197621,2.411440,0.340999,1.310417,0.161399,0.944379,-0.196337,-0.263818,-0.250287,0.997882,0.230004,32.308655,-17.418640,-31.030762,,,,,,
1478503608.74,1.327464,0.193298,2.405904,0.128785,1.462306,-0.571309,0.952465,-0.192096,-0.236451,-0.223950,1.090809,0.174149,33.133118,-18.094849,-30.499268,,,,,,
1478503608.76,1.357969,0.171121,2.400620,-0.053846,1.478383,-1.511225,0.963162,-0.170287,-0.208139,-0.244259,1.064986,0.103296,35.163818,-17.574219,-28.234253,,,,,,
1478503608.78,1.387586,0.129630,2.393108,0.004064,1.409715,-2.463529,0.975014,-0.129268,-0.180658,-0.328484,0.812022,0.049478,35.163818,-17.574219,-28.234253,,,,,,
1478503608.80,1.416612,0.074314,2.380083,0.314256,1.392676,-3.014273,0.985410,-0.074246,-0.153150,-0.387113,0.457867,0.043378,36.519592,-15.926086,-27.474976,,,,,,
1478503608.82,1.444701,0.017430,2.359812,0.791506,1.350467,-2.865750,0.991910,-0.017429,-0.125742,-0.311749,0.189121,0.073526,37.950195,-14.503357,-26.415039,,,,,,
1478503608.84,1.471280,-0.029588,2.334535,1.058246,1.359134,-2.244759,0.994617,0.029583,-0.099309,-0.248615,0.084171,0.114492,39.307190,-12.480469,-25.430908,,,,,,
1478503608.86,1.497356,-0.066448,2.312815,0.792425,1.348612,-1.820404,0.995104,0.066400,-0.073212,-0.204271,0.186637,0.107926,42.017822,-9.859924,-23.386719,,,,,,
1478503608.88,1.522145,-0.100245,2.301972,0.209662,1.245039,-1.702096,0.993802,0.100077,-0.048388,-0.129743,0.336599,0.061511,42.017822,-9.859924,-23.386719,,,,,,
1478503608.90,1.543918,-0.134061,2.303916,-0.375061,0.964152,-1.710203,0.990669,0.133659,-0.026634,-0.028298,0.458473,-0.034309,42.622314,-8.961914,-22.257690,,,,,,
1478503608.92,1.560158,-0.169040,2.317583,-0.903481,0.543904,-1.771015,0.985691,0.168236,-0.010486,0.050121,0.529045,-0.126095,43.377625,-7.388306,-21.577759,,,,,,
1478503608.94,1.569101,-0.204778,2.342190,-1.419658,-0.003987,-1.816662,0.979105,0.203350,-0.001660,0.093100,0.564472,-0.192035,43.982544,-5.964600,-20.899048,,,,,,
1478503608.96,1.568590,-0.242759,2.377720,-1.944062,-0.676033,-1.979259,0.970676,0.240381,-0.002142,0.086209,0.535925,-0.241099,44.292419,-1.764404,-21.198730,,,,,,
1478503608.98,1.559393,-0.285196,2.423667,-2.405013,-1.288637,-2.204404,0.959544,0.281346,-0.010942,0.013005,0.434917,-0.258375,44.292419,-1.764404,-21.198730,,,,,,
1478503609.00,1.543922,-0.331846,2.475681,-2.575049,-1.713107,-2.337755,0.945101,0.325789,-0.025405,-0.049563,0.284731,-0.235108,43.323181,0.711487,-21.432251,,,,,,
1478503609.02,1.525620,-0.379958,2.526731,-2.408360,-1.834885,-2.315364,0.927733,0.370882,-0.041940,-0.056868,0.137022,-0.148306,42.353577,3.713562,-22.490967,,,,,,
1478503609.04,1.508192,-0.426432,2.570954,-1.999617,-1.663183,-2.165413,0.908664,0.413625,-0.056961,-0.028994,0.083811,-0.082627,41.158569,6.565735,-23.551392,,,,,,
1478503609.06,1.494543,-0.470613,2.603654,-1.401843,-1.220825,-2.109577,0.888700,0.453433,-0.067898,-0.000410,0.088727,-0.021091,38.695312,12.118530,-24.622559,,,,,,
1478503609.08,1.486060,-0.514990,2.623283,-0.859331,-0.692981,-2.197882,0.867175,0.492526,-0.073657,0.046765,0.106611,0.003284,38.695312,12.118530,-24.622559,,,,,,
1478503609.10,1.482706,-0.561047,2.634052,-0.595295,-0.327919,-2.308759,0.843416,0.532073,-0.074489,0.111891,0.086549,-0.019108,36.747620,14.071533,-25.913330,,,,,,
1478503609.12,1.483939,-0.608859,2.644381,-0.714740,-0.200879,-2.387317,0.817209,0.571932,-0.071159,0.173117,0.050749,-0.068367,36.001160,15.797485,-26.294800,,,,,,
1478503609.14,1.489443,-0.658049,2.661755,-1.028067,-0.279557,-2.411273,0.788570,0.611574,-0.064294,0.206532,0.000074,-0.129477,35.256714,17.897583,-26.151367,,,,,,
1478503609.16,1.497549,-0.707572,2.687129,-1.258937,-0.484009,-2.403715,0.757905,0.649991,-0.055614,0.259765,-0.024991,-0.200032,32.342041,21.873779,-25.950195,,,,,,
1478503609.18,1.505614,-0.756505,2.718109,-1.345304,-0.732581,-2.360166,0.725695,0.686384,-0.047369,0.318601,-0.065916,-0.238748,32.342041,21.873779,-25.950195,,,,,,
1478503609.20,1.510956,-0.804849,2.751148,-1.316400,-1.009080,-2.367038,0.691979,0.720726,-0.041458,0.388420,-0.086998,-0.255036,30.847412,24.049561,-25.962524,,,,,,
1478503609.22,1.513340,-0.853799,2.784554,-1.250630,-1.152754,-2.402651,0.656040,0.753782,-0.037735,0.451748,-0.139128,-0.214218,29.427673,25.774597,-25.524170,,,,,,
1478503609.24,1.516481,-0.901749,2.817061,-1.120871,-1.038528,-2.305242,0.619324,0.784413,-0.033672,0.558731,-0.188680,-0.170323,24.637390,29.151001,-24.886597,,,,,,
1478503609.26,1.521234,-0.946277,2.845146,-0.859107,-0.794118,-2.120017,0.583990,0.811244,-0.028967,0.671671,-0.250316,-0.180978,23.066956,30.876526,-24.749146,,,,,,
1478503609.28,1.522371,-0.985185,2.864221,-0.511517,-0.733099,-1.792463,0.552061,0.833375,-0.026755,0.823733,-0.286042,-0.278238,23.066956,30.876526,-24.749146,,,,,,
1478503609.30,1.515858,-1.016096,2.873854,-0.243419,-0.750604,-1.403486,0.525894,0.850058,-0.028921,1.009430,-0.248862,-0.295802,21.195068,32.002319,-24.613770,,,,,,
1478503609.32,1.497999,-1.041234,2.872593,0.077544,-0.894481,-1.191796,0.503817,0.863028,-0.036741,1.134885,-0.293021,-0.277101,19.697327,32.978271,-24.700562,,,,,,
1478503609.34,1.468105,-1.059653,2.858510,0.371053,-0.874939,-0.756962,0.486598,0.872186,-0.050146,1.126363,-0.498468,-0.189478,16.174011,33.805237,-24.877441,,,,,,
1478503609.36,1.435778,-1.063370,2.841480,0.344124,-0.904059,0.126469,0.481507,0.873998,-0.065410,0.982620,-0.757986,-0.120060,15.497437,33.881897,-25.782593,,,,,,
1478503609.38,1.416634,-1.047244,2.843795,-0.148421,-1.196756,1.215320,0.494030,0.866049,-0.076770,0.746586,-0.877798,-0.090329,15.497437,33.881897,-25.782593,,,,,,
1478503609.40,1.412169,-1.014543,2.873433,-0.685657,-1.692914,2.011497,0.521379,0.849239,-0.083406,0.537703,-0.825741,-0.075469,15.871155,33.657349,-26.154663,,,,,,
1478503609.42,1.409171,-0.972977,2.916418,-0.866018,-2.104355,2.344321,0.555506,0.826565,-0.090574,0.395315,-0.690564,-0.030657,16.170044,33.432495,-26.377319,,,,,,
1478503609.44,1.398380,-0.928730,2.955720,-0.674577,-2.114623,2.389033,0.589972,0.800860,-0.102741,0.264306,-0.597369,0.067722,17.444519,33.131714,-26.292603,,,,,,
1478503609.46,1.384438,-0.884288,2.983774,-0.301624,-1.592652,2.325354,0.622865,0.773464,-0.117439,0.224852,-0.441021,0.185050,18.192383,32.531799,-26.586670,,,,,,
1478503609.48,1.371671,-0.840569,2.996709,0.207875,-0.850916,2.184381,0.653858,0.745023,-0.131948,0.274288,-0.308912,0.199193,18.192383,32.531799,-26.586670,,,,,,
1478503609.50,1.361469,-0.797583,2.992594,0.812431,-0.071249,2.032128,0.683192,0.715670,-0.145137,0.371450,-0.174166,0.187297,19.465698,32.081604,-26.876831,,,,,,
1478503609.52,1.354291,-0.754204,2.970509,1.494337,0.708115,1.939949,0.711802,0.684709,-0.156563,0.456960,-0.080964,0.176613,20.363892,31.631653,-27.244873,,,,,,
1478503609.54,1.352605,-0.708132,2.932890,2.083546,1.443927,1.996356,0.741569,0.650416,-0.164422,0.509835,-0.031245,0.160653,23.504395,28.631653,-28.269897,,,,,,
1478503609.56,1.359314,-0.657218,2.886697,2.415410,1.985737,2.211319,0.774057,0.610916,-0.166185,0.561652,0.022125,0.124879,25.223938,26.831421,-28.706055,,,,,,
1478503609.58,1.374156,-0.600558,2.840314,2.381952,2.140486,2.537701,0.809121,0.565103,-0.161189,0.577552,0.093833,0.074031,25.223938,26.831421,-28.706055,,,,,,
1478503609.60,1.393251,-0.538413,2.802379,1.976998,1.865772,2.916985,0.845028,0.512774,-0.151627,0.555043,0.179395,0.010331,27.692810,24.355225,-28.686279,,,,,,
1478503609.62,1.412631,-0.471900,2.778766,1.328679,1.364425,3.245245,0.879588,0.454580,-0.140292,0.496694,0.280619,-0.009427,30.684753,21.429199,-29.037354,,,,,,
1478503609.64,1.429500,-0.402162,2.770119,0.666847,0.833477,3.503219,0.911046,0.391409,-0.129591,0.427790,0.387049,-0.010591,35.098206,15.800171,-27.801514,,,,,,
1478503609.66,1.441109,-0.330519,2.774083,0.099644,0.333275,3.637119,0.937931,0.324534,-0.122324,0.353436,0.495946,-0.001562,36.517578,13.248840,-27.414551,,,,,,
1478503609.68,1.446031,-0.259248,2.786697,-0.281986,-0.071580,3.620736,0.959070,0.256354,-0.120284,0.267249,0.576699,0.022612,36.517578,13.248840,-27.414551,,,,,,
1478503609.70,1.445770,-0.189984,2.804543,-0.497319,-0.274844,3.529380,0.974342,0.188843,-0.122457,0.164437,0.617141,0.061422,38.087830,10.922302,-26.876587,,,,,,
1478503609.72,1.442543,-0.123433,2.823722,-0.530678,-0.317013,3.388747,0.984241,0.123120,-0.126929,0.052609,0.625980,0.095053,39.131287,8.221619,-26.792480,,,,,,
1478503609.74,1.438997,-0.059944,2.842670,-0.516627,-0.228546,3.235401,0.989546,0.059908,-0.131182,-0.052992,0.623456,0.112933,39.794556,3.796753,-27.085205,,,,,,
1478503609.76,1.436692,-0.001214,2.860552,-0.469327,-0.110388,3.063029,0.991021,0.001214,-0.133703,-0.142144,0.633445,0.115880,40.089050,1.546448,-27.006958,,,,,,
1478503609.78,1.435571,0.055153,2.876654,-0.388594,0.013091,2.828030,0.989364,-0.055126,-0.134609,-0.214431,0.665935,0.108776,40.089050,1.546448,-27.006958,,,,,,
1478503609.80,1.435976,0.106080,2.890262,-0.304181,0.103771,2.497297,0.985355,-0.105881,-0.133657,-0.248691,0.730942,0.101934,39.859741,-0.253540,-26.932861,,,,,,
1478503609.82,1.437194,0.149394,2.901710,-0.251307,0.149001,2.073848,0.980049,-0.148839,-0.131721,-0.297447,0.772557,0.096046,40.601074,-3.778992,-26.850464,,,,,,
1478503609.84,1.438855,0.184104,2.910910,-0.217560,0.162445,1.624794,0.974556,-0.183065,-0.129336,-0.327339,0.787451,0.100543,40.522766,-5.579895,-26.250122,,,,,,
1478503609.86,1.440715,0.210574,2.920217,-0.337561,0.211339,1.250422,0.969649,-0.209021,-0.126850,-0.334944,0.819892,0.101963,40.220947,-6.329712,-26.252075,,,,,,
1478503609.88,1.442735,0.229891,2.933648,-0.675128,0.262992,0.916364,0.965718,-0.227872,-0.124351,-0.272557,0.954877,0.093757,40.220947,-6.329712,-26.252075,,,,,,
1478503609.90,1.442495,0.238670,2.954882,-1.159482,0.207153,0.315539,0.963667,-0.236411,-0.124323,-0.208464,1.205206,0.044534,39.843994,-7.154663,-26.179565,,,,,,
1478503609.92,1.438948,0.229979,2.983229,-1.572527,0.116619,-0.635061,0.965220,-0.227957,-0.128006,-0.241771,1.221869,0.015533,40.669006,-7.155090,-26.173340,,,,,,
1478503609.94,1.433513,0.199338,3.013018,-1.650116,0.011460,-1.745600,0.970976,-0.198021,-0.134142,-0.331312,0.982704,0.007159,40.146912,-6.180115,-25.952637,,,,,,
1478503609.96,1.428521,0.149499,3.036235,-1.373337,-0.068703,-2.610460,0.978854,-0.148943,-0.140214,-0.387698,0.620455,0.039247,40.676819,-4.230408,-25.949585,,,,,,
1478503609.98,1.425870,0.091886,3.051369,-1.032460,-0.011097,-2.744930,0.985342,-0.091757,-0.143810,-0.371893,0.276327,0.087673,40.676819,-4.230408,-25.949585,,,,,,
1478503610.00,1.426518,0.041788,3.060970,-0.752100,0.128401,-2.184740,0.988746,-0.041776,-0.143653,-0.326698,0.119946,0.148033,40.233398,-1.229492,-26.404541,,,,,,
1478503610.02,1.430872,0.003786,3.070773,-0.805004,0.267965,-1.652993,0.990219,-0.003786,-0.139467,-0.261994,0.234911,0.133928,40.620056,3.269958,-26.178955,,,,,,
1478503610.04,1.437497,-0.028760,3.084410,-0.952668,0.369157,-1.492154,0.990719,0.028756,-0.132850,-0.186749,0.395301,0.121680,39.874329,4.920227,-26.110229,,,,,,
1478503610.06,1.447111,-0.061588,3.099612,-0.968599,0.496975,-1.598886,0.990479,0.061549,-0.123136,-0.076844,0.565923,0.082578,40.179443,6.794800,-25.883911,,,,,,
1478503610.08,1.460074,-0.098302,3.114359,-0.940975,0.649347,-1.842737,0.989078,0.098143,-0.109962,0.024700,0.651506,0.048378,40.179443,6.794800,-25.883911,,,,,,
1478503610.10,1.476067,-0.139510,3.128900,-0.939184,0.746498,-2.074935,0.985844,0.139058,-0.093669,0.096202,0.683116,-0.011174,39.660156,8.594116,-25.288818,,,,,,
1478503610.12,1.492179,-0.185766,-3.138736,-1.000642,0.609021,-2.375253,0.979760,0.184699,-0.077185,0.117042,0.657067,-0.093180,39.821167,12.042236,-24.089111,,,,,,
1478503610.14,1.504241,-0.238297,-3.120454,-1.144772,0.283639,-2.677867,0.969590,0.236048,-0.064627,0.041610,0.515631,-0.135751,39.528015,14.291504,-23.492432,,,,,,
1478503610.16,1.510831,-0.295055,-3.099026,-1.242087,-0.096379,-2.831111,0.955066,0.290793,-0.057340,0.000515,0.346277,-0.152316,38.485901,16.840881,-22.751587,,,,,,
1478503610.18,1.511571,-0.352818,-3.077231,-1.177184,-0.420852,-2.829196,0.936758,0.345543,-0.055545,0.002390,0.215263,-0.122403,38.485901,16.840881,-22.751587,,,,,,
1478503610.20,1.509036,-0.409006,-3.057706,-1.017238,-0.500223,-2.727068,0.915767,0.397697,-0.056630,0.037510,0.127922,-0.064250,37.517578,19.165710,-22.310059,,,,,,
1478503610.22,1.507128,-0.462903,-3.041544,-0.841725,-0.393595,-2.625139,0.892947,0.446547,-0.056929,0.102048,0.092668,-0.023256,34.604736,23.891907,-22.109253,,,,,,
1478503610.24,1.506660,-0.515053,-3.028405,-0.710813,-0.311210,-2.559611,0.868477,0.492581,-0.055777,0.160011,0.073108,-0.013955,32.809448,25.767822,-22.123657,,,,,,
1478503610.26,1.507475,-0.565763,-3.015303,-0.764528,-0.299481,-2.481150,0.842488,0.536060,-0.053419,0.209224,0.051876,-0.024844,30.864380,27.568420,-21.914062,,,,,,
1478503610.28,1.511293,-0.615161,-2.996942,-1.041055,-0.345491,-2.409149,0.815235,0.577090,-0.048567,0.250225,0.033383,-0.052462,30.864380,27.568420,-21.914062,,,,,,
1478503610.30,1.520242,-0.663221,-2.968037,-1.450104,-0.479345,-2.318582,0.787007,0.615658,-0.039821,0.292400,0.006580,-0.109883,27.499268,31.094238,-21.341064,,,,,,
1478503610.32,1.533130,-0.710088,-2.927703,-1.797538,-0.747271,-2.275374,0.757767,0.651901,-0.028556,0.320801,-0.020004,-0.189111,25.854797,32.819214,-20.754395,,,,,,
1478503610.34,1.547418,-0.756235,-2.877651,-2.002324,-1.105965,-2.266373,0.727226,0.686187,-0.017004,0.339455,-0.037872,-0.266275,23.760986,34.468750,-19.720825,,,,,,
1478503610.36,1.560702,-0.802181,-2.821907,-2.028822,-1.415211,-2.290531,0.695105,0.718874,-0.007017,0.374337,-0.078935,-0.276659,21.892029,36.118225,-18.760742,,,,,,
1478503610.38,1.571910,-0.847984,-2.764830,-1.912230,-1.596312,-2.297066,0.661496,0.749948,0.000737,0.445682,-0.120798,-0.234211,21.892029,36.118225,-18.760742,,,,,,
1478503610.40,1.583846,-0.893320,-2.708059,-1.777812,-1.548900,-2.300657,0.626775,0.779157,0.008179,0.544780,-0.121015,-0.182603,16.877502,38.742737,-16.774536,,,,,,
1478503610.42,1.600539,-0.939303,-2.651161,-1.649830,-1.352485,-2.384349,0.590089,0.807147,0.017556,0.719359,-0.095538,-0.170922,14.633423,40.242249,-15.742188,,,,,,
1478503610.44,1.626164,-0.985965,-2.592977,-1.505316,-0.941424,-2.436340,0.551213,0.833805,0.030551,0.977672,-0.034977,-0.171573,12.162292,41.142334,-14.936157,,,,,,
1478503610.46,1.658799,-1.033817,-2.540172,-1.038215,-0.387782,-2.546389,0.509563,0.859258,0.044959,1.193028,-0.121099,-0.189139,9.617249,42.191833,-13.755737,,,,,,
1478503610.48,1.689151,-1.081932,-2.504324,-0.391606,0.151020,-2.409529,0.466338,0.882867,0.055453,1.277009,-0.421227,-0.203676,9.617249,42.191833,-13.755737,,,,,,
1478503610.50,1.709259,-1.120920,-2.489027,0.018723,0.355579,-1.635857,0.430693,0.900501,0.060019,1.138933,-0.853549,-0.246207,4.598328,43.166626,-11.918945,,,,,,
1478503610.52,1.721478,-1.134381,-2.478659,-0.300403,-0.076721,-0.077461,0.417904,0.906273,0.063452,0.874729,-1.133628,-0.308965,2.873230,43.242676,-12.081909,,,,,,
1478503610.54,1.730416,-1.114442,-2.452276,-0.981708,-1.224293,1.417228,0.435076,0.897665,0.070043,0.633649,-1.091223,-0.384633,2.498108,43.242981,-12.159668,,,,,,
1478503610.56,1.727811,-1.072567,-2.411260,-1.374834,-2.385243,2.135372,0.471993,0.878430,0.074725,0.462822,-0.858655,-0.333453,3.249512,43.391846,-11.629150,,,,,,
1478503610.58,1.705313,-1.025476,-2.371115,-1.266795,-3.101160,2.175378,0.514006,0.854961,0.069562,0.296907,-0.682613,-0.226072,3.249512,43.391846,-11.629150,,,,,,
1478503610.60,1.665325,-0.982381,-2.344404,-0.747922,-3.077029,2.007872,0.552565,0.831821,0.052389,0.236329,-0.576969,-0.063544,5.504822,43.536987,-9.137207,,,,,,
1478503610.62,1.617899,-0.943612,-2.337765,-0.061737,-2.340157,1.889168,0.586216,0.809683,0.027633,0.233486,-0.470709,0.078568,7.381653,43.835205,-8.598267,,,,,,
1478503610.64,1.573110,-0.907945,-2.353081,0.719791,-1.198486,1.741631,0.615365,0.788241,0.001424,0.323798,-0.321490,0.150996,8.956543,43.533997,-8.286377,,,,,,
1478503610.66,1.535358,-0.875581,-2.390171,1.485951,-0.000302,1.527924,0.640149,0.767916,-0.022696,0.453342,-0.175615,0.164709,11.800598,42.710449,-10.214722,,,,,,
1478503610.68,1.506298,-0.845064,-2.445835,2.117716,1.016352,1.409559,0.662304,0.748013,-0.042777,0.580601,-0.113629,0.139258,11.800598,42.710449,-10.214722,,,,,,
1478503610.70,1.486850,-0.812439,-2.509455,2.312433,1.539567,1.569508,0.685308,0.725967,-0.057665,0.663798,-0.129440,0.047792,12.621033,41.962036,-11.558105,,,,,,
1478503610.72,1.477869,-0.770515,-2.565837,2.046470,1.522331,2.183353,0.714456,0.696505,-0.066584,0.700797,-0.156054,-0.043142,14.341431,41.062927,-12.744873,,,,,,
1478503610.74,1.474939,-0.714042,-2.605915,1.540933,0.975017,2.992557,0.752252,0.654894,-0.072331,0.676307,-0.142366,-0.126583,16.734924,39.638977,-14.226196,,,,,,
1478503610.76,1.470869,-0.644675,-2.627994,1.000858,0.224068,3.588981,0.795308,0.600939,-0.079738,0.616481,0.007490,-0.156712,19.505005,38.739624,-15.554932,,,,,,
1478503610.78,1.462453,-0.568727,-2.636581,0.620069,-0.377943,3.839027,0.837647,0.538560,-0.091110,0.557861,0.213317,-0.134567,19.505005,38.739624,-15.554932,,,,,,
1478503610.80,1.449769,-0.490647,-2.637518,0.438286,-0.729401,3.921594,0.875576,0.471197,-0.106489,0.454227,0.419825,-0.057070,25.193787,35.063232,-16.560425,,,,,,
1478503610.82,1.433972,-0.412825,-2.636145,0.458468,-0.857996,3.859095,0.907430,0.401199,-0.124939,0.349039,0.512070,-0.001129,27.662781,32.662109,-16.615601,,,,,,
