timestamp(unix),attitude_roll(radians),attitude_pitch(radians),attitude_yaw(radians),rotation_rate_x(radians/s),rotation_rate_y(radians/s),rotation_rate_z(radians/s),gravity_x(G),gravity_y(G),gravity_z(G),user_acc_x(G),user_acc_y(G),user_acc_z(G),magnetic_field_x(microteslas),magnetic_field_y(microteslas),magnetic_field_z(microteslas),latitude(degree),longitude(degree),altitude(meter),speed(m/s),course(degree),timestamp(unix)
1478503652.50,0.333717,-0.222178,1.700470,0.110472,0.079652,0.028780,0.319506,0.220354,-0.921607,-0.028368,-0.005083,0.018577,6.430298,-12.368652,-39.027466,,,,,,
,,,,,,,,,,,,,,,,37.391882,-122.011694,9.716614,0.380000,183.515625,1478503639.00
,,,,,,,,,,,,,,,,37.391882,-122.011694,9.716614,0.380000,183.515625,1478503631.00
1478503652.52,0.333925,-0.221185,1.699994,0.042334,0.012971,-0.015138,0.319769,0.219386,-0.921747,-0.022772,0.014562,0.000101,6.430298,-12.368652,-39.027466,,,,,,
,,,,,,,,,,,,,,,,37.391882,-122.011694,9.716614,0.380000,183.515625,1478503639.00
1478503652.54,0.333174,-0.220886,1.699094,0.026200,-0.048583,-0.043683,0.319098,0.219094,-0.922049,-0.012030,-0.000360,0.003576,6.505432,-12.519104,-38.801758,,,,,,
1478503652.56,0.331165,-0.220495,1.698406,0.016291,-0.083692,-0.011749,0.317273,0.218713,-0.922769,-0.010572,-0.020150,0.004754,6.355530,-12.819702,-38.352661,,,,,,
1478503652.58,0.329858,-0.220066,1.698489,0.027914,-0.051893,0.021266,0.316097,0.218294,-0.923272,-0.004390,-0.020158,0.012597,6.279541,-12.743713,-38.953247,,,,,,
,,,,,,,,,,,,,,,,37.391836,-122.011531,9.716614,-1.000000,-1.000000,1478503652.58
1478503652.60,0.329775,-0.219059,1.698631,0.023978,0.028930,0.014734,0.316091,0.217311,-0.923505,-0.015035,-0.010341,0.023283,6.357056,-12.069458,-38.503052,,,,,,
,,,,,,,,,,,,,,,,37.391852,-122.011367,9.716614,-1.000000,-1.000000,1478503652.59
1478503652.62,0.330849,-0.218889,1.698713,-0.003554,0.060929,0.006018,0.317095,0.217145,-0.923200,-0.006411,-0.010999,0.014188,6.357056,-12.069458,-38.503052,,,,,,
1478503652.64,0.332072,-0.218486,1.699138,-0.033520,0.041871,0.017592,0.318253,0.216752,-0.922894,0.004654,-0.014253,-0.004657,6.506714,-12.294617,-38.426880,,,,,,
1478503652.66,0.333435,-0.218601,1.699804,-0.032387,0.063129,0.018631,0.319502,0.216864,-0.922436,0.002306,-0.008170,0.003369,6.581726,-12.445007,-38.201172,,,,,,
1478503652.68,0.335353,-0.218589,1.700293,-0.014148,0.096032,0.016553,0.321271,0.216853,-0.921824,-0.000989,-0.007701,0.003184,6.206604,-12.068970,-38.729248,,,,,,
1478503652.70,0.337681,-0.218263,1.700698,-0.002305,0.133202,0.017626,0.323439,0.216535,-0.921140,-0.005751,-0.007413,0.002119,6.655884,-12.369202,-38.725708,,,,,,
,,,,,,,,,,,,,,,,37.391868,-122.011205,9.716614,-1.000000,-1.000000,1478503652.71
,,,,,,,,,,,,,,,,37.391884,-122.011048,9.716614,-1.000000,-1.000000,1478503652.71
1478503652.72,0.340651,-0.218259,1.700491,0.021476,0.157650,-0.023796,0.326175,0.216530,-0.920176,-0.006427,0.004509,0.005702,6.655884,-12.369202,-38.725708,,,,,,
1478503652.74,0.343359,-0.218698,1.698956,0.032467,0.131158,-0.092888,0.328633,0.216959,-0.919200,0.010417,0.013663,-0.005742,6.581299,-12.369568,-38.501221,,,,,,
1478503652.76,0.345877,-0.218083,1.696912,0.052754,0.133232,-0.099166,0.330992,0.216359,-0.918495,0.010957,-0.015828,0.012657,6.805054,-12.594116,-38.874512,,,,,,
1478503652.78,0.350650,-0.216767,1.695124,0.051840,0.182141,-0.096050,0.335470,0.215073,-0.917172,0.015711,-0.018449,0.046520,7.106140,-12.444824,-38.497314,,,,,,
1478503652.80,0.355025,-0.216580,1.692699,0.054489,0.293798,-0.116431,0.339493,0.214891,-0.915733,0.018356,-0.011705,0.072318,6.880310,-12.744568,-38.573730,,,,,,
1478503652.82,0.363523,-0.216835,1.689954,0.057518,0.486285,-0.152900,0.347243,0.215140,-0.912763,0.023912,0.001199,0.102918,6.880310,-12.744568,-38.573730,,,,,,
1478503652.84,0.375582,-0.216985,1.686036,0.066163,0.743619,-0.199018,0.358212,0.215286,-0.908480,0.025012,-0.001816,0.131975,6.881592,-12.595276,-38.123901,,,,,,
1478503652.87,0.392235,-0.217833,1.681483,0.027771,0.967073,-0.237891,0.373222,0.216115,-0.902220,0.035516,-0.006886,0.140943,7.854370,-12.969849,-38.716431,,,,,,
1478503652.89,0.412701,-0.219605,1.676678,-0.008816,1.129889,-0.258565,0.391453,0.217844,-0.894041,0.039196,-0.002176,0.154798,9.354797,-12.971008,-38.480103,,,,,,
1478503652.91,0.435920,-0.223288,1.672053,-0.119841,1.296170,-0.298815,0.411762,0.221437,-0.883978,0.026623,0.006667,0.226980,10.331299,-12.897400,-37.872925,,,,,,
1478503652.93,0.462837,-0.229219,1.668111,-0.226686,1.477284,-0.317774,0.434810,0.227217,-0.871386,0.046223,0.016206,0.261873,10.331299,-12.897400,-37.872925,,,,,,
1478503652.95,0.495998,-0.237621,1.663564,-0.291510,1.896606,-0.449702,0.462537,0.235391,-0.854781,0.005954,0.061667,0.339980,11.082031,-12.597778,-37.867432,,,,,,
1478503652.97,0.537006,-0.248874,1.656099,-0.319457,2.311746,-0.688935,0.495804,0.246313,-0.832771,-0.036606,0.090403,0.357597,12.657349,-12.523682,-37.780518,,,,,,
1478503652.99,0.586433,-0.263455,1.644541,-0.321098,2.842778,-0.981425,0.534299,0.260418,-0.804181,-0.069013,0.134892,0.395245,15.886047,-11.926819,-36.706787,,,,,,
1478503653.01,0.647124,-0.281042,1.628577,-0.223319,3.555204,-1.227872,0.579241,0.277357,-0.766520,-0.068514,0.135394,0.444392,17.988831,-11.479248,-35.866089,,,,,,
1478503653.03,0.722843,-0.299063,1.608177,0.019481,4.448817,-1.395024,0.632156,0.294625,-0.716641,-0.053894,0.130317,0.452069,17.988831,-11.479248,-35.866089,,,,,,
1478503653.05,0.813914,-0.317592,1.582742,0.264465,5.272340,-1.609960,0.690624,0.312280,-0.652318,-0.026577,0.155020,0.418050,20.916809,-10.881836,-35.094482,,,,,,
1478503653.07,0.918000,-0.340615,1.551722,0.415353,5.990161,-1.998766,0.748750,0.334066,-0.572514,0.015669,0.194056,0.372029,28.426880,-10.216858,-30.913452,,,,,,
1478503653.09,1.028527,-0.374365,1.519026,0.225833,6.152086,-2.436498,0.797216,0.365682,-0.480337,0.056422,0.205196,0.224645,32.035828,-9.323669,-27.586914,,,,,,
1478503653.11,1.139321,-0.420871,1.492145,-0.115373,6.077236,-2.770383,0.829081,0.408556,-0.381716,0.111486,0.207442,0.185686,35.119690,-8.355042,-24.339233,,,,,,
1478503653.13,1.250718,-0.475779,1.473280,-0.224479,5.955626,-2.937924,0.843788,0.458031,-0.279695,0.177971,0.224342,0.115999,35.119690,-8.355042,-24.339233,,,,,,
1478503653.15,1.358100,-0.533394,1.457063,0.057309,5.686919,-3.005159,0.841682,0.508459,-0.181772,0.267083,0.223124,0.007837,38.658264,-6.263062,-20.188843,,,,,,
1478503653.17,1.455157,-0.591761,1.437350,0.538615,5.224051,-3.059292,0.824416,0.557824,-0.095762,0.306138,0.226738,-0.099077,43.110291,-2.002563,-11.982544,,,,,,
1478503653.19,1.535334,-0.652338,1.411420,0.994830,4.509382,-3.160018,0.794167,0.607046,-0.028175,0.331550,0.222574,-0.203026,44.024658,0.616150,-8.076904,,,,,,
1478503653.21,1.594385,-0.716336,1.379802,1.344075,3.670671,-3.260079,0.754007,0.656625,0.017790,0.371344,0.199637,-0.247694,44.261902,2.785828,-4.626343,,,,,,
1478503653.23,1.634777,-0.783491,1.345044,1.453995,2.948608,-3.354180,0.707005,0.705757,0.045297,0.420940,0.142723,-0.203942,44.261902,2.785828,-4.626343,,,,,,
1478503653.25,1.659934,-0.852554,1.311218,1.402660,2.260942,-3.366189,0.655450,0.752964,0.058581,0.487373,0.041653,-0.173144,43.972961,5.257385,-2.229736,,,,,,
1478503653.27,1.672765,-0.919258,1.279284,1.292672,1.676169,-3.140230,0.603260,0.795152,0.061728,0.554821,-0.088746,-0.133337,42.943726,10.877869,1.134766,,,,,,
1478503653.29,1.673881,-0.978640,1.247805,1.185902,1.160126,-2.708909,0.555189,0.829739,0.057435,0.607363,-0.188122,-0.102326,40.477661,13.577393,2.239990,,,,,,
1478503653.31,1.665037,-1.027838,1.216220,1.033007,0.754601,-2.165172,0.514379,0.856184,0.048620,0.628734,-0.287565,-0.058614,40.858215,15.827332,2.166748,,,,,,
1478503653.33,1.651099,-1.064926,1.186355,0.837863,0.529871,-1.578299,0.483008,0.874753,0.038870,0.619241,-0.347104,-0.033041,40.858215,15.827332,2.166748,,,,,,
1478503653.35,1.636764,-1.090769,1.159629,0.673417,0.433800,-1.058516,0.460799,0.886982,0.030442,0.574281,-0.384617,-0.026643,39.887329,17.327454,2.383667,,,,,,
1478503653.37,1.622319,-1.106305,1.134213,0.614868,0.408668,-0.568065,0.447373,0.894050,0.023070,0.538726,-0.398200,-0.019103,38.692871,19.427917,2.523682,,,,,,
1478503653.39,1.606184,-1.112633,1.107062,0.628152,0.412110,-0.134746,0.442025,0.896866,0.015649,0.467659,-0.402070,-0.022759,37.869202,20.028442,2.442139,,,,,,
1478503653.41,1.588816,-1.111607,1.079112,0.609019,0.362724,0.171800,0.443149,0.896412,0.007986,0.417172,-0.355641,-0.012137,38.095398,20.553406,2.368652,,,,,,
1478503653.43,1.572168,-1.106224,1.053816,0.536436,0.268091,0.312059,0.448040,0.894013,0.000615,0.388676,-0.289857,-0.000615,38.095398,20.553406,2.368652,,,,,,
1478503653.45,1.557437,-1.100502,1.032698,0.445935,0.181307,0.255275,0.453109,0.891435,-0.006054,0.369920,-0.202699,0.017559,38.094238,20.328857,2.068726,,,,,,
1478503653.47,1.546719,-1.096149,1.015953,0.355993,0.251869,0.197191,0.456892,0.889454,-0.011003,0.385225,-0.154164,0.047044,38.169250,20.253723,2.144409,,,,,,
1478503653.49,1.541565,-1.091426,1.000991,0.368274,0.526008,0.260711,0.461024,0.887285,-0.013480,0.424749,-0.134768,0.072944,38.318848,20.103638,2.145508,,,,,,
1478503653.51,1.540051,-1.084235,0.982610,0.490006,0.868750,0.406695,0.467368,0.883946,-0.014374,0.453195,-0.130742,0.070847,38.093506,19.803406,2.369019,,,,,,
1478503653.53,1.539646,-1.073999,0.958998,0.623116,1.105150,0.547580,0.476381,0.879113,-0.014844,0.480406,-0.122262,0.045652,38.093506,19.803406,2.369019,,,,,,
1478503653.55,1.539777,-1.061142,0.932488,0.672585,1.193003,0.676690,0.487641,0.872913,-0.015131,0.474639,-0.132206,0.027201,38.244080,19.201782,3.420288,,,,,,
1478503653.57,1.541012,-1.044917,0.907863,0.598455,1.091866,0.890401,0.501751,0.864883,-0.014949,0.453373,-0.160644,0.018840,38.843262,18.676147,3.650146,,,,,,
1478503653.59,1.545131,-1.022880,0.889864,0.419964,0.915368,1.226071,0.520738,0.853612,-0.013368,0.420073,-0.193501,0.033967,38.543640,18.150024,4.473145,,,,,,
1478503653.61,1.553142,-0.994350,0.880694,0.185052,0.717822,1.543366,0.544963,0.838405,-0.009622,0.379048,-0.177928,0.047662,38.918030,17.624329,4.851196,,,,,,
1478503653.63,1.563461,-0.961034,0.880011,-0.044011,0.441811,1.733073,0.572657,0.819784,-0.004201,0.333669,-0.126471,0.032659,38.918030,17.624329,4.851196,,,,,,
1478503653.65,1.573483,-0.925510,0.885342,-0.207326,0.201915,1.820894,0.601425,0.798928,0.001616,0.268585,-0.084206,0.027880,39.588684,15.297791,5.607422,,,,,,
1478503653.67,1.581849,-0.888126,0.893958,-0.322611,0.007558,1.919555,0.630829,0.775891,0.006973,0.212418,-0.100048,0.039735,40.186218,13.946777,6.062622,,,,,,
1478503653.69,1.588381,-0.848188,0.904927,-0.419875,-0.149709,2.053387,0.661241,0.750083,0.011629,0.167861,-0.096946,0.042738,41.083313,12.445801,6.445068,,,,,,
1478503653.71,1.592894,-0.805314,0.917596,-0.509751,-0.292150,2.206398,0.692716,0.721048,0.015310,0.125613,-0.072931,0.047129,41.604736,10.795044,6.749878,,,,,,
1478503653.73,1.595673,-0.759833,0.931722,-0.584250,-0.401585,2.304090,0.724727,0.688801,0.018032,0.081502,-0.008838,0.038044,41.604736,10.795044,6.749878,,,,,,
1478503653.75,1.596725,-0.713358,0.946577,-0.627307,-0.481229,2.330587,0.755915,0.654376,0.019604,0.050482,0.062436,0.023242,42.270630,7.119751,6.756714,,,,,,
1478503653.77,1.595932,-0.666668,0.961550,-0.648816,-0.527949,2.336927,0.785639,0.618370,0.019751,0.035696,0.140815,0.025079,42.716248,5.394470,6.760864,,,,,,
1478503653.79,1.594294,-0.620205,0.975964,-0.626233,-0.510968,2.312541,0.813535,0.581202,0.019120,0.004779,0.206137,0.022155,43.536560,3.443970,6.843018,,,,,,
1478503653.81,1.592060,-0.575097,0.989007,-0.574301,-0.448247,2.220120,0.838950,0.543916,0.017842,-0.027030,0.290419,0.017711,44.204712,1.119385,6.324219,,,,,,
1478503653.83,1.590788,-0.532069,1.000485,-0.511436,-0.320695,2.119144,0.861587,0.507318,0.017227,-0.021682,0.408088,0.010605,44.204712,1.119385,6.324219,,,,,,
1478503653.85,1.592012,-0.491510,1.011881,-0.581203,-0.156451,1.953513,0.881423,0.471958,0.018703,0.016114,0.655514,-0.030986,44.193787,-2.629456,5.575928,,,,,,
1478503653.87,1.596120,-0.456960,1.025148,-0.653021,-0.073658,1.559128,0.897110,0.441222,0.022723,0.008850,0.845033,-0.113543,43.964294,-4.279053,5.349976,,,,,,
1478503653.89,1.600030,-0.433242,1.037399,-0.514830,-0.075108,0.924384,0.907222,0.419815,0.026529,-0.035365,0.918594,-0.176935,44.185974,-5.704346,5.502319,,,,,,
1478503653.91,1.600196,-0.423973,1.042592,-0.056487,-0.120981,0.175436,0.911068,0.411385,0.026793,-0.151409,0.765434,-0.183134,44.182922,-6.678955,5.202881,,,,,,
1478503653.93,1.593607,-0.428928,1.035444,0.568107,-0.238837,-0.453265,0.909175,0.415896,0.020743,-0.300212,0.383451,-0.125601,44.182922,-6.678955,5.202881,,,,,,
1478503653.95,1.579192,-0.441795,1.015396,1.108343,-0.317782,-0.687560,0.903954,0.427563,0.007590,-0.376885,0.005314,0.000970,44.481445,-7.053589,4.905273,,,,,,
1478503653.97,1.561687,-0.453398,0.988212,1.245749,-0.246311,-0.474013,0.898927,0.438022,-0.008189,-0.403382,-0.195423,0.112544,44.480957,-6.602356,4.080078,,,,,,
1478503653.99,1.548396,-0.456979,0.963977,0.961165,-0.082473,-0.018092,0.897164,0.441239,-0.020100,-0.404351,-0.216828,0.151387,44.781982,-6.302795,4.232056,,,,,,
1478503654.01,1.539676,-0.451364,0.949912,0.437103,-0.185746,0.424146,0.899417,0.436193,-0.027999,-0.428134,-0.105062,0.107207,45.457214,-5.927551,3.861938,,,,,,
1478503654.03,1.533238,-0.439148,0.948620,-0.137325,-0.361923,0.702286,0.904476,0.425169,-0.033986,-0.445446,0.066805,0.070653,45.457214,-5.927551,3.861938,,,,,,
1478503654.05,1.528942,-0.424413,0.960042,-0.699638,-0.502676,0.766474,0.910482,0.411786,-0.038130,-0.463369,0.261248,0.036207,45.153137,-6.750916,2.885132,,,,,,
1478503654.07,1.527192,-0.412193,0.982223,-1.144931,-0.561469,0.561862,0.915374,0.400620,-0.039940,-0.465728,0.442062,-0.009972,45.149414,-7.800171,2.360596,,,,,,
1478503654.09,1.526724,-0.407640,1.010934,-1.392523,-0.623612,0.085829,0.917168,0.396444,-0.040447,-0.462242,0.562312,-0.062488,45.222778,-8.324768,2.136475,,,,,,
1478503654.11,1.525256,-0.416215,1.041739,-1.443663,-0.740133,-0.660488,0.913678,0.404301,-0.041638,-0.465436,0.609188,-0.130405,45.669067,-8.171997,0.114746,,,,,,
1478503654.13,1.521693,-0.440203,1.070178,-1.285623,-0.771195,-1.419625,0.903575,0.426123,-0.044404,-0.480479,0.460458,-0.145461,45.669067,-8.171997,0.114746,,,,,,
1478503654.15,1.517632,-0.477106,1.092620,-0.989584,-0.641405,-2.010057,0.887073,0.459210,-0.047205,-0.444003,0.336688,-0.113791,45.744019,-7.420593,-0.859985,,,,,,
1478503654.17,1.514192,-0.522522,1.107052,-0.618111,-0.442120,-2.358540,0.865175,0.499068,-0.049025,-0.376314,0.218096,-0.085206,45.596008,-5.844055,-1.837036,,,,,,
1478503654.19,1.511792,-0.571494,1.112780,-0.266912,-0.155990,-2.482656,0.839630,0.540889,-0.049599,-0.310821,0.168324,-0.052421,45.674622,-3.592590,-2.812500,,,,,,
1478503654.21,1.511537,-0.621402,1.112076,-0.051657,0.104907,-2.516999,0.811636,0.582176,-0.048153,-0.252615,0.144982,-0.050754,45.674622,-3.592590,-2.812500,,,,,,
1478503654.23,1.513655,-0.671867,1.108391,0.007808,0.265337,-2.566948,0.781383,0.622449,-0.044698,-0.190410,0.177631,-0.079112,45.834351,0.157104,-2.663208,,,,,,
1478503654.25,1.517642,-0.723882,1.105277,-0.049003,0.311394,-2.655683,0.748182,0.662298,-0.039806,-0.107557,0.209726,-0.102909,45.239868,2.407532,-2.743774,,,,,,
1478503654.27,1.522439,-0.778136,1.104044,-0.119824,0.246993,-2.780521,0.711390,0.701953,-0.034428,-0.012980,0.231610,-0.139950,44.945068,4.357300,-2.521973,,,,,,
1478503654.29,1.525564,-0.836122,1.104986,-0.196894,0.024401,-3.016924,0.669660,0.742049,-0.030311,0.100695,0.271272,-0.188760,44.500977,6.832764,-2.676514,,,,,,
1478503654.31,1.523734,-0.900493,1.107720,-0.252475,-0.341591,-3.362634,0.620536,0.783633,-0.029225,0.190499,0.274335,-0.213481,43.013367,11.783508,-2.690063,,,,,,
1478503654.33,1.514030,-0.970275,1.108892,-0.176580,-0.620031,-3.559790,0.564162,0.825041,-0.032060,0.302842,0.200914,-0.159942,43.013367,11.783508,-2.690063,,,,,,
1478503654.35,1.496197,-1.040309,1.103056,-0.006679,-0.624984,-3.474754,0.504547,0.862561,-0.037709,0.419114,0.096546,-0.074443,41.819763,14.409241,-2.775513,,,,,,
1478503654.37,1.471614,-1.105691,1.086207,0.189608,-0.400682,-3.221730,0.446312,0.893775,-0.044412,0.525215,0.036905,-0.012976,40.099976,16.885864,-3.239502,,,,,,
1478503654.39,1.438634,-1.166411,1.055228,0.364214,-0.155935,-3.067855,0.390023,0.919344,-0.051848,0.645836,0.054456,0.009490,38.305481,19.211914,-3.404175,,,,,,
1478503654.41,1.389797,-1.225046,1.004138,0.529788,-0.018271,-3.062897,0.333367,0.940821,-0.061007,0.765403,0.080129,0.014254,35.540344,23.714355,-4.102173,,,,,,
1478503654.43,1.317589,-1.279651,0.925309,0.665705,0.272176,-2.829467,0.277896,0.957916,-0.071909,0.899640,0.060563,0.073313,35.540344,23.714355,-4.102173,,,,,,
1478503654.45,1.221853,-1.322037,0.813969,0.900317,0.767940,-2.249845,0.231364,0.969219,-0.084178,1.109365,0.112935,0.141413,34.045593,25.815186,-4.114502,,,,,,
1478503654.47,1.095513,-1.347251,0.664604,1.197813,1.026361,-1.637581,0.197117,0.975118,-0.101442,1.224713,0.076899,0.174791,32.473389,27.241516,-4.501953,,,,,,
1478503654.49,0.965589,-1.357222,0.510755,1.112166,0.972509,-1.088688,0.174308,0.977280,-0.120588,1.226968,-0.053635,0.197736,30.974243,28.143372,-5.188599,,,,,,
1478503654.51,0.879148,-1.358732,0.407771,0.617794,0.531815,-0.472259,0.162109,0.977599,-0.134245,1.082565,-0.329161,0.186002,29.926270,29.269409,-5.572021,,,,,,
1478503654.53,0.868742,-1.355311,0.393523,-0.004097,-0.041741,0.359764,0.163256,0.976873,-0.138083,0.867933,-0.637945,0.179892,29.926270,29.269409,-5.572021,,,,,,
1478503654.55,0.934624,-1.345214,0.468974,-0.518608,-0.576389,1.235040,0.179918,0.974664,-0.132889,0.691039,-0.779596,0.156144,30.375793,29.419861,-6.018799,,,,,,
1478503654.57,1.045926,-1.325165,0.599614,-0.822273,-0.898743,1.915141,0.210436,0.969984,-0.121852,0.530623,-0.647901,0.142879,30.898315,28.970581,-6.689575,,,,,,
1478503654.59,1.153498,-1.294533,0.731595,-0.784337,-1.041906,2.242369,0.249356,0.962081,-0.110548,0.453571,-0.461578,0.153532,33.141785,26.945557,-7.421631,,,,,,
1478503654.61,1.226805,-1.256980,0.827878,-0.485510,-0.847296,2.265005,0.290606,0.951163,-0.104105,0.418393,-0.285971,0.213236,34.486572,25.821716,-8.611084,,,,,,
1478503654.63,1.272512,-1.217405,0.886963,-0.182316,-0.263342,2.147623,0.330799,0.938204,-0.101707,0.415432,-0.136172,0.277961,34.486572,25.821716,-8.611084,,,,,,
1478503654.65,1.306235,-1.178546,0.917462,0.121232,0.596094,1.957437,0.368968,0.924051,-0.099958,0.434941,-0.024454,0.299222,36.506775,24.396667,-9.270142,,,,,,
1478503654.67,1.337528,-1.142270,0.926946,0.339767,1.445245,1.727414,0.404277,0.909579,-0.096053,0.473592,0.050962,0.254135,38.078186,23.196350,-9.557983,,,,,,
1478503654.69,1.372223,-1.108715,0.924551,0.443894,2.076617,1.613124,0.437052,0.895127,-0.087946,0.504904,0.043106,0.181177,40.472900,20.268555,-8.488403,,,,,,
1478503654.71,1.414092,-1.074183,0.919201,0.396347,2.466669,1.768750,0.470613,0.879201,-0.074357,0.528975,0.001643,0.097688,41.522522,18.990967,-7.129883,,,,,,
1478503654.73,1.464194,-1.034641,0.919964,0.111819,2.443595,2.111055,0.507935,0.859679,-0.054353,0.545227,0.009538,-0.019133,41.522522,18.990967,-7.129883,,,,,,
1478503654.75,1.519520,-0.988258,0.936585,-0.538744,1.753931,2.522620,0.549422,0.835069,-0.028197,0.537675,0.044615,-0.197236,42.272705,17.262207,-4.873413,,,,,,
1478503654.77,1.569843,-0.931370,0.975455,-1.348518,0.373383,3.135553,0.596735,0.802438,-0.000569,0.528005,0.071708,-0.346218,42.572388,15.533997,-2.845337,,,,,,
1478503654.79,1.599131,-0.860059,1.028058,-1.882071,-1.128291,3.802348,0.652131,0.757881,0.018483,0.493682,0.185890,-0.392155,42.790955,11.105347,-0.516479,,,,,,
1478503654.81,1.602466,-0.776674,1.082024,-1.999713,-2.173884,4.313189,0.712891,0.700911,0.022585,0.425613,0.341737,-0.335268,43.159119,8.705811,-0.962402,,,,,,
1478503654.83,1.584061,-0.685824,1.130000,-1.816033,-2.692797,4.633273,0.773830,0.633311,0.010265,0.336736,0.494619,-0.221660,43.159119,8.705811,-0.962402,,,,,,
1478503654.85,1.553115,-0.591767,1.169649,-1.439939,-2.731478,4.775913,0.829827,0.557828,-0.014674,0.234855,0.609149,-0.106206,43.149109,5.557434,-2.011108,,,,,,
1478503654.87,1.518205,-0.498911,1.200383,-0.989579,-2.432899,4.644870,0.876890,0.478469,-0.046159,0.169878,0.739853,-0.013320,41.562927,2.335571,-3.596313,,,,,,
1478503654.89,1.485216,-0.411657,1.223827,-0.624987,-2.019949,4.323702,0.913105,0.400129,-0.078336,0.049343,0.812320,0.047330,41.766052,-4.260498,-6.291504,,,,,,
1478503654.91,1.457402,-0.332073,1.241818,-0.332089,-1.542830,3.919011,0.939297,0.326003,-0.106969,-0.089108,0.821595,0.082159,40.931152,-7.558777,-7.121094,,,,,,
1478503654.93,1.437104,-0.259711,1.254054,-0.009356,-0.991459,3.554822,0.957840,0.256802,-0.128824,-0.205368,0.804539,0.106104,40.931152,-7.558777,-7.121094,,,,,,
1478503654.95,1.425666,-0.193228,1.259314,0.344060,-0.429626,3.230172,0.971072,0.192028,-0.141930,-0.296741,0.802158,0.109642,40.622986,-10.257629,-7.796997,,,,,,
1478503654.97,1.422888,-0.132300,1.257461,0.648249,0.028218,2.883055,0.980438,0.131914,-0.146081,-0.366455,0.807646,0.098794,40.465698,-13.107422,-7.871704,,,,,,
1478503654.99,1.426200,-0.078388,1.249682,0.846709,0.298340,2.472838,0.986525,0.078308,-0.143651,-0.441069,0.785248,0.078389,38.880981,-17.532715,-7.206421,,,,,,
1478503655.01,1.433153,-0.032072,1.239031,0.833418,0.410664,2.105342,0.990033,0.032067,-0.137139,-0.511578,0.760872,0.066811,38.052856,-19.708923,-6.086548,,,,,,
1478503655.03,1.441009,0.007193,1.230745,0.557338,0.374941,1.770691,0.991564,-0.007193,-0.129420,-0.523989,0.856940,0.035533,38.052856,-19.708923,-6.086548,,,,,,
1478503655.05,1.445974,0.037938,1.228437,0.155429,0.151602,1.350475,0.991506,-0.037928,-0.124409,-0.538732,0.972804,0.002491,37.900879,-21.210205,-5.187012,,,,,,
1478503655.07,1.444606,0.056443,1.232651,-0.228196,-0.190400,0.665479,0.990469,-0.056413,-0.125655,-0.583349,1.049134,-0.016694,36.921509,-23.610901,-4.368164,,,,,,
1478503655.09,1.437076,0.056309,1.239613,-0.384499,-0.433644,-0.370768,0.989502,-0.056279,-0.133111,-0.649246,0.978017,0.028222,36.320618,-23.910522,-4.447510,,,,,,
1478503655.11,1.427483,0.034308,1.243418,-0.291474,-0.473459,-1.470888,0.989166,-0.034301,-0.142739,-0.662063,0.794662,0.095696,35.946289,-23.610291,-4.450439,,,,,,
1478503655.13,1.420010,-0.005087,1.240755,-0.078395,-0.286770,-2.221537,0.988640,0.005087,-0.150214,-0.657250,0.529657,0.162818,35.946289,-23.610291,-4.450439,,,,,,
1478503655.15,1.418479,-0.051848,1.232632,0.115894,0.078678,-2.422216,0.987094,0.051825,-0.151525,-0.621753,0.297144,0.204473,37.296936,-22.784851,-5.190796,,,,,,
1478503655.17,1.424178,-0.097060,1.222431,0.178010,0.480039,-2.250037,0.984615,0.096908,-0.145406,-0.575374,0.196992,0.193242,39.254517,-19.485413,-5.477661,,,,,,
1478503655.19,1.436687,-0.138239,1.213228,0.158589,0.762549,-2.052577,0.981567,0.137799,-0.132433,-0.521102,0.263919,0.138185,40.009644,-17.686218,-5.172974,,,,,,
1478503655.21,1.450819,-0.176635,1.204736,0.191918,0.771784,-1.925732,0.977364,0.175718,-0.117828,-0.464913,0.385913,0.117095,39.938965,-16.336853,-4.724121,,,,,,
1478503655.23,1.463864,-0.214160,1.196786,0.132156,0.690167,-1.954678,0.971574,0.212527,-0.104290,-0.392228,0.551710,0.120724,39.938965,-16.336853,-4.724121,,,,,,
1478503655.25,1.473327,-0.257048,1.194056,-0.251110,0.369966,-2.343774,0.962554,0.254227,-0.094117,-0.311538,0.753494,0.081361,40.843750,-14.687805,-4.418213,,,,,,
1478503655.27,1.477169,-0.314235,1.200973,-0.828090,-0.085965,-3.177624,0.946868,0.309089,-0.088913,-0.191878,0.930870,0.033829,42.577820,-11.314087,-4.106812,,,,,,
1478503655.29,1.475803,-0.391393,1.218055,-1.345601,-0.513164,-4.135738,0.920211,0.381477,-0.087677,-0.058486,0.909966,0.000092,42.658875,-8.688843,-4.332520,,,,,,
1478503655.31,1.472559,-0.484175,1.242364,-1.661257,-0.770478,-4.739588,0.880792,0.465479,-0.086806,0.087638,0.710608,-0.022950,42.440308,-5.086792,-5.610962,,,,,,
1478503655.33,1.470562,-0.584803,1.271246,-1.758097,-0.861173,-4.977365,0.829636,0.552035,-0.083438,0.261017,0.529782,-0.031980,42.440308,-5.086792,-5.610962,,,,,,
1478503655.35,1.470514,-0.685407,1.298099,-1.435595,-0.729538,-4.857634,0.770272,0.632988,-0.077505,0.399070,0.370613,-0.012308,42.973755,-1.186096,-6.283936,,,,,,
1478503655.37,1.470661,-0.779208,1.313371,-0.791993,-0.344217,-4.495947,0.707906,0.702716,-0.071124,0.495616,0.222714,0.037341,41.791016,6.991882,-7.871826,,,,,,
1478503655.39,1.470002,-0.863600,1.312989,-0.222814,0.196452,-4.071036,0.646408,0.760186,-0.065376,0.570130,0.114997,0.083549,40.524048,10.593201,-8.333130,,,,,,
1478503655.41,1.471672,-0.939125,1.302162,0.025584,0.686083,-3.655262,0.587596,0.807042,-0.058437,0.619756,0.036144,0.067012,38.505737,13.444641,-8.574707,,,,,,
1478503655.43,1.477025,-1.005328,1.288036,0.090509,0.927409,-3.169861,0.533458,0.844338,-0.050170,0.677007,-0.031044,0.008071,38.505737,13.444641,-8.574707,,,,,,
1478503655.45,1.483845,-1.061032,1.275245,0.063112,0.829726,-2.590775,0.486128,0.872859,-0.042376,0.727297,-0.064159,-0.161405,37.762390,15.844482,-8.281494,,,,,,
1478503655.47,1.487247,-1.103949,1.265823,0.025564,0.426795,-1.921862,0.448503,0.892992,-0.037559,0.663191,-0.123049,-0.251732,35.749512,20.194580,-7.623779,,,,,,
1478503655.49,1.483711,-1.134872,1.259010,0.017308,-0.052552,-1.380412,0.420648,0.906480,-0.036725,0.569754,-0.131303,-0.274020,34.777527,21.470154,-7.706787,,,,,,
1478503655.51,1.470076,-1.158483,1.250535,0.115716,-0.414773,-1.135550,0.398699,0.916196,-0.040293,0.494154,-0.105405,-0.237035,33.354736,22.370911,-7.717896,,,,,,
1478503655.53,1.440157,-1.180724,1.229183,0.417143,-0.545340,-1.199693,0.377015,0.924882,-0.049535,0.459609,-0.095978,-0.171946,33.354736,22.370911,-7.717896,,,,,,
1478503655.55,1.385731,-1.203781,1.181585,0.868805,-0.465778,-1.331341,0.352704,0.933402,-0.066029,0.485904,-0.124976,-0.085598,32.906067,22.896179,-7.721436,,,,,,
1478503655.57,1.303660,-1.224769,1.100890,1.283032,-0.230022,-1.341133,0.327133,0.940728,-0.089529,0.549377,-0.182900,0.025106,32.082458,24.398376,-8.928345,,,,,,
1478503655.59,1.207219,-1.241252,1.000311,1.302658,0.004764,-1.281770,0.302458,0.946190,-0.115083,0.642061,-0.156135,0.096162,31.032288,25.075256,-9.836670,,,,,,
1478503655.61,1.120397,-1.255378,0.906644,0.953389,0.134451,-1.233855,0.279278,0.950667,-0.135044,0.782749,-0.035139,0.122425,30.581299,25.226501,-10.515137,,,,,,
1478503655.63,1.041859,-1.271394,0.822816,0.639548,0.008137,-1.372708,0.254642,0.955513,-0.148836,0.901959,-0.024681,0.122209,30.581299,25.226501,-10.515137,,,,,,
1478503655.65,0.962819,-1.289313,0.741986,0.416354,-0.116621,-1.355648,0.228004,0.960644,-0.158671,0.994301,-0.158200,0.159144,28.633789,26.578186,-10.980347,,,,,,
1478503655.67,0.900388,-1.304996,0.680892,0.011638,-0.245762,-0.932940,0.205829,0.964883,-0.163206,1.016980,-0.442925,0.140485,28.184937,27.253723,-11.209106,,,,,,
1478503655.69,0.902074,-1.318176,0.694733,-0.959244,-0.899087,-0.044166,0.196108,0.968261,-0.154960,0.961287,-0.745437,0.004081,27.811218,28.229797,-11.812378,,,,,,
1478503655.71,1.007944,-1.326238,0.839048,-2.085942,-2.257360,1.176949,0.204776,0.970244,-0.129199,0.891873,-0.855636,-0.102582,27.512329,28.379395,-11.439697,,,,,,
1478503655.73,1.189193,-1.313856,1.087428,-2.608675,-3.349658,2.387140,0.235843,0.967172,-0.094637,0.804989,-0.761819,-0.088209,27.512329,28.379395,-11.439697,,,,,,
1478503655.75,1.342095,-1.274105,1.323306,-2.320773,-3.890804,3.064438,0.284745,0.956309,-0.066281,0.712783,-0.481990,-0.063266,27.962402,28.153809,-11.136230,,,,,,
1478503655.77,1.407439,-1.218927,1.473211,-1.484961,-3.779996,3.199796,0.340065,0.938730,-0.056052,0.593940,-0.229364,0.008719,29.686829,27.627258,-10.748047,,,,,,
1478503655.79,1.409337,-1.160482,1.548244,-0.571024,-3.135265,3.065452,0.393710,0.916995,-0.064126,0.543409,-0.030628,0.123468,31.481995,26.352600,-11.558838,,,,,,
1478503655.81,1.387525,-1.102900,1.578191,0.098565,-2.029366,2.910966,0.443457,0.892519,-0.082195,0.491388,0.049406,0.236828,32.450867,25.079407,-13.051025,,,,,,
1478503655.83,1.367425,-1.045375,1.584301,0.598436,-0.828486,2.862918,0.491241,0.865112,-0.101305,0.479523,0.103256,0.291826,32.450867,25.079407,-13.051025,,,,,,
1478503655.85,1.357848,-0.985021,1.576279,0.958225,0.222643,2.985713,0.540358,0.833284,-0.116840,0.480577,0.143248,0.279453,34.688354,21.631104,-14.982544,,,,,,
1478503655.87,1.359809,-0.919777,1.563495,1.090827,0.795884,3.226146,0.592560,0.795466,-0.126911,0.482758,0.204992,0.202274,36.633301,19.830627,-15.266968,,,,,,
1478503655.89,1.369295,-0.849545,1.552312,1.056718,0.945442,3.483340,0.646965,0.750980,-0.132158,0.476006,0.328046,0.092516,38.802307,17.354370,-15.174438,,,,,,
1478503655.91,1.380436,-0.774929,1.543718,0.998363,0.807023,3.708904,0.701565,0.699665,-0.135187,0.433674,0.429912,0.057733,40.895996,14.803284,-15.157471,,,,,,
1478503655.93,1.388654,-0.696820,1.538199,0.876715,0.457329,3.886539,0.754201,0.641782,-0.138911,0.379832,0.502734,0.054042,40.895996,14.803284,-15.157471,,,,,,
1478503655.95,1.391582,-0.616516,1.537549,0.654749,-0.014232,4.024422,0.802831,0.578196,-0.145439,0.303523,0.552648,0.084007,43.581665,8.350525,-14.234131,,,,,,
1478503655.97,1.389040,-0.534622,1.544020,0.351981,-0.465306,4.147992,0.846288,0.509516,-0.155535,0.230952,0.625509,0.139559,44.773071,4.975037,-14.298462,,,,,,
1478503655.99,1.381751,-0.453328,1.556811,0.118023,-0.771677,4.081173,0.882978,0.437960,-0.168940,0.146746,0.729170,0.191630,45.138611,0.924377,-13.993774,,,,,,
1478503656.01,1.371160,-0.376699,1.572195,0.025665,-0.860201,3.809353,0.911415,0.367853,-0.184408,0.017677,0.768881,0.248662,45.954407,-2.300110,-14.586060,,,,,,
1478503656.03,1.360147,-0.306735,1.586522,0.081583,-0.740676,3.451807,0.932252,0.301947,-0.199335,-0.099946,0.749063,0.293924,45.954407,-2.300110,-14.586060,,,,,,
1478503656.05,1.351598,-0.243343,1.597876,0.179462,-0.477788,3.108112,0.947315,0.240949,-0.211041,-0.204853,0.697757,0.318539,45.112061,-8.297974,-15.714355,,,,,,
1478503656.07,1.348330,-0.185758,1.606726,0.224071,-0.120203,2.818269,0.958577,0.184691,-0.216841,-0.294545,0.649171,0.322752,44.204407,-11.297363,-15.794556,,,,,,
1478503656.09,1.351226,-0.133619,1.614008,0.216314,0.197145,2.532457,0.967291,0.133222,-0.215869,-0.367926,0.640429,0.293536,44.047668,-13.771912,-16.094482,,,,,,
1478503656.11,1.358211,-0.087290,1.620526,0.154893,0.370110,2.229539,0.973767,0.087179,-0.210184,-0.432950,0.656916,0.250757,43.593201,-15.721985,-15.871948,,,,,,
1478503656.13,1.366819,-0.048147,1.626606,0.087285,0.432695,1.832014,0.978134,0.048129,-0.202331,-0.488540,0.674192,0.212967,43.593201,-15.721985,-15.871948,,,,,,
1478503656.15,1.376483,-0.018013,1.631436,0.051093,0.505948,1.356937,0.981021,0.018012,-0.193061,-0.541736,0.682259,0.192085,41.935303,-19.321899,-15.357666,,,,,,
1478503656.17,1.387608,0.003868,1.635225,-0.023095,0.588681,1.000861,0.983261,-0.003868,-0.182164,-0.539337,0.725944,0.179570,41.858032,-20.747925,-14.682495,,,,,,
1478503656.19,1.398817,0.018873,1.641951,-0.326931,0.538163,0.667144,0.985072,-0.018872,-0.171103,-0.528194,0.847821,0.138022,41.481140,-21.798279,-14.309814,,,,,,
1478503656.21,1.407264,0.023398,1.654767,-0.768161,0.360949,0.086966,0.986388,-0.023396,-0.162760,-0.528960,0.980397,0.092173,41.482239,-21.949463,-13.559692,,,,,,
1478503656.23,1.411808,0.011021,1.673325,-1.145467,0.188382,-0.832442,0.987328,-0.011021,-0.158310,-0.549446,1.052311,0.054367,41.482239,-21.949463,-13.559692,,,,,,
1478503656.25,1.414912,-0.022920,1.692464,-1.215136,0.161923,-1.972864,0.987615,0.022918,-0.155213,-0.569433,0.980774,0.045472,41.707275,-21.423523,-14.233276,,,,,,
1478503656.27,1.421364,-0.077498,1.705043,-0.901374,0.398661,-2.952968,0.985888,0.077420,-0.148430,-0.562487,0.712268,0.069496,42.160889,-19.923584,-14.305542,,,,,,
1478503656.29,1.433883,-0.142943,1.707370,-0.385314,0.760195,-3.333902,0.980538,0.142457,-0.135094,-0.499612,0.378921,0.103157,43.064636,-18.123535,-14.674683,,,,,,
1478503656.31,1.453685,-0.206284,1.701382,0.011865,1.231488,-3.040764,0.972094,0.204824,-0.114367,-0.426562,0.120081,0.141131,45.403870,-12.875488,-14.134888,,,,,,
1478503656.33,1.481225,-0.259133,1.694286,0.052121,1.572683,-2.472620,0.962738,0.256243,-0.086465,-0.357376,0.047926,0.123040,45.403870,-12.875488,-14.134888,,,,,,
1478503656.35,1.513205,-0.304087,1.694349,-0.366258,1.574578,-2.176862,0.952539,0.299422,-0.054919,-0.249719,0.287858,0.033449,46.012573,-10.402710,-12.856567,,,,,,
1478503656.37,1.543662,-0.347924,1.710184,-1.152058,1.033903,-2.202711,0.939736,0.340947,-0.025506,-0.156808,0.521251,-0.101524,46.619202,-8.529480,-11.878052,,,,,,
1478503656.39,1.567077,-0.394510,1.742498,-1.724252,0.335502,-2.403854,0.923179,0.384355,-0.003433,-0.077369,0.652479,-0.158859,47.526062,-6.506287,-10.972168,,,,,,
1478503656.41,1.584450,-0.445139,1.783346,-1.905338,-0.082370,-2.640531,0.902466,0.430584,0.012323,0.003173,0.693882,-0.165018,47.914246,-1.632263,-10.446655,,,,,,
1478503656.43,1.600351,-0.498582,1.826392,-1.833582,-0.240746,-2.789990,0.877878,0.478180,0.025953,0.060034,0.666900,-0.184370,47.914246,-1.632263,-10.446655,,,,,,
1478503656.45,1.614709,-0.554595,1.868505,-1.644811,-0.402735,-2.914317,0.849294,0.526599,0.037319,0.025110,0.525907,-0.221065,47.845825,1.143127,-10.673584,,,,,,
1478503656.47,1.624896,-0.611931,1.906015,-1.286046,-0.605763,-2.988680,0.817343,0.574449,0.044261,0.022699,0.346282,-0.231334,47.027954,3.993469,-10.681152,,,,,,
1478503656.49,1.627943,-0.670871,1.935397,-0.853842,-0.793116,-3.043503,0.782002,0.621669,0.044738,0.026974,0.227483,-0.200576,46.584351,6.693970,-10.835815,,,,,,
1478503656.51,1.624588,-0.729201,1.955406,-0.473353,-0.803098,-2.906206,0.744628,0.666274,0.040093,0.058610,0.096253,-0.118188,44.720825,12.396973,-12.202637,,,,,,
1478503656.53,1.618721,-0.782905,1.968207,-0.273518,-0.694777,-2.604019,0.708054,0.705342,0.033959,0.106110,0.032390,-0.071816,44.720825,12.396973,-12.202637,,,,,,
1478503656.55,1.613251,-0.830735,1.978112,-0.231369,-0.612498,-2.321723,0.673726,0.738427,0.028620,0.152629,0.042731,-0.059183,43.600586,14.648193,-12.662231,,,,,,
1478503656.57,1.609245,-0.874449,1.989423,-0.330422,-0.654957,-2.178495,0.640945,0.767190,0.024656,0.210220,0.118933,-0.078443,42.255127,16.824585,-13.123291,,,,,,
1478503656.59,1.608018,-0.917954,2.005893,-0.497453,-0.737196,-2.260189,0.607026,0.794361,0.022605,0.246536,0.197369,-0.110038,40.908020,18.551270,-13.809326,,,,,,
1478503656.61,1.610272,-0.965616,2.028941,-0.633748,-0.890438,-2.526829,0.568467,0.822400,0.022452,0.289489,0.227588,-0.163169,39.191101,22.152832,-14.273926,,,,,,
1478503656.63,1.611975,-1.018415,2.055688,-0.601120,-1.135697,-2.771111,0.524271,0.851277,0.021601,0.362127,0.190028,-0.200846,39.191101,22.152832,-14.273926,,,,,,
1478503656.65,1.608433,-1.074907,2.080925,-0.475340,-1.350625,-2.903156,0.475477,0.879546,0.017904,0.421541,0.103456,-0.200567,37.245728,24.179138,-14.514526,,,,,,
1478503656.67,1.599336,-1.132525,2.103527,-0.393993,-1.551817,-2.906660,0.424202,0.905487,0.012110,0.516869,0.034867,-0.192820,34.923645,26.056580,-15.357910,,,,,,
1478503656.69,1.587377,-1.188340,2.127028,-0.421237,-1.757187,-2.753209,0.373149,0.927751,0.006187,0.628529,-0.031068,-0.164162,31.031006,29.960388,-16.588989,,,,,,
1478503656.71,1.576450,-1.240426,2.153986,-0.459026,-1.842476,-2.549968,0.324388,0.945922,0.001834,0.730239,-0.067764,-0.114276,31.031006,29.960388,-16.588989,,,,,,
1478503656.73,1.572452,-1.288949,2.187154,-0.521481,-1.727757,-2.379101,0.278131,0.960543,0.000460,0.856620,-0.036059,-0.077105,28.408020,31.312744,-17.284424,,,,,,
1478503656.75,1.582812,-1.333139,2.229091,-0.491894,-1.367873,-2.138909,0.235409,0.971892,0.002829,1.012348,0.054521,-0.051977,26.160339,32.739807,-17.902100,,,,,,
1478503656.77,1.592065,-1.373905,2.260306,-0.170263,-0.879015,-2.020791,0.195578,0.980679,0.004160,1.212122,0.043918,-0.042017,23.688049,34.392029,-18.596313,,,,,,
1478503656.79,1.580458,-1.411511,2.260158,0.124927,-0.404126,-1.770799,0.158605,0.987341,0.001533,1.234171,-0.208609,-0.054313,19.492554,36.043945,-18.403687,,,,,,
1478503656.81,1.555361,-1.438588,2.239595,0.112642,-0.206542,-1.057953,0.131808,0.991273,-0.002035,1.128416,-0.543550,-0.123377,18.296143,37.544617,-18.488525,,,,,,
1478503656.83,1.554904,-1.446775,2.248402,-0.182272,-0.707132,-0.002828,0.123688,0.992319,-0.001966,0.958862,-0.764429,-0.216769,18.296143,37.544617,-18.488525,,,,,,
1478503656.85,1.583877,-1.433854,2.302861,-0.431467,-1.603296,1.015893,0.136503,0.990638,0.001786,0.801226,-0.793525,-0.230225,17.619629,37.245483,-18.868408,,,,,,
1478503656.87,1.595794,-1.404284,2.356141,-0.407206,-2.261625,1.708953,0.165692,0.986169,0.004143,0.665424,-0.704309,-0.134148,17.094849,37.095337,-18.572266,,,,,,
1478503656.89,1.578973,-1.365469,2.386828,-0.242443,-2.359514,2.052776,0.203881,0.978994,0.001667,0.552543,-0.588430,-0.005070,17.991577,36.571289,-19.540161,,,,,,
1478503656.91,1.544341,-1.323482,2.395625,0.022518,-1.989486,2.137764,0.244715,0.969573,-0.006476,0.456411,-0.471145,0.097403,19.112366,35.597107,-20.431274,,,,,,
1478503656.93,1.508465,-1.280634,2.388911,0.286358,-1.156858,2.149656,0.285552,0.958198,-0.017822,0.432969,-0.340980,0.157745,19.112366,35.597107,-20.431274,,,,,,
1478503656.95,1.478607,-1.237646,2.370733,0.550430,-0.343282,2.113676,0.325633,0.945017,-0.030105,0.439092,-0.200052,0.138214,19.783875,34.697754,-21.100830,,,,,,
1478503656.97,1.454278,-1.195378,2.342705,0.806879,0.356628,2.040569,0.364176,0.930354,-0.042626,0.458868,-0.059444,0.105248,20.980225,33.798218,-21.766357,,,,,,
1478503656.99,1.434380,-1.153486,2.305399,1.091623,0.955415,1.985868,0.401538,0.914182,-0.055119,0.476041,0.042239,0.081226,23.897766,31.322693,-22.418213,,,,,,
1478503657.01,1.421161,-1.110145,2.262017,1.297490,1.498914,2.077719,0.439565,0.895763,-0.066270,0.495387,0.070576,0.070618,25.619019,30.197449,-22.854736,,,,,,
1478503657.03,1.419290,-1.062280,2.220266,1.323951,1.920429,2.341219,0.481304,0.873468,-0.073484,0.504383,0.097434,0.061200,25.619019,30.197449,-22.854736,,,,,,
1478503657.05,1.431018,-1.009197,2.186003,1.201512,2.123404,2.613814,0.527347,0.846404,-0.074196,0.504651,0.163895,0.002800,27.866150,29.071411,-22.912354,,,,,,
1478503657.07,1.450995,-0.951972,2.160320,1.012119,2.020456,2.859894,0.575920,0.814561,-0.069328,0.471519,0.230453,-0.066445,29.510986,26.820251,-22.673828,,,,,,
1478503657.09,1.472741,-0.889435,2.142897,0.770965,1.618751,3.209400,0.626825,0.776716,-0.061662,0.421301,0.279482,-0.122085,34.152588,22.240662,-21.136719,,,,,,
1478503657.11,1.491389,-0.820566,2.134558,0.459981,1.034426,3.550285,0.679659,0.731532,-0.054084,0.350584,0.367498,-0.145028,36.622620,19.913818,-20.742065,,,,,,
1478503657.13,1.503781,-0.746754,2.133824,0.203954,0.420361,3.774423,0.732250,0.679260,-0.049146,0.272831,0.475403,-0.137973,36.622620,19.913818,-20.742065,,,,,,
1478503657.15,1.508082,-0.671204,2.137771,0.041170,-0.087335,3.797720,0.781534,0.621929,-0.049078,0.184149,0.577396,-0.103357,38.866028,17.212585,-20.648926,,,,,,
1478503657.17,1.505579,-0.596969,2.144157,-0.058562,-0.433440,3.709345,0.825285,0.562138,-0.053899,0.087725,0.618465,-0.041773,41.327759,11.510620,-20.177734,,,,,,
1478503657.19,1.499298,-0.524954,2.152701,-0.144710,-0.584999,3.601588,0.863136,0.501173,-0.061818,-0.019127,0.616289,0.018773,42.369263,8.435608,-20.543335,,,,,,
1478503657.21,1.492280,-0.455097,2.162632,-0.189845,-0.569793,3.502319,0.895451,0.439550,-0.070453,-0.151051,0.585780,0.077441,42.735962,5.661438,-21.214111,,,,,,
1478503657.23,1.486804,-0.387934,2.172605,-0.164845,-0.412242,3.340413,0.922429,0.378276,-0.077659,-0.235692,0.628956,0.097435,42.735962,5.661438,-21.214111,,,,,,
1478503657.25,1.484340,-0.324959,2.180501,-0.048408,-0.171893,3.083078,0.944124,0.319270,-0.081829,-0.312456,0.682347,0.096371,43.402222,2.586914,-21.732544,,,,,,
1478503657.27,1.484656,-0.268762,2.184199,0.138157,0.034492,2.665441,0.960526,0.265538,-0.082946,-0.385971,0.710918,0.083266,43.765137,-2.138123,-21.877563,,,,,,
1478503657.29,1.487513,-0.221271,2.183528,0.280099,0.217689,2.215659,0.972238,0.219469,-0.081159,-0.431512,0.727521,0.074323,43.310669,-4.238403,-21.504883,,,,,,
1478503657.31,1.493049,-0.181368,2.181283,0.241153,0.340693,1.868231,0.980626,0.180376,-0.076396,-0.455877,0.783003,0.055445,43.981506,-5.963806,-21.423950,,,,,,
1478503657.33,1.499694,-0.148608,2.181074,0.058014,0.315364,1.497882,0.986479,0.148061,-0.070260,-0.474425,0.875636,0.018517,43.981506,-5.963806,-21.423950,,,,,,
1478503657.35,1.504763,-0.125316,2.184029,-0.130881,0.173403,0.960552,0.989996,0.124988,-0.065468,-0.506704,0.969815,-0.018135,43.452576,-8.064636,-20.751953,,,,,,
1478503657.37,1.505927,-0.116157,2.188161,-0.173414,-0.051455,0.139932,0.991172,0.115896,-0.064387,-0.554191,0.983683,-0.035391,44.048340,-9.940247,-20.521606,,,,,,
1478503657.39,1.502068,-0.126862,2.188628,0.038300,-0.264952,-0.957142,0.989622,0.126522,-0.068122,-0.610670,0.820805,-0.000131,43.523010,-9.939819,-20.675415,,,,,,
1478503657.41,1.495538,-0.157127,2.181274,0.391111,-0.269842,-1.842989,0.984885,0.156482,-0.074261,-0.619971,0.480725,0.079968,43.824341,-9.189453,-20.973511,,,,,,
1478503657.43,1.488692,-0.197095,2.166893,0.618894,-0.164883,-2.094183,0.977336,0.195821,-0.080425,-0.560756,0.175028,0.173213,43.824341,-9.189453,-20.973511,,,,,,
1478503657.45,1.484843,-0.232893,2.151510,0.549975,0.076985,-1.670195,0.969411,0.230793,-0.083530,-0.481587,0.005077,0.248172,43.752258,-8.064575,-20.899658,,,,,,
1478503657.47,1.486872,-0.258372,2.142271,0.178623,0.259025,-1.127489,0.963404,0.255507,-0.081043,-0.444773,0.041566,0.225056,44.133728,-5.439636,-20.973145,,,,,,
1478503657.49,1.492641,-0.277469,2.144334,-0.396038,0.266826,-0.879436,0.958816,0.273922,-0.075089,-0.416885,0.259586,0.163880,44.285889,-4.614807,-20.897461,,,,,,
1478503657.51,1.501308,-0.296045,2.156874,-0.799463,0.244859,-0.944425,0.954189,0.291740,-0.066412,-0.389752,0.473351,0.094000,44.063416,-3.790039,-20.674438,,,,,,
1478503657.53,1.511172,-0.320490,2.173636,-0.882150,0.246908,-1.349392,0.947395,0.315031,-0.056555,-0.373420,0.654115,0.015829,44.063416,-3.790039,-20.674438,,,,,,
1478503657.55,1.521123,-0.354995,2.187298,-0.629157,0.294933,-1.922825,0.936492,0.347585,-0.046557,-0.325393,0.737483,-0.061719,44.441162,-2.815430,-20.522217,,,,,,
1478503657.57,1.529646,-0.400643,2.193691,-0.280429,0.304373,-2.488301,0.920031,0.390011,-0.037881,-0.295473,0.685704,-0.119529,45.198486,0.259521,-20.743042,,,,,,
1478503657.59,1.534520,-0.456445,2.195003,-0.130878,0.156977,-2.976925,0.897034,0.440760,-0.032555,-0.273209,0.553167,-0.157997,44.604675,2.359009,-20.223511,,,,,,
1478503657.61,1.534667,-0.519909,2.194986,-0.110796,-0.079679,-3.254289,0.867298,0.496801,-0.031349,-0.248890,0.382182,-0.163185,44.311218,4.909119,-20.151978,,,,,,
1478503657.63,1.528875,-0.586936,2.193763,-0.071756,-0.327382,-3.332472,0.831910,0.553812,-0.034895,-0.188325,0.258962,-0.152849,44.311218,4.909119,-20.151978,,,,,,
1478503657.65,1.517636,-0.654032,2.189934,0.014942,-0.469110,-3.306234,0.792516,0.608391,-0.042170,-0.108831,0.226967,-0.115163,43.123901,10.235107,-20.463501,,,,,,
1478503657.67,1.503751,-0.718914,2.182938,0.114780,-0.463146,-3.254598,0.750830,0.658568,-0.050415,-0.032645,0.227708,-0.077667,41.928101,12.637085,-21.373657,,,,,,
1478503657.69,1.487471,-0.782221,2.171705,0.201828,-0.421032,-3.181798,0.706889,0.704856,-0.059038,0.067586,0.244286,-0.054075,40.508911,15.037964,-21.460449,,,,,,
1478503657.71,1.468315,-0.844254,2.157273,0.195118,-0.462522,-3.154095,0.660804,0.747476,-0.067958,0.159570,0.263083,-0.055180,39.013306,17.214539,-21.997803,,,,,,
1478503657.73,1.445592,-0.906550,2.142417,0.065741,-0.638544,-3.176892,0.611640,0.787381,-0.076983,0.249459,0.244052,-0.052809,39.013306,17.214539,-21.997803,,,,,,
1478503657.75,1.420463,-0.968897,2.129100,-0.097914,-0.772025,-3.145653,0.559823,0.824262,-0.084800,0.328696,0.181567,-0.052392,35.571655,21.492981,-23.150757,,,,,,
1478503657.77,1.393872,-1.029476,2.117264,-0.214258,-0.871850,-2.994982,0.507224,0.857029,-0.090688,0.393059,0.088436,-0.049647,33.626221,23.594543,-23.541382,,,,,,
1478503657.79,1.364827,-1.086149,2.104784,-0.246765,-0.941238,-2.775768,0.456048,0.884839,-0.095283,0.442542,0.023348,-0.058953,31.604736,25.471375,-24.082520,,,,,,
1478503657.81,1.331659,-1.137928,2.089234,-0.221852,-0.980041,-2.522221,0.407539,0.907766,-0.099359,0.485344,-0.026586,-0.054984,28.758972,27.047607,-23.954590,,,,,,
1478503657.83,1.291292,-1.183795,2.066827,-0.106536,-1.005371,-2.237327,0.362766,0.926045,-0.104120,0.544948,-0.051869,-0.033377,28.758972,27.047607,-23.954590,,,,,,
1478503657.85,1.240923,-1.222927,2.034541,-0.007185,-1.028522,-1.953589,0.322515,0.940101,-0.110424,0.607630,-0.048194,0.002819,25.387939,29.526001,-25.106079,,,,,,
1478503657.87,1.184081,-1.257215,1.996478,-0.038246,-1.059571,-1.773812,0.285688,0.951235,-0.116338,0.678942,-0.003237,0.026433,23.964783,30.652405,-25.567505,,,,,,
1478503657.89,1.124257,-1.288111,1.955783,-0.107459,-1.026715,-1.590084,0.251585,0.960310,-0.120457,0.776446,0.048342,0.051640,21.565979,31.404053,-25.885864,,,,,,
1478503657.91,1.069466,-1.313950,1.917798,-0.138767,-0.847539,-1.253083,0.222771,0.967196,-0.122085,0.917701,0.147382,0.064011,20.140808,31.855835,-26.571777,,,,,,
1478503657.93,1.016372,-1.333295,1.879422,-0.042151,-0.794079,-1.000347,0.200032,0.971929,-0.123861,1.009090,0.191920,0.055243,20.140808,31.855835,-26.571777,,,,,,
1478503657.95,0.956230,-1.348944,1.835462,-0.023058,-0.941035,-0.898890,0.179775,0.975492,-0.126874,1.006794,0.075397,0.054151,17.368103,32.982544,-26.818115,,,,,,
1478503657.97,0.900390,-1.362921,1.801184,-0.215135,-1.251238,-0.680187,0.161714,0.978472,-0.128226,0.900618,-0.239794,0.060080,16.468201,33.358582,-27.200073,,,,,,
1478503657.99,0.881506,-1.373753,1.811991,-0.560924,-1.626421,-0.107751,0.151076,0.980650,-0.124508,0.750475,-0.591993,0.067684,15.418701,33.659363,-27.358032,,,,,,
1478503658.01,0.931828,-1.376306,1.900624,-0.855309,-1.968311,0.781074,0.155137,0.981146,-0.115258,0.640136,-0.777518,0.066796,14.069031,33.810059,-27.368286,,,,,,
1478503658.03,1.034877,-1.364487,2.049323,-0.914692,-2.239622,1.608276,0.176129,0.978794,-0.104602,0.545200,-0.773990,0.064029,14.069031,33.810059,-27.368286,,,,,,
1478503658.05,1.140514,-1.338993,2.204730,-0.899769,-2.349968,2.056681,0.208793,0.973254,-0.095828,0.470788,-0.625475,0.082217,13.171265,34.485046,-27.075317,,,,,,
1478503658.07,1.220334,-1.306783,2.333264,-0.808629,-2.145113,2.077095,0.245094,0.965351,-0.089595,0.417366,-0.410312,0.128917,13.547119,34.634460,-26.847534,,,,,,
1478503658.09,1.271054,-1.274840,2.422892,-0.550114,-1.503342,1.811414,0.278651,0.956524,-0.086118,0.439245,-0.070781,0.213605,13.698486,34.858887,-26.471558,,,,,,
1478503658.11,1.297007,-1.244880,2.466816,0.025631,-0.317207,1.546648,0.308251,0.947358,-0.086570,0.483436,0.065521,0.275489,14.597473,34.934326,-27.064819,,,,,,
1478503658.13,1.301630,-1.213406,2.458423,0.910289,1.210974,1.477861,0.337234,0.936813,-0.093030,0.560822,0.109436,0.304074,14.597473,34.934326,-27.064819,,,,,,
1478503658.15,1.296747,-1.176498,2.408989,1.592618,2.510880,1.609501,0.369825,0.923266,-0.103966,0.597872,0.075498,0.266045,16.245667,33.958008,-26.752075,,,,,,
1478503658.17,1.303738,-1.132985,2.352727,1.669324,3.104341,1.941143,0.408930,0.905682,-0.111881,0.590567,0.009815,0.171192,18.866943,32.682190,-27.031738,,,,,,
1478503658.19,1.331927,-1.083270,2.316822,1.191750,2.912655,2.395480,0.455141,0.883494,-0.110835,0.547881,-0.014369,0.062145,21.188293,31.556641,-27.463745,,,,,,
1478503658.21,1.375368,-1.026857,2.311570,0.456582,2.074144,2.965418,0.507660,0.855677,-0.100494,0.470627,0.036962,-0.028611,27.108154,28.251221,-25.842651,,,,,,
1478503658.23,1.419831,-0.960908,2.329221,-0.105461,1.164828,3.578994,0.566262,0.819712,-0.086141,0.393470,0.128576,-0.038187,27.108154,28.251221,-25.842651,,,,,,
1478503658.25,1.455394,-0.884932,2.358020,-0.501398,0.328536,4.076277,0.629130,0.773872,-0.072927,0.320471,0.296135,-0.037958,29.355347,26.599182,-25.224976,,,,,,
1478503658.27,1.477761,-0.802839,2.391453,-0.795924,-0.390592,4.265234,0.691663,0.719331,-0.064536,0.235812,0.497511,-0.021554,32.650574,24.422058,-24.899048,,,,,,
1478503658.29,1.487720,-0.721702,2.427405,-1.024754,-0.931759,4.098739,0.748093,0.660663,-0.062292,0.118438,0.629208,0.018270,34.895142,21.794983,-24.280884,,,,,,
1478503658.31,1.487648,-0.645915,2.463418,-1.102878,-1.252056,3.806060,0.795791,0.601929,-0.066321,0.014497,0.655868,0.062995,37.734375,17.443481,-24.257446,,,,,,
1478503658.33,1.480419,-0.575315,2.496647,-1.011246,-1.341262,3.583155,0.835597,0.544099,-0.075726,-0.086314,0.615020,0.110867,37.734375,17.443481,-24.257446,,,,,,
1478503658.35,1.469223,-0.508536,2.524585,-0.786994,-1.233201,3.387290,0.868957,0.486899,-0.088567,-0.173781,0.588861,0.141805,38.103760,15.568970,-24.703857,,,,,,
1478503658.37,1.457574,-0.445259,2.546275,-0.525061,-0.991327,3.203139,0.896721,0.430691,-0.101965,-0.260368,0.568622,0.166159,39.297546,13.619385,-25.368896,,,,,,
1478503658.39,1.447852,-0.385298,2.562363,-0.301262,-0.716343,3.002759,0.919692,0.375835,-0.113644,-0.333464,0.582233,0.185253,39.366150,11.520325,-25.967285,,,,,,
1478503658.41,1.440545,-0.330379,2.574123,-0.144020,-0.499401,2.680750,0.937907,0.324402,-0.122859,-0.390894,0.633301,0.180843,39.954895,7.546021,-26.635986,,,,,,
1478503658.43,1.434670,-0.283473,2.581702,0.006447,-0.370397,2.200227,0.951208,0.279692,-0.130290,-0.443655,0.671099,0.184490,39.954895,7.546021,-26.635986,,,,,,
1478503658.45,1.429566,-0.245761,2.585342,0.134352,-0.261553,1.738772,0.960295,0.243295,-0.136532,-0.492186,0.652534,0.210934,40.101074,6.045898,-26.634155,,,,,,
1478503658.47,1.426116,-0.215342,2.586789,0.115423,-0.147175,1.422337,0.966697,0.213682,-0.140846,-0.519614,0.647967,0.243721,40.246094,4.095947,-26.707031,,,,,,
1478503658.49,1.425461,-0.189887,2.593399,-0.339233,-0.086921,1.248363,0.971672,0.188747,-0.142221,-0.529488,0.737934,0.242441,40.616577,2.896851,-27.453613,,,,,,
1478503658.51,1.425832,-0.172479,2.610821,-0.946013,-0.178752,0.784240,0.974829,0.171625,-0.142314,-0.536948,0.915045,0.186564,40.313049,1.246521,-27.155151,,,,,,
1478503658.53,1.425514,-0.171014,2.635597,-1.318781,-0.260978,-0.128894,0.975031,0.170182,-0.142660,-0.551173,1.100997,0.101140,40.313049,1.246521,-27.155151,,,,,,
1478503658.55,1.423964,-0.193134,2.659043,-1.241391,-0.262114,-1.437738,0.970847,0.191936,-0.143585,-0.564795,0.950795,0.095764,39.939514,1.771667,-27.083130,,,,,,
1478503658.57,1.425938,-0.239004,2.671549,-0.727848,0.134815,-2.589437,0.961398,0.236735,-0.140249,-0.547489,0.577398,0.115468,40.166504,2.746887,-27.307007,,,,,,
1478503658.59,1.434180,-0.298396,2.669401,-0.073029,0.631163,-3.108199,0.946903,0.293988,-0.130174,-0.451527,0.275257,0.129258,39.945557,4.547363,-27.534546,,,,,,
1478503658.61,1.447351,-0.356148,2.655020,0.503787,1.041221,-2.785239,0.930115,0.348666,-0.115405,-0.334396,0.035092,0.168338,39.658569,9.121216,-26.713989,,,,,,
1478503658.63,1.464379,-0.400006,2.635199,0.688360,1.313514,-1.994781,0.915848,0.389424,-0.097832,-0.252213,-0.004414,0.167504,39.658569,9.121216,-26.713989,,,,,,
1478503658.65,1.485250,-0.429789,2.622332,0.214193,1.264956,-1.323485,0.905729,0.416679,-0.077671,-0.262770,0.115898,0.114094,39.364441,10.845337,-25.967041,,,,,,
1478503658.67,1.509565,-0.451631,2.628273,-0.708497,0.962182,-0.960842,0.898050,0.436433,-0.055058,-0.275232,0.287123,0.024418,39.291870,11.369385,-25.367798,,,,,,
1478503658.69,1.534847,-0.469658,2.655562,-1.587952,0.471453,-0.803123,0.891147,0.452581,-0.032050,-0.266742,0.424235,-0.084374,39.601379,13.691589,-23.566650,,,,,,
1478503658.71,1.558500,-0.486833,2.700294,-2.252009,-0.041916,-0.861345,0.883752,0.467829,-0.010868,-0.253549,0.556341,-0.193478,40.056274,15.190430,-22.963867,,,,,,
1478503658.73,1.577280,-0.507945,2.758327,-2.735856,-0.724391,-1.212120,0.873728,0.486382,0.005665,-0.252756,0.643378,-0.317326,40.056274,15.190430,-22.963867,,,,,,
1478503658.75,1.586360,-0.538455,2.826096,-3.035547,-1.568639,-1.801150,0.858398,0.512810,0.013361,-0.262787,0.605995,-0.392512,39.836670,16.914795,-22.441528,,,,,,
1478503658.77,1.584213,-0.580564,2.899937,-3.145533,-2.358249,-2.372189,0.836078,0.548496,0.011218,-0.241153,0.471478,-0.401202,38.492798,18.864502,-21.852539,,,,,,
1478503658.79,1.574604,-0.632060,2.976034,-3.098994,-2.802146,-2.737445,0.806806,0.590808,0.003072,-0.200819,0.318753,-0.337652,34.081970,24.792175,-22.113647,,,,,,
1478503658.81,1.563377,-0.688580,3.051698,-2.945131,-2.918283,-2.875872,0.772128,0.635441,-0.005729,-0.140780,0.220806,-0.284157,31.763611,27.493469,-22.207275,,,,,,
1478503658.83,1.554882,-0.746265,3.123522,-2.629145,-2.702454,-2.859561,0.734136,0.678901,-0.011684,-0.085531,0.161659,-0.219761,31.763611,27.493469,-22.207275,,,,,,
1478503658.85,1.550814,-0.804001,-3.095382,-2.196206,-2.308337,-2.876943,0.693693,0.720138,-0.013863,-0.007505,0.188447,-0.187278,28.697083,30.644531,-21.931885,,,,,,
1478503658.87,1.551095,-0.863048,-3.040523,-1.766819,-1.859841,-2.977458,0.649998,0.759828,-0.012807,0.070522,0.205977,-0.166056,25.103821,33.045776,-21.510010,,,,,,
1478503658.89,1.557405,-0.923721,-2.992570,-1.454700,-1.383374,-3.048854,0.602802,0.797850,-0.008073,0.162045,0.187379,-0.146575,19.415405,36.947266,-20.654663,,,,,,
1478503658.91,1.572100,-0.984626,-2.948495,-1.224906,-0.887607,-3.062184,0.553175,0.833065,0.000721,0.254122,0.157444,-0.148487,17.019531,38.297852,-20.223389,,,,,,
1478503658.93,1.595376,-1.045465,-2.906039,-1.002964,-0.514067,-3.080694,0.501348,0.865158,0.012325,0.353953,0.150330,-0.185970,17.019531,38.297852,-20.223389,,,,,,
1478503658.95,1.623413,-1.105146,-2.866027,-0.747072,-0.288609,-2.989148,0.448382,0.893530,0.023614,0.452054,0.088373,-0.223748,14.025024,39.798096,-19.346558,,,,,,
1478503658.97,1.653106,-1.159891,-2.827929,-0.562414,-0.241915,-2.679500,0.398088,0.916759,0.032840,0.554015,-0.067913,-0.238865,10.877686,40.323608,-18.695435,,,,,,
1478503658.99,1.682147,-1.207169,-2.790284,-0.438367,-0.331241,-2.293334,0.353464,0.934613,0.039522,0.615774,-0.123852,-0.231035,5.858032,41.824951,-17.908813,,,,,,
1478503659.01,1.710212,-1.247053,-2.752076,-0.369449,-0.431997,-1.956420,0.315031,0.948051,0.044207,0.687440,-0.093879,-0.220477,3.459167,41.900391,-17.401733,,,,,,
1478503659.03,1.739211,-1.281868,-2.711561,-0.318782,-0.519687,-1.760140,0.280894,0.958550,0.047759,0.775411,-0.034203,-0.220656,3.459167,41.900391,-17.401733,,,,,,
1478503659.05,1.769517,-1.312824,-2.667730,-0.296000,-0.657257,-1.561808,0.250100,0.966909,0.050365,0.928627,0.103373,-0.241237,2.111206,42.500671,-17.187134,,,,,,
1478503659.07,1.796632,-1.339864,-2.622681,-0.199040,-0.965114,-1.395809,0.223073,0.973453,0.051252,1.075099,0.219814,-0.254774,0.160400,42.051453,-16.976685,,,,,,
1478503659.09,1.809841,-1.365390,-2.584668,-0.064498,-1.339920,-1.314662,0.198165,0.978978,0.048294,1.127015,0.129542,-0.208862,-3.062500,42.201843,-16.175781,,,,,,
1478503659.11,1.814372,-1.388345,-2.548981,-0.079646,-1.636864,-1.102458,0.176085,0.983402,0.043759,1.069384,-0.166996,-0.140484,-4.712646,42.428162,-16.488403,,,,,,
1478503659.13,1.820373,-1.402078,-2.507064,-0.265287,-1.855277,-0.498510,0.162716,0.985801,0.041475,0.899189,-0.545814,-0.103456,-4.712646,42.428162,-16.488403,,,,,,
1478503659.15,1.824840,-1.399563,-2.462478,-0.460944,-2.063459,0.350203,0.164929,0.985375,0.042824,0.721455,-0.765481,-0.091774,-6.062439,42.128113,-16.048340,,,,,,
1478503659.17,1.812552,-1.382045,-2.430876,-0.476292,-2.254853,0.994432,0.182176,0.982239,0.044921,0.584044,-0.737809,-0.100844,-6.961121,42.127502,-15.380127,,,,,,
1478503659.19,1.773069,-1.357146,-2.424360,-0.230205,-2.313606,1.302449,0.207706,0.977263,0.042596,0.492352,-0.663421,-0.049981,-6.806885,42.575134,-13.804199,,,,,,
1478503659.21,1.709709,-1.330212,-2.444502,0.136394,-2.107648,1.396762,0.235975,0.971199,0.032992,0.448183,-0.574135,0.029340,-6.806885,42.575134,-13.804199,,,,,,
1478503659.23,1.635612,-1.303455,-2.483512,0.479123,-1.613306,1.380861,0.263613,0.964477,0.017110,0.460386,-0.446105,0.127024,-6.355591,42.874390,-13.500977,,,,,,
1478503659.25,1.565972,-1.276991,-2.533317,0.755183,-0.745526,1.332090,0.289593,0.957149,-0.001397,0.517796,-0.306468,0.236764,-5.604370,42.873108,-12.895386,,,,,,
1478503659.27,1.510559,-1.250286,-2.589595,0.985892,0.307334,1.313658,0.314479,0.949075,-0.018966,0.612752,-0.176263,0.294296,-4.180542,42.873291,-13.484619,,,,,,
1478503659.29,1.472124,-1.220354,-2.650007,1.195705,1.279055,1.525167,0.341643,0.939221,-0.033820,0.701035,-0.128521,0.268882,-2.832214,43.024231,-14.524658,,,,,,
1478503659.31,1.451149,-1.180517,-2.708050,1.284402,1.835840,2.133701,0.377727,0.924803,-0.045411,0.778447,-0.169645,0.178620,-1.034546,42.874756,-15.486084,,,,,,
1478503659.33,1.449786,-1.126123,-2.747639,0.978304,1.594128,2.907342,0.427017,0.902751,-0.051927,0.802017,-0.155605,0.013536,-1.034546,42.874756,-15.486084,,,,,,
1478503659.35,1.460287,-1.059429,-2.758536,0.421460,0.627405,3.509325,0.486385,0.872076,-0.053970,0.740727,-0.013495,-0.109391,1.437805,42.725342,-16.667358,,,,,,
1478503659.37,1.466336,-0.984890,-2.750726,0.111963,-0.392865,3.879623,0.549941,0.833211,-0.057657,0.638261,0.133326,-0.133658,7.883667,41.673157,-17.368408,,,,,,
1478503659.39,1.458779,-0.904778,-2.740529,0.178733,-0.965488,4.125697,0.613988,0.786288,-0.069066,0.541484,0.265287,-0.052241,11.107300,41.071472,-17.343994,,,,,,
1478503659.41,1.442328,-0.820601,-2.734335,0.391423,-1.090849,4.285667,0.676163,0.731556,-0.087347,0.430465,0.404599,0.066412,14.253296,40.020935,-17.994995,,,,,,
1478503659.43,1.422656,-0.733691,-2.732029,0.580685,-1.054391,4.364360,0.734573,0.669616,-0.109623,0.317795,0.474550,0.115909,14.253296,40.020935,-17.994995,,,,,,
1478503659.45,1.403333,-0.646861,-2.729954,0.600406,-1.035183,4.287795,0.786816,0.602685,-0.133008,0.192050,0.520148,0.146039,17.623840,38.594849,-18.418945,,,,,,
1478503659.47,1.385284,-0.563703,-2.725325,0.510181,-1.042993,4.060574,0.830779,0.534320,-0.155912,0.071504,0.527280,0.174681,23.836060,34.769226,-20.095459,,,,,,
1478503659.49,1.367867,-0.486900,-2.718440,0.413218,-1.054827,3.716225,0.865653,0.467888,-0.178118,-0.040168,0.519279,0.203432,26.380249,32.743469,-20.450317,,,,,,
1478503659.51,1.351065,-0.417781,-2.709414,0.270637,-1.040968,3.355620,0.892016,0.405733,-0.199220,-0.131121,0.501906,0.233995,28.623779,30.868652,-21.332520,,,,,,
1478503659.53,1.335142,-0.356246,-2.697044,0.086750,-1.048453,3.115108,0.911310,0.348758,-0.218820,-0.205926,0.461285,0.254464,28.623779,30.868652,-21.332520,,,,,,
1478503659.55,1.319907,-0.297580,-2.681640,-0.058312,-0.994639,3.000376,0.926117,0.293208,-0.237354,-0.251892,0.461889,0.264286,30.117065,28.844177,-22.145386,,,,,,
1478503659.57,1.304950,-0.242783,-2.663812,-0.168903,-0.992860,2.798575,0.936573,0.240405,-0.255021,-0.281086,0.516385,0.264985,33.106384,25.243958,-23.021118,,,,,,
1478503659.59,1.289928,-0.194270,-2.645495,-0.226191,-0.922968,2.458579,0.942741,0.193050,-0.271976,-0.296775,0.607701,0.275379,33.925293,23.219360,-23.538940,,,,,,
1478503659.61,1.276475,-0.153540,-2.627316,-0.328802,-0.767824,2.088398,0.945741,0.152938,-0.286677,-0.278993,0.765092,0.279887,34.746033,21.719238,-23.756958,,,,,,
1478503659.63,1.266230,-0.121065,-2.607685,-0.540843,-0.592062,1.682455,0.946994,0.120770,-0.297685,-0.236209,0.992008,0.265001,34.746033,21.719238,-23.756958,,,,,,
1478503659.65,1.258069,-0.101505,-2.586949,-0.771316,-0.480516,0.950773,0.946601,0.101331,-0.306071,-0.245001,1.156985,0.249613,35.491333,20.369873,-24.425781,,,,,,
1478503659.67,1.252243,-0.100831,-2.569693,-0.803262,-0.306238,-0.147167,0.944866,0.100660,-0.311602,-0.273235,1.226367,0.249941,36.388855,19.244202,-24.268433,,,,,,
1478503659.69,1.251788,-0.123917,-2.563781,-0.489497,0.133203,-1.525702,0.942266,0.123600,-0.311220,-0.435689,0.913875,0.271242,36.014099,19.244141,-24.121216,,,,,,
1478503659.71,1.259829,-0.165917,-2.576209,0.212119,0.717375,-2.494624,0.938964,0.165156,-0.301778,-0.463622,0.447804,0.288152,35.567383,20.519348,-24.050293,,,,,,
