timestamp(unix),attitude_roll(radians),attitude_pitch(radians),attitude_yaw(radians),rotation_rate_x(radians/s),rotation_rate_y(radians/s),rotation_rate_z(radians/s),gravity_x(G),gravity_y(G),gravity_z(G),user_acc_x(G),user_acc_y(G),user_acc_z(G),magnetic_field_x(microteslas),magnetic_field_y(microteslas),magnetic_field_z(microteslas),latitude(degree),longitude(degree),altitude(meter),speed(m/s),course(degree),timestamp(unix)
1478503696.67,0.391002,-0.264109,1.859461,0.079611,0.020609,-0.091350,0.367900,0.261049,-0.892470,-0.067455,0.022978,-0.000612,5.013306,-8.616882,-39.714844,,,,,,
,,,,,,,,,,,,,,,,37.391756,-122.011203,10.924927,1.560000,-1.000000,1478503688.00
,,,,,,,,,,,,,,,,37.391756,-122.011203,10.924927,1.560000,-1.000000,1478503680.00
1478503696.69,0.391142,-0.263334,1.857049,0.079621,0.031233,-0.087108,0.368102,0.260301,-0.892605,-0.048766,-0.004426,-0.024539,4.488770,-8.617004,-39.493774,,,,,,
,,,,,,,,,,,,,,,,37.391756,-122.011203,10.924927,1.560000,-1.000000,1478503688.00
1478503696.71,0.390939,-0.262381,1.855185,0.080390,0.013091,-0.049818,0.368015,0.259381,-0.892909,-0.039463,-0.015286,-0.009053,4.563721,-8.692200,-39.418213,,,,,,
1478503696.73,0.390491,-0.261185,1.853857,0.070660,-0.012408,-0.041317,0.367733,0.258226,-0.893360,-0.042080,-0.002046,-0.017635,4.712830,-8.766785,-39.717041,,,,,,
,,,,,,,,,,,,,,,,37.391785,-122.010946,10.924927,-1.000000,-1.000000,1478503696.74
1478503696.75,0.390243,-0.260914,1.852410,0.023011,0.018629,-0.070368,0.367538,0.257964,-0.893516,-0.057144,0.001802,0.004951,4.636963,-9.216858,-39.642456,,,,,,
,,,,,,,,,,,,,,,,37.391814,-122.010699,10.924927,-1.000000,-1.000000,1478503696.75
1478503696.77,0.390923,-0.261344,1.850825,0.004125,0.078249,-0.083336,0.368103,0.258379,-0.893163,-0.060913,-0.002336,0.011098,4.636963,-9.216858,-39.642456,,,,,,
1478503696.79,0.392146,-0.262052,1.849255,-0.005477,0.076152,-0.082321,0.369125,0.259063,-0.892543,-0.053268,-0.010666,-0.014577,4.788574,-8.767395,-39.341431,,,,,,
1478503696.81,0.393053,-0.262591,1.847820,0.010347,0.062249,-0.065181,0.369881,0.259584,-0.892079,-0.040017,-0.012361,-0.016888,4.789124,-8.692566,-39.191528,,,,,,
1478503696.83,0.390548,-0.262120,1.845836,-0.003635,0.033576,-0.059893,0.367692,0.259129,-0.893115,-0.031190,-0.006169,-0.030194,5.162109,-9.067017,-39.713501,,,,,,
1478503696.85,0.388048,-0.261682,1.844103,-0.014407,-0.002538,-0.060962,0.365501,0.258706,-0.894137,-0.018470,-0.012551,-0.035368,4.862915,-8.691772,-39.791016,,,,,,
1478503696.87,0.385723,-0.261305,1.842725,-0.026235,-0.024837,-0.055671,0.363457,0.258342,-0.895074,-0.015099,-0.015773,-0.025336,4.862915,-8.691772,-39.791016,,,,,,
,,,,,,,,,,,,,,,,37.391841,-122.010457,10.924927,-1.000000,-1.000000,1478503696.86
1478503696.89,0.383727,-0.260853,1.841427,0.019648,0.017516,-0.043774,0.361714,0.257904,-0.895906,-0.021611,-0.008316,-0.020628,4.863525,-8.692200,-39.490967,,,,,,
1478503696.91,0.382814,-0.259715,1.839518,0.081777,0.088568,-0.058444,0.361005,0.256806,-0.896508,-0.021619,-0.006455,-0.008323,5.237793,-8.917236,-39.563110,,,,,,
1478503696.93,0.383322,-0.257810,1.837274,0.104336,0.136340,-0.061587,0.361643,0.254964,-0.896776,-0.023722,-0.009007,0.000460,5.086670,-9.066650,-39.939209,,,,,,
1478503696.95,0.385346,-0.256331,1.834792,0.112189,0.190592,-0.094626,0.363599,0.253533,-0.896391,-0.012067,0.000923,0.012190,4.711914,-9.141785,-39.716797,,,,,,
1478503696.97,0.390101,-0.254293,1.831677,0.181009,0.367920,-0.097711,0.368053,0.251561,-0.895128,-0.029094,-0.017186,0.064775,4.711914,-9.141785,-39.716797,,,,,,
1478503696.99,0.399757,-0.251080,1.828192,0.230897,0.626096,-0.094637,0.376991,0.248450,-0.892273,-0.025825,-0.019446,0.096344,5.985779,-9.517273,-39.857056,,,,,,
1478503697.01,0.413639,-0.247826,1.824204,0.214800,0.816531,-0.139724,0.389664,0.245297,-0.887689,-0.028671,0.001392,0.101266,5.911011,-9.667603,-39.557617,,,,,,
1478503697.03,0.430088,-0.245827,1.820011,0.156620,0.914548,-0.150838,0.404416,0.243358,-0.881603,-0.032529,-0.023204,0.112881,6.886047,-9.743225,-39.475220,,,,,,
1478503697.05,0.449550,-0.245005,1.815182,0.139750,1.141179,-0.222597,0.421583,0.242561,-0.873746,-0.021971,0.002816,0.159131,7.709656,-10.268677,-39.468750,,,,,,
1478503697.07,0.474233,-0.244659,1.809331,0.142088,1.426172,-0.266662,0.443057,0.242225,-0.863150,-0.026340,0.000267,0.202047,7.709656,-10.268677,-39.468750,,,,,,
1478503697.09,0.505039,-0.245885,1.802131,0.088711,1.769972,-0.397348,0.469288,0.243415,-0.848833,-0.040822,0.034173,0.231218,9.435913,-10.195312,-38.930908,,,,,,
1478503697.11,0.542667,-0.250127,1.792180,0.052100,2.173418,-0.620643,0.500351,0.247527,-0.829686,-0.043030,0.107468,0.276112,10.785950,-10.496582,-38.545654,,,,,,
1478503697.13,0.587279,-0.257532,1.776844,0.119642,2.600123,-0.961561,0.535824,0.254695,-0.804999,-0.079648,0.149785,0.279715,12.511719,-10.573120,-38.082642,,,,,,
1478503697.15,0.639404,-0.267636,1.754536,0.277063,3.128610,-1.308527,0.575473,0.264453,-0.773883,-0.099933,0.171323,0.326083,14.313354,-10.274719,-37.619385,,,,,,
1478503697.17,0.701875,-0.279765,1.724345,0.528796,3.820513,-1.654159,0.620548,0.276130,-0.733943,-0.097767,0.186425,0.348582,14.313354,-10.274719,-37.619385,,,,,,
1478503697.19,0.776163,-0.293936,1.686203,0.843325,4.582294,-1.951650,0.670501,0.289722,-0.683001,-0.091018,0.201856,0.375826,20.318420,-9.905884,-35.549561,,,,,,
1478503697.21,0.863734,-0.310250,1.638527,1.281015,5.439449,-2.299706,0.723976,0.305296,-0.618589,-0.040566,0.235170,0.358488,23.621582,-9.985046,-33.874756,,,,,,
1478503697.23,0.961361,-0.332629,1.580883,1.583990,5.999517,-2.736403,0.775026,0.326529,-0.541029,0.000944,0.245141,0.240828,27.226257,-9.840088,-31.672607,,,,,,
1478503697.25,1.061119,-0.364801,1.518524,1.666168,6.094423,-3.047994,0.815461,0.356763,-0.455790,0.051895,0.228534,0.142756,30.758789,-9.396667,-28.496460,,,,,,
1478503697.27,1.155858,-0.407031,1.455729,1.679639,5.844983,-3.297697,0.840375,0.395884,-0.370198,0.086582,0.239919,0.047657,30.758789,-9.396667,-28.496460,,,,,,
1478503697.29,1.241280,-0.457587,1.394851,1.655398,5.403004,-3.416381,0.848855,0.441785,-0.290296,0.128455,0.218356,-0.033923,38.205017,-7.312378,-20.491577,,,,,,
1478503697.31,1.314710,-0.513847,1.339181,1.493334,4.735894,-3.426901,0.842460,0.491531,-0.220586,0.165550,0.227997,-0.122264,41.067261,-5.519592,-16.645996,,,,,,
1478503697.33,1.374497,-0.573571,1.289227,1.400234,4.065295,-3.394457,0.823837,0.542635,-0.163828,0.204560,0.208952,-0.152746,42.504822,-3.425781,-12.961304,,,,,,
1478503697.35,1.420355,-0.634269,1.242554,1.368542,3.381644,-3.308430,0.796407,0.592588,-0.120725,0.228434,0.199724,-0.190372,43.191101,-1.480957,-9.732178,,,,,,
1478503697.37,1.452407,-0.694160,1.199364,1.228843,2.701413,-3.154874,0.763211,0.639740,-0.090780,0.256564,0.164429,-0.192789,43.191101,-1.480957,-9.732178,,,,,,
1478503697.39,1.473760,-0.751938,1.163413,0.907736,2.002565,-2.962901,0.726931,0.683055,-0.070761,0.288969,0.123433,-0.205972,43.888794,3.761475,-4.929565,,,,,,
1478503697.41,1.486410,-0.806326,1.138134,0.505034,1.236892,-2.707404,0.689692,0.721749,-0.058339,0.298620,0.069007,-0.233287,43.448364,6.158997,-3.134155,,,,,,
1478503697.43,1.491160,-0.855474,1.124224,0.147643,0.481551,-2.366513,0.653782,0.754882,-0.052175,0.273479,0.004289,-0.244059,42.930969,8.332642,-2.088989,,,,,,
1478503697.45,1.488630,-0.897443,1.118909,-0.070083,-0.154195,-1.976071,0.621507,0.781735,-0.051182,0.247572,-0.037640,-0.236278,41.815369,11.857788,-1.799194,,,,,,
1478503697.48,1.478655,-0.932663,1.118189,-0.147283,-0.637180,-1.655345,0.593170,0.803209,-0.054811,0.219299,-0.024736,-0.200164,41.815369,11.857788,-1.799194,,,,,,
1478503697.50,1.461952,-0.962897,1.117378,-0.111080,-0.885373,-1.450384,0.567765,0.820850,-0.062043,0.203643,0.002072,-0.131789,41.593384,13.508728,-2.326660,,,,,,
1478503697.52,1.440382,-0.990967,1.114692,-0.087275,-1.017346,-1.412795,0.543229,0.836556,-0.071249,0.207305,0.037315,-0.075861,41.370178,14.634644,-2.853882,,,,,,
1478503697.54,1.415345,-1.019253,1.110127,-0.081802,-1.070427,-1.465909,0.517684,0.851717,-0.081129,0.212709,0.032683,-0.031435,40.472412,15.985840,-3.386353,,,,,,
1478503697.56,1.389011,-1.049805,1.103343,-0.088240,-1.000020,-1.589534,0.489538,0.867326,-0.089984,0.236505,-0.003847,0.031497,39.273071,17.789368,-5.346191,,,,,,
1478503697.58,1.363296,-1.081930,1.095091,-0.138687,-0.883894,-1.634696,0.459552,0.882866,-0.096750,0.261686,-0.069084,0.042917,39.273071,17.789368,-5.346191,,,,,,
1478503697.60,1.339452,-1.113883,1.086389,-0.158767,-0.769100,-1.592479,0.429427,0.897418,-0.101157,0.290346,-0.131763,0.040564,38.300049,19.065796,-5.954102,,,,,,
1478503697.62,1.315834,-1.144672,1.076145,-0.158829,-0.710702,-1.549988,0.399983,0.910574,-0.104250,0.339641,-0.134436,0.012544,37.927795,20.491516,-6.332642,,,,,,
1478503697.64,1.288573,-1.175373,1.062219,-0.125729,-0.745836,-1.581688,0.369960,0.922834,-0.107275,0.368031,-0.147184,0.003377,36.879883,21.617676,-6.716064,,,,,,
1478503697.66,1.255646,-1.206062,1.042671,-0.096999,-0.726822,-1.565591,0.339133,0.934219,-0.110563,0.407769,-0.214034,0.034345,34.782410,23.420166,-7.707642,,,,,,
1478503697.68,1.219705,-1.233677,1.018643,-0.035125,-0.624277,-1.351443,0.310592,0.943711,-0.113759,0.462082,-0.307405,0.088125,34.782410,23.420166,-7.707642,,,,,,
1478503697.70,1.184586,-1.254727,0.992237,0.044397,-0.436952,-1.015974,0.287938,0.950464,-0.117085,0.496882,-0.360056,0.123097,34.183655,24.471497,-8.387573,,,,,,
1478503697.72,1.153891,-1.269826,0.967337,0.034756,-0.306601,-0.763939,0.271055,0.955049,-0.120041,0.530169,-0.346163,0.120560,33.136047,25.597351,-8.621094,,,,,,
1478503697.74,1.129544,-1.282632,0.947505,-0.053968,-0.255419,-0.686796,0.256972,0.958767,-0.121371,0.558290,-0.331249,0.115176,33.136658,25.972534,-8.771240,,,,,,
1478503697.76,1.117531,-1.296237,0.939329,-0.272368,-0.186742,-0.646585,0.243745,0.962545,-0.118726,0.564101,-0.350347,0.125394,31.562378,26.574036,-9.158325,,,,,,
1478503697.78,1.116921,-1.308166,0.942200,-0.272621,-0.151003,-0.415644,0.233336,0.965710,-0.113832,0.582506,-0.447446,0.154420,31.562378,26.574036,-9.158325,,,,,,
1478503697.80,1.121545,-1.311642,0.948348,-0.072795,0.013305,0.089776,0.230834,0.966607,-0.111293,0.606476,-0.518289,0.198375,30.963013,26.949524,-9.312988,,,,,,
1478503697.82,1.143338,-1.302595,0.965476,0.015147,0.432869,0.742159,0.241154,0.964249,-0.109857,0.695782,-0.406434,0.219934,31.114136,26.948547,-8.711914,,,,,,
1478503697.84,1.177291,-1.284921,0.985907,0.177214,0.883772,0.972295,0.260444,0.959415,-0.108126,0.836129,-0.080433,0.189775,31.188965,26.873535,-8.711304,,,,,,
1478503697.86,1.197714,-1.265828,0.984896,0.496761,1.170092,0.799037,0.279607,0.953857,-0.109442,0.917292,0.113465,0.148611,31.712646,25.596802,-7.806763,,,,,,
1478503697.88,1.204584,-1.248882,0.963348,0.668401,1.530223,0.639758,0.295404,0.948631,-0.113291,0.952780,0.061180,0.190073,31.712646,25.596802,-7.806763,,,,,,
1478503697.90,1.221954,-1.229514,0.943511,0.600870,1.974278,0.954867,0.314537,0.942326,-0.114402,0.861977,-0.213032,0.205055,32.311707,24.845825,-7.351929,,,,,,
1478503697.92,1.263926,-1.201130,0.943844,0.352220,2.122747,1.618587,0.344425,0.932448,-0.109142,0.739238,-0.414076,0.114330,32.912537,24.394104,-6.372192,,,,,,
1478503697.94,1.321961,-1.160703,0.963486,0.112747,1.895852,2.308476,0.386415,0.917084,-0.098189,0.595457,-0.454941,-0.010927,35.013000,22.739563,-4.030640,,,,,,
1478503697.96,1.378531,-1.108888,0.989704,-0.020986,1.499819,2.859755,0.437445,0.895204,-0.085157,0.469354,-0.390931,-0.088106,36.211487,21.087036,-2.745728,,,,,,
1478503697.98,1.425286,-1.048510,1.014133,-0.078733,1.145363,3.208069,0.493591,0.866681,-0.072334,0.376160,-0.224423,-0.114846,36.211487,21.087036,-2.745728,,,,,,
1478503698.00,1.461570,-0.983137,1.032728,-0.057938,0.991908,3.374479,0.551110,0.832241,-0.060436,0.325812,0.018269,-0.096531,37.409241,19.134521,-1.460815,,,,,,
1478503698.02,1.490587,-0.916174,1.043958,0.024224,1.026729,3.372748,0.606902,0.793278,-0.048784,0.304399,0.179165,-0.091994,39.428528,16.507812,-0.994263,,,,,,
1478503698.04,1.516232,-0.850390,1.048357,0.114906,1.180777,3.267627,0.658708,0.751538,-0.035978,0.307845,0.325748,-0.109423,41.897583,11.927490,1.726440,,,,,,
1478503698.06,1.540842,-0.788882,1.047658,0.177938,1.301243,2.965472,0.704323,0.709566,-0.021104,0.297142,0.461241,-0.166182,42.567139,9.226074,2.407837,,,,,,
1478503698.08,1.565030,-0.734098,1.043639,0.203723,1.388916,2.638679,0.742423,0.669918,-0.004281,0.280114,0.495137,-0.177543,42.567139,9.226074,2.407837,,,,,,
1478503698.10,1.589795,-0.684701,1.037722,0.213978,1.473279,2.408675,0.774469,0.632441,0.014716,0.279136,0.463277,-0.180091,43.237244,6.900085,2.864014,,,,,,
1478503698.12,1.615817,-0.638767,1.031070,0.162721,1.523630,2.285899,0.802018,0.596206,0.036132,0.246429,0.398042,-0.208465,43.684326,4.722961,4.143433,,,,,,
1478503698.14,1.641571,-0.593165,1.025454,0.053295,1.399503,2.338712,0.827100,0.558988,0.058635,0.197955,0.316256,-0.249843,44.429260,1.119629,6.100830,,,,,,
1478503698.16,1.664167,-0.544623,1.021824,-0.121400,1.128637,2.525517,0.851597,0.518096,0.079746,0.131695,0.263261,-0.278507,44.424194,-0.980530,6.176880,,,,,,
1478503698.18,1.682548,-0.491112,1.021750,-0.369119,0.797303,2.771623,0.876309,0.471606,0.098338,0.070698,0.268201,-0.292568,44.424194,-0.980530,6.176880,,,,,,
1478503698.20,1.695626,-0.432996,1.025510,-0.585498,0.443690,2.933841,0.900650,0.419592,0.113016,0.010285,0.322962,-0.290613,44.119324,-3.230896,6.550781,,,,,,
1478503698.22,1.702881,-0.372195,1.032384,-0.777894,0.116706,3.023764,0.923417,0.363661,0.122684,-0.081636,0.410509,-0.279010,44.713196,-5.781433,6.706543,,,,,,
1478503698.24,1.705329,-0.311037,1.041526,-0.864509,-0.101896,2.953364,0.943414,0.306046,0.127691,-0.150476,0.496017,-0.246176,44.473633,-11.556213,6.632568,,,,,,
1478503698.26,1.704925,-0.253121,1.051166,-0.821864,-0.169697,2.739738,0.959440,0.250427,0.129466,-0.227613,0.569977,-0.236369,44.240845,-14.105042,5.957031,,,,,,
1478503698.28,1.703272,-0.200716,1.058305,-0.602732,-0.150777,2.460950,0.971338,0.199371,0.129436,-0.296533,0.610124,-0.235836,44.240845,-14.105042,5.957031,,,,,,
1478503698.30,1.701853,-0.154942,1.060763,-0.309632,-0.054432,2.151580,0.979548,0.154323,0.129116,-0.356440,0.622960,-0.224133,43.558228,-16.879150,5.578247,,,,,,
1478503698.32,1.701878,-0.116251,1.058250,-0.034499,0.055818,1.827187,0.984729,0.115989,0.129825,-0.406742,0.620187,-0.210544,41.748230,-20.627808,5.266602,,,,,,
1478503698.34,1.703237,-0.084639,1.052552,0.125506,0.115439,1.486272,0.987694,0.084538,0.131581,-0.448830,0.614451,-0.198140,40.995056,-21.977539,5.336548,,,,,,
1478503698.36,1.705195,-0.060143,1.045530,0.215055,0.125330,1.140787,0.989190,0.060107,0.133752,-0.493814,0.608060,-0.196771,39.793213,-23.027588,5.778076,,,,,,
1478503698.38,1.707043,-0.042546,1.037992,0.278872,0.093835,0.798417,0.989836,0.042533,0.135703,-0.522322,0.616891,-0.190848,39.793213,-23.027588,5.778076,,,,,,
1478503698.40,1.707592,-0.032482,1.030215,0.342814,0.002898,0.402913,0.990135,0.032477,0.136297,-0.537941,0.631922,-0.185415,38.965576,-23.776550,5.397217,,,,,,
1478503698.42,1.706286,-0.030427,1.022436,0.380142,-0.075202,0.011501,0.990377,0.030422,0.135013,-0.518087,0.636570,-0.147892,38.441772,-23.852356,6.068481,,,,,,
1478503698.44,1.705528,-0.035143,1.017858,0.137532,0.009110,-0.327406,0.990326,0.035136,0.134241,-0.403961,0.791082,-0.108836,38.440918,-24.152222,5.993530,,,,,,
1478503698.46,1.706434,-0.045890,1.022653,-0.347777,0.024163,-0.735670,0.989772,0.045874,0.135080,-0.319042,0.958948,-0.203561,38.590942,-24.002014,5.844482,,,,,,
1478503698.48,1.705074,-0.066937,1.036699,-0.639364,-0.230926,-1.439454,0.988779,0.066887,0.133575,-0.277079,1.068535,-0.317824,38.590942,-24.002014,5.844482,,,,,,
1478503698.50,1.695159,-0.105943,1.054397,-0.574282,-0.802368,-2.456952,0.986713,0.105745,0.123347,-0.270557,1.001295,-0.364650,38.515198,-23.926392,5.393921,,,,,,
1478503698.52,1.674465,-0.165666,1.068724,-0.230584,-1.305817,-3.356993,0.981014,0.164909,0.102066,-0.263271,0.661202,-0.234619,40.843445,-21.299988,3.685181,,,,,,
1478503698.54,1.646407,-0.238363,1.076740,-0.008468,-1.546116,-3.747145,0.968950,0.236112,0.073402,-0.254274,0.279666,-0.061943,41.972290,-18.898926,2.642456,,,,,,
1478503698.56,1.616719,-0.312083,1.081378,-0.027166,-1.535601,-3.647200,0.950693,0.307042,0.043689,-0.219476,-0.007161,0.067150,43.326355,-16.197632,1.301270,,,,,,
1478503698.58,1.590118,-0.379224,1.087270,-0.269017,-1.367618,-3.208082,0.928779,0.370199,0.017948,-0.206413,-0.120505,0.125226,43.326355,-16.197632,1.301270,,,,,,
1478503698.60,1.570221,-0.437675,1.096329,-0.453643,-1.072178,-2.815752,0.905739,0.423835,-0.000521,-0.126122,-0.042441,0.140337,44.530640,-13.346130,-0.116211,,,,,,
1478503698.62,1.558102,-0.490669,1.107683,-0.564646,-0.733071,-2.592269,0.881947,0.471216,-0.011196,-0.015781,0.131933,0.122158,45.736694,-8.542236,-3.109619,,,,,,
1478503698.64,1.554545,-0.541360,1.119941,-0.572118,-0.329155,-2.534377,0.856895,0.515302,-0.013927,0.111855,0.317019,0.096355,46.040833,-6.216125,-3.933472,,,,,,
1478503698.66,1.559054,-0.593051,1.132028,-0.532869,0.018577,-2.653915,0.829182,0.558894,-0.009737,0.258373,0.483877,0.006884,46.570374,-4.190918,-4.230469,,,,,,
1478503698.68,1.567792,-0.648759,1.142448,-0.380590,0.175860,-2.897088,0.796831,0.604198,-0.002394,0.382170,0.550496,-0.098116,46.570374,-4.190918,-4.230469,,,,,,
1478503698.70,1.575159,-0.709949,1.149704,-0.217196,0.092903,-3.178156,0.758388,0.651795,0.003309,0.461110,0.500732,-0.194364,46.949890,-1.940369,-4.753784,,,,,,
1478503698.72,1.575479,-0.773881,1.151726,0.044136,-0.148183,-3.195513,0.715196,0.698916,0.003349,0.452529,0.262601,-0.201896,46.362854,3.234924,-4.760742,,,,,,
1478503698.74,1.564639,-0.834472,1.146270,0.260731,-0.485315,-2.926620,0.671556,0.740942,-0.004135,0.451582,0.006189,-0.178238,46.369629,6.160400,-5.062134,,,,,,
1478503698.76,1.541853,-0.888642,1.134014,0.426038,-0.785150,-2.612293,0.630203,0.776216,-0.018246,0.461151,-0.132234,-0.108723,45.925781,8.710754,-5.141846,,,,,,
1478503698.78,1.510605,-0.935580,1.116308,0.419131,-0.881465,-2.242803,0.592277,0.804944,-0.035693,0.414346,-0.224392,0.008639,45.925781,8.710754,-5.141846,,,,,,
1478503698.80,1.482085,-0.975590,1.101903,0.144660,-0.823720,-1.930372,0.558475,0.828033,-0.049673,0.414257,-0.283141,0.092245,45.178345,10.662781,-6.273315,,,,,,
1478503698.82,1.465691,-1.010349,1.100870,-0.315166,-0.765372,-1.618960,0.528632,0.847017,-0.055767,0.370584,-0.308596,0.104580,43.009521,14.341125,-7.791504,,,,,,
1478503698.84,1.463977,-1.038933,1.116437,-0.673260,-0.760610,-1.251554,0.504250,0.861864,-0.054069,0.342598,-0.309556,0.058937,42.786438,15.466919,-8.243652,,,,,,
1478503698.86,1.470730,-1.062077,1.142965,-0.825272,-0.862589,-1.020173,0.484622,0.873369,-0.048657,0.351407,-0.249422,-0.022938,42.189209,16.667480,-8.398682,,,,,,
1478503698.88,1.478564,-1.083881,1.173629,-0.833120,-1.027298,-1.049771,0.465913,0.883780,-0.043094,0.345122,-0.148551,-0.117123,42.189209,16.667480,-8.398682,,,,,,
1478503698.90,1.482520,-1.107757,1.203245,-0.746464,-1.178292,-1.192772,0.444930,0.894699,-0.039379,0.340317,-0.165970,-0.129200,41.217346,18.694336,-9.307007,,,,,,
1478503698.92,1.479888,-1.134026,1.226881,-0.554034,-1.196779,-1.310911,0.421269,0.906122,-0.038403,0.372295,-0.212107,-0.105457,40.243530,19.595642,-9.839844,,,,,,
1478503698.94,1.469364,-1.161091,1.240327,-0.326707,-1.100748,-1.323646,0.396292,0.917238,-0.040335,0.411554,-0.271944,-0.066507,39.119690,20.647339,-10.598755,,,,,,
1478503698.96,1.452926,-1.186676,1.243533,-0.132638,-0.893154,-1.236671,0.372144,0.927128,-0.044069,0.484607,-0.300511,-0.002760,38.296753,21.923523,-11.130615,,,,,,
1478503698.98,1.432099,-1.209910,1.236836,0.027475,-0.629123,-1.139324,0.349713,0.935584,-0.048818,0.585910,-0.291724,0.051580,38.296753,21.923523,-11.130615,,,,,,
1478503699.00,1.409835,-1.230545,1.222109,0.125923,-0.271393,-1.009458,0.329410,0.942671,-0.053485,0.731030,-0.231672,0.094302,37.172974,23.651489,-12.714966,,,,,,
1478503699.02,1.392932,-1.247202,1.202385,0.231061,0.311563,-0.801126,0.312960,0.948098,-0.056259,0.912458,-0.115243,0.107071,36.197754,24.103027,-13.397339,,,,,,
1478503699.04,1.372565,-1.259203,1.167124,0.577111,0.866168,-0.632942,0.300572,0.951846,-0.060376,1.084636,-0.045749,0.090405,35.749146,24.628113,-13.326050,,,,,,
1478503699.06,1.338954,-1.264905,1.107373,0.966951,1.340703,-0.356881,0.293086,0.953579,-0.069194,1.186757,-0.110226,0.086528,35.298889,24.778809,-13.629395,,,,,,
1478503699.08,1.301061,-1.260614,1.037077,1.117563,1.482807,0.169593,0.294195,0.952278,-0.081337,1.129923,-0.361671,0.075218,35.298889,24.778809,-13.629395,,,,,,
1478503699.10,1.282652,-1.241838,0.991208,0.792064,1.074044,1.056219,0.309739,0.946379,-0.091804,0.880523,-0.637267,0.025871,35.300598,24.552124,-12.504272,,,,,,
1478503699.12,1.299262,-1.207985,0.996066,0.119719,0.283574,1.999003,0.341900,0.934903,-0.095189,0.614338,-0.785824,-0.015773,36.197998,23.501709,-12.497070,,,,,,
1478503699.14,1.338716,-1.163058,1.045893,-0.619685,-0.709220,2.648989,0.385903,0.918020,-0.091204,0.452156,-0.700781,-0.062772,36.270874,22.225830,-11.970947,,,,,,
1478503699.16,1.378423,-1.110089,1.116641,-1.014832,-1.498559,3.046142,0.436380,0.895738,-0.084999,0.355780,-0.534441,-0.043205,36.943054,20.950256,-11.815308,,,,,,
1478503699.18,1.401395,-1.052533,1.181802,-0.922825,-1.821163,3.144008,0.488281,0.868681,-0.083516,0.283539,-0.309645,0.014226,36.943054,20.950256,-11.815308,,,,,,
1478503699.20,1.406864,-0.991623,1.226440,-0.437350,-1.469604,3.049279,0.539994,0.836916,-0.089324,0.194808,-0.087846,0.105315,37.683716,17.575562,-12.257935,,,,,,
1478503699.22,1.402666,-0.934445,1.244459,0.208339,-0.622908,2.823736,0.585885,0.804269,-0.099444,0.183982,0.126608,0.177630,37.828735,15.775879,-12.480957,,,,,,
1478503699.24,1.400814,-0.883121,1.241060,0.760540,0.441433,2.337610,0.625595,0.772724,-0.107376,0.215531,0.371060,0.223633,37.823669,13.750854,-12.479980,,,,,,
1478503699.26,1.405882,-0.840542,1.219298,1.196450,1.437067,1.840304,0.658009,0.745005,-0.109510,0.297634,0.464911,0.191144,38.120239,12.250427,-12.327148,,,,,,
1478503699.28,1.422595,-0.804499,1.188642,1.371885,2.258906,1.502571,0.685871,0.720483,-0.102398,0.416500,0.495612,0.150616,38.120239,12.250427,-12.327148,,,,,,
1478503699.30,1.451489,-0.773391,1.156574,1.276325,2.756967,1.389515,0.710459,0.698566,-0.085167,0.444479,0.410840,0.031090,39.769653,9.620056,-9.313354,,,,,,
1478503699.32,1.490326,-0.740735,1.131609,0.922065,2.786326,1.668551,0.735584,0.674831,-0.059321,0.393688,0.194356,-0.153585,40.370605,8.416809,-7.358154,,,,,,
1478503699.34,1.532450,-0.701479,1.118984,0.371182,2.331232,2.114371,0.763327,0.645348,-0.029285,0.305292,0.150245,-0.291150,41.046875,7.288452,-5.327637,,,,,,
1478503699.36,1.569246,-0.654288,1.120605,-0.248043,1.455425,2.521070,0.793480,0.608594,-0.001230,0.214530,0.197863,-0.381597,42.022034,5.634766,-3.144531,,,,,,
1478503699.38,1.593479,-0.599843,1.133010,-0.675268,0.504719,2.846971,0.825212,0.564513,0.018721,0.124220,0.287980,-0.389784,42.022034,5.634766,-3.144531,,,,,,
1478503699.40,1.602277,-0.539871,1.148818,-0.754955,-0.235384,3.080785,0.857350,0.514026,0.026999,0.045574,0.374845,-0.339758,43.070984,2.704407,0.014893,,,,,,
1478503699.42,1.598190,-0.476539,1.161330,-0.562185,-0.641283,3.202751,0.888255,0.458706,0.024339,-0.039668,0.463855,-0.255693,43.441650,0.303040,0.843750,,,,,,
1478503699.44,1.587069,-0.413158,1.168543,-0.297960,-0.723911,3.152168,0.915736,0.401504,0.014902,-0.166102,0.523179,-0.166621,43.510010,-2.472290,0.995728,,,,,,
1478503699.46,1.575340,-0.352540,1.170771,-0.035283,-0.558601,2.976653,0.938489,0.345283,0.004264,-0.297559,0.556679,-0.096199,44.021118,-7.646729,0.477173,,,,,,
1478503699.48,1.566631,-0.296388,1.168107,0.224990,-0.296409,2.728591,0.956389,0.292067,-0.003983,-0.423675,0.576158,-0.053069,44.021118,-7.646729,0.477173,,,,,,
1478503699.50,1.562170,-0.245932,1.160834,0.449490,-0.022290,2.415380,0.969875,0.243461,-0.008366,-0.520747,0.601693,-0.020885,43.865845,-9.746643,0.477051,,,,,,
1478503699.52,1.562960,-0.202349,1.150076,0.595558,0.260692,2.043178,0.979567,0.200971,-0.007677,-0.566283,0.633029,0.005373,43.486694,-11.697021,0.850098,,,,,,
1478503699.54,1.568607,-0.167256,1.137268,0.662032,0.487727,1.590785,0.986043,0.166477,-0.002158,-0.591802,0.650463,0.013282,42.957947,-13.647583,1.372192,,,,,,
1478503699.56,1.579062,-0.140909,1.124473,0.601413,0.703400,1.183485,0.990055,0.140443,0.008184,-0.591663,0.667785,0.017512,42.577637,-16.648987,2.495850,,,,,,
1478503699.58,1.594672,-0.120869,1.114780,0.352358,0.937473,0.936926,0.992421,0.120575,0.023699,-0.531285,0.757339,0.009489,42.577637,-16.648987,2.495850,,,,,,
1478503699.60,1.614285,-0.105481,1.112087,-0.046119,1.015798,0.652460,0.993502,0.105285,0.043234,-0.444369,0.959458,-0.074499,42.577576,-17.700928,3.771362,,,,,,
1478503699.62,1.633911,-0.099070,1.117357,-0.393268,0.896789,0.051421,0.993115,0.098908,0.062763,-0.407224,1.156311,-0.181980,42.428894,-18.002441,4.820435,,,,,,
1478503699.64,1.648390,-0.109225,1.127130,-0.442665,0.529801,-0.943599,0.991050,0.109008,0.077054,-0.426612,1.204041,-0.283643,41.978699,-18.377747,5.192261,,,,,,
1478503699.66,1.655473,-0.141370,1.135233,-0.125775,0.204362,-2.056957,0.986477,0.140900,0.083732,-0.487621,0.954574,-0.279624,42.281616,-17.628723,5.718994,,,,,,
1478503699.68,1.656106,-0.193339,1.136182,0.337587,-0.082709,-2.891735,0.977799,0.192137,0.083618,-0.512116,0.564943,-0.220856,42.281616,-17.628723,5.718994,,,,,,
1478503699.70,1.651524,-0.255483,1.131439,0.556982,-0.222268,-3.130893,0.964390,0.252713,0.078022,-0.469716,0.223056,-0.124501,43.186951,-15.679504,5.949951,,,,,,
1478503699.72,1.643783,-0.314172,1.124428,0.544595,-0.320733,-2.738011,0.948521,0.309029,0.069352,-0.415348,-0.025170,-0.041093,44.018616,-12.979797,5.879761,,,,,,
1478503699.74,1.635069,-0.362513,1.117708,0.458283,-0.319241,-2.222206,0.933078,0.354625,0.060054,-0.347430,-0.044444,0.010945,44.774658,-10.430054,5.734131,,,,,,
1478503699.76,1.627296,-0.402671,1.111110,0.411798,-0.220810,-1.888358,0.918549,0.391877,0.051953,-0.216584,0.216994,0.082431,45.082275,-6.603699,4.759521,,,,,,
1478503699.78,1.623011,-0.438593,1.104857,0.368194,0.014074,-1.768667,0.904116,0.424666,0.047251,-0.100466,0.433473,0.117391,45.082275,-6.603699,4.759521,,,,,,
1478503699.80,1.625070,-0.475917,1.099725,0.308691,0.340976,-1.951521,0.887564,0.458154,0.048219,-0.000143,0.583884,0.086150,45.311462,-4.878662,4.685425,,,,,,
1478503699.82,1.633807,-0.519051,1.096731,0.202042,0.608778,-2.294219,0.866567,0.496056,0.054676,0.063853,0.656394,0.011639,45.915894,-3.003723,4.539062,,,,,,
1478503699.84,1.648265,-0.569282,1.097385,0.135497,0.725526,-2.660949,0.839762,0.539027,0.065186,0.122061,0.579533,-0.117920,45.095947,-1.128662,4.756836,,,,,,
1478503699.86,1.662552,-0.625355,1.099674,0.156707,0.588722,-2.892685,0.807345,0.585385,0.074287,0.085370,0.374439,-0.215308,44.883606,3.144958,5.728149,,,,,,
1478503699.88,1.670123,-0.683485,1.101323,0.259562,0.128066,-2.903128,0.771555,0.631499,0.076889,0.081823,0.161531,-0.292099,44.883606,3.144958,5.728149,,,,,,
1478503699.90,1.663979,-0.738852,1.100333,0.322900,-0.525332,-2.664402,0.736035,0.673440,0.068785,0.094791,0.005683,-0.290434,44.139771,5.695435,5.646362,,,,,,
1478503699.92,1.643987,-0.787945,1.098140,0.248290,-1.158252,-2.330660,0.703416,0.708905,0.051576,0.140884,-0.045544,-0.232423,43.920105,7.945801,5.493530,,,,,,
1478503699.94,1.614576,-0.830902,1.097673,0.079908,-1.628073,-2.072197,0.673564,0.738540,0.029508,0.195073,-0.021209,-0.147580,42.651367,11.999451,3.532104,,,,,,
1478503699.96,1.579829,-0.870822,1.100019,-0.079325,-1.936007,-1.993830,0.644172,0.764859,0.005819,0.253991,0.030216,-0.063558,41.827637,13.576782,2.175171,,,,,,
,,,,,,,,,,,,,,,,37.391877,-122.010148,10.924927,-1.000000,-1.000000,1478503699.95
,,,,,,,,,,,,,,,,37.391904,-122.009909,10.924927,-1.000000,-1.000000,1478503699.96
1478503699.98,1.543618,-0.911155,1.104599,-0.212314,-2.016246,-2.066825,0.612607,0.790212,-0.016654,0.310656,0.066233,0.006613,41.827637,13.576782,2.175171,,,,,,
,,,,,,,,,,,,,,,,37.391930,-122.009680,10.924927,-1.000000,-1.000000,1478503699.97
,,,,,,,,,,,,,,,,37.391955,-122.009459,10.924927,-1.000000,-1.000000,1478503699.98
1478503700.00,1.508848,-0.954206,1.109783,-0.263195,-1.894629,-2.209932,0.577148,0.815855,-0.035799,0.362351,0.050112,0.058932,41.453857,15.229187,0.746460,,,,,,
1478503700.02,1.477083,-0.998789,1.112398,-0.235420,-1.582142,-2.217707,0.538946,0.840816,-0.050655,0.401468,-0.045619,0.084651,40.556030,17.331848,-0.761230,,,,,,
1478503700.04,1.449753,-1.041119,1.111410,-0.178621,-1.181822,-2.047684,0.501558,0.862970,-0.061008,0.417067,-0.153619,0.092457,38.907593,20.036621,-3.400024,,,,,,
1478503700.06,1.424607,-1.078894,1.105239,-0.051248,-0.905160,-1.818538,0.467265,0.881436,-0.068800,0.423955,-0.220349,0.051405,37.634277,21.388611,-4.235229,,,,,,
1478503700.08,1.396749,-1.111685,1.092695,0.060559,-0.833616,-1.599810,0.436457,0.896447,-0.076740,0.448431,-0.250481,0.018253,37.634277,21.388611,-4.235229,,,,,,
1478503700.10,1.363059,-1.140719,1.075339,0.103923,-0.964784,-1.452471,0.407977,0.908933,-0.085993,0.484967,-0.252592,0.003015,36.587341,22.739258,-4.393799,,,,,,
1478503700.12,1.323954,-1.166774,1.055774,0.080143,-1.127606,-1.318227,0.381204,0.919487,-0.096056,0.531302,-0.246101,0.028444,36.137146,23.716431,-5.672607,,,,,,
1478503700.14,1.281564,-1.190290,1.035816,0.041697,-1.242516,-1.196910,0.355964,0.928477,-0.105927,0.606117,-0.235941,0.072022,34.415588,25.668457,-6.436523,,,,,,
1478503700.16,1.242927,-1.210168,1.020116,-0.097142,-1.150065,-0.918915,0.334065,0.935675,-0.113631,0.706538,-0.209052,0.123152,33.514771,26.420898,-7.793579,,,,,,
1478503700.18,1.216933,-1.224882,1.014101,-0.132197,-0.959049,-0.657531,0.318049,0.940766,-0.117492,0.857121,-0.063813,0.137801,33.514771,26.420898,-7.793579,,,,,,
1478503700.20,1.187696,-1.236602,1.000662,0.091055,-0.749307,-0.636398,0.304231,0.944675,-0.122609,1.049254,0.072552,0.166859,32.988892,26.572144,-8.397583,,,,,,
1478503700.22,1.145455,-1.246408,0.968682,0.404118,-0.514274,-0.653132,0.290330,0.947846,-0.131518,1.051574,-0.143280,0.226900,32.463684,27.023438,-9.076782,,,,,,
1478503700.24,1.101177,-1.249455,0.929977,0.477323,-0.317651,-0.153779,0.281647,0.948812,-0.142932,0.895263,-0.598577,0.270175,31.564697,27.999878,-9.759155,,,,,,
1478503700.26,1.097503,-1.237447,0.933281,0.010418,-0.395869,1.043465,0.291240,0.944952,-0.149149,0.666554,-0.911779,0.278238,31.562866,27.625549,-10.208984,,,,,,
1478503700.28,1.153161,-1.209676,1.004921,-0.831999,-0.748100,2.170935,0.322955,0.935502,-0.143308,0.535688,-0.855942,0.243222,31.562866,27.625549,-10.208984,,,,,,
1478503700.30,1.239815,-1.171435,1.122065,-1.600716,-1.335695,2.794595,0.367726,0.921310,-0.126358,0.447246,-0.611327,0.248322,32.387085,27.325256,-10.277588,,,,,,
1478503700.32,1.321670,-1.124712,1.247301,-1.855252,-1.746785,3.064206,0.418117,0.902143,-0.106374,0.421009,-0.352384,0.300542,33.434814,26.424683,-10.269287,,,,,,
1478503700.34,1.380114,-1.071599,1.350468,-1.590995,-1.575565,3.150557,0.470044,0.877967,-0.090732,0.434268,-0.103217,0.362811,37.027954,23.722961,-10.316040,,,,,,
1478503700.36,1.416532,-1.012651,1.420009,-0.979044,-0.921804,3.272148,0.523324,0.848239,-0.081377,0.493109,0.120053,0.428453,37.623718,21.922424,-10.160645,,,,,,
1478503700.38,1.439363,-0.948975,1.456564,-0.304174,-0.051260,3.334144,0.577492,0.812819,-0.076342,0.552543,0.319399,0.443056,37.623718,21.922424,-10.160645,,,,,,
1478503700.40,1.458012,-0.882996,1.468018,0.249427,0.769809,3.340194,0.630806,0.772644,-0.071448,0.562645,0.444442,0.413123,39.568237,20.047058,-10.595093,,,,,,
1478503700.42,1.478405,-0.815572,1.465376,0.508737,1.296192,3.394043,0.682529,0.728118,-0.063240,0.507855,0.466661,0.353462,41.287109,17.420898,-10.355957,,,,,,
1478503700.44,1.502965,-0.746632,1.460527,0.358442,1.421981,3.478185,0.732293,0.679171,-0.049749,0.405830,0.443586,0.265142,44.801575,11.941711,-8.751709,,,,,,
1478503700.46,1.530041,-0.676150,1.463824,-0.131309,1.105481,3.595200,0.779340,0.625795,-0.031780,0.302188,0.436873,0.160076,45.472351,9.014160,-7.245239,,,,,,
1478503700.48,1.552685,-0.603546,1.477863,-0.677465,0.474499,3.697480,0.823193,0.567566,-0.014911,0.193088,0.475235,0.097019,45.472351,9.014160,-7.245239,,,,,,
1478503700.50,1.567551,-0.530154,1.501471,-1.110829,-0.084361,3.690627,0.862725,0.505666,-0.002800,0.096443,0.529734,0.082329,46.816406,6.012207,-6.408691,,,,,,
1478503700.52,1.574936,-0.458181,1.529888,-1.328460,-0.405557,3.560052,0.896851,0.442317,0.003713,0.005539,0.600377,0.094203,47.701416,-0.739563,-5.498779,,,,,,
1478503700.54,1.577055,-0.391276,1.559052,-1.358677,-0.529230,3.211983,0.924405,0.381368,0.005786,-0.067136,0.693400,0.100491,48.294495,-3.214355,-5.868042,,,,,,
1478503700.56,1.577015,-0.332328,1.587263,-1.321651,-0.461607,2.779897,0.945267,0.326244,0.005878,-0.166672,0.713490,0.114071,47.837036,-6.214111,-5.869995,,,,,,
1478503700.58,1.578535,-0.282505,1.612746,-1.193516,-0.213565,2.359746,0.960331,0.278762,0.007432,-0.235829,0.686158,0.116897,47.837036,-6.214111,-5.869995,,,,,,
1478503700.60,1.582625,-0.240119,1.634670,-1.020025,-0.013618,1.989891,0.971242,0.237818,0.011489,-0.330449,0.610326,0.083635,47.680176,-8.162598,-6.845093,,,,,,
1478503700.62,1.588435,-0.203731,1.653517,-0.918747,0.132185,1.718778,0.979166,0.202324,0.017273,-0.385859,0.531029,0.056107,46.545288,-11.761353,-7.301758,,,,,,
1478503700.64,1.594271,-0.172720,1.670312,-0.841469,0.122841,1.450963,0.984850,0.171862,0.023124,-0.476213,0.449476,-0.013755,46.541382,-13.261230,-7.376221,,,,,,
1478503700.66,1.598464,-0.145703,1.686430,-0.836386,0.051897,1.279715,0.989025,0.145188,0.027371,-0.528439,0.425124,-0.035046,46.763733,-14.236206,-7.448975,,,,,,
1478503700.68,1.600295,-0.121705,1.702694,-0.853916,-0.061525,1.123310,0.992171,0.121405,0.029276,-0.564086,0.435174,-0.047831,46.763733,-14.236206,-7.448975,,,,,,
1478503700.70,1.599568,-0.102014,1.719206,-0.852585,-0.162051,0.854152,0.994389,0.101838,0.028618,-0.582356,0.486175,-0.042641,46.085632,-15.360596,-7.603516,,,,,,
1478503700.72,1.597425,-0.089317,1.735692,-0.842821,-0.194354,0.466777,0.995661,0.089198,0.026519,-0.568705,0.545018,-0.027236,45.255188,-17.009216,-8.283813,,,,,,
1478503700.74,1.595819,-0.083872,1.752432,-0.849057,-0.117216,0.144082,0.996173,0.083773,0.024932,-0.524356,0.619932,-0.004699,45.104736,-17.008789,-8.510010,,,,,,
1478503700.76,1.596914,-0.083528,1.771601,-1.059969,0.034893,-0.114917,0.996174,0.083431,0.026024,-0.430607,0.847295,-0.017784,45.178284,-17.533691,-8.584229,,,,,,
1478503700.78,1.601243,-0.091062,1.796546,-1.336413,0.148365,-0.648858,0.995395,0.090936,0.030316,-0.361225,1.067877,-0.067013,45.178284,-17.533691,-8.584229,,,,,,
1478503700.80,1.607785,-0.115542,1.825905,-1.453108,0.172995,-1.736390,0.992653,0.115285,0.036733,-0.301094,1.228907,-0.133535,44.729065,-16.857788,-9.037842,,,,,,
1478503700.82,1.615320,-0.167370,1.854808,-1.198678,0.204575,-3.224275,0.985049,0.166590,0.043887,-0.318133,1.016439,-0.164202,45.782837,-14.757202,-9.781128,,,,,,
1478503700.84,1.624600,-0.245859,1.875849,-0.630402,0.292828,-4.271950,0.968525,0.243389,0.052160,-0.298176,0.549030,-0.170080,46.088196,-12.356934,-10.080078,,,,,,
1478503700.86,1.632472,-0.332492,1.888066,-0.199495,0.175509,-4.250244,0.943435,0.326399,0.058261,-0.174727,0.102830,-0.153033,47.073364,-8.382507,-9.999634,,,,,,
1478503700.88,1.635344,-0.405831,1.895458,-0.105158,-0.107133,-3.309343,0.916862,0.394782,0.059263,-0.115043,-0.191352,-0.121870,47.073364,-8.382507,-9.999634,,,,,,
1478503700.90,1.631849,-0.457058,1.903163,-0.253032,-0.492424,-2.193973,0.895683,0.441310,0.054752,-0.081871,-0.205348,-0.099384,47.232971,-4.557678,-9.925293,,,,,,
1478503700.92,1.621398,-0.490143,1.914817,-0.546983,-0.966954,-1.448652,0.881136,0.470752,0.044625,-0.039233,0.004514,-0.058282,47.394592,0.843628,-10.901733,,,,,,
1478503700.94,1.607689,-0.514939,1.933331,-0.886691,-1.202206,-1.259615,0.869731,0.492481,0.032101,0.009114,0.256603,0.004734,47.171387,2.044617,-11.504150,,,,,,
1478503700.96,1.597251,-0.542164,1.959392,-1.208745,-1.148611,-1.518011,0.856294,0.515991,0.022659,0.032347,0.426743,0.030869,46.422363,3.171387,-12.410156,,,,,,
1478503700.98,1.594982,-0.575361,1.992549,-1.457449,-0.894261,-1.809308,0.838750,0.544138,0.020290,0.046198,0.460043,0.014836,46.422363,3.171387,-12.410156,,,,,,
1478503701.00,1.600718,-0.613231,2.030283,-1.543972,-0.735192,-2.023990,0.817427,0.575513,0.024466,0.034151,0.396625,-0.070883,45.377930,6.849609,-14.219849,,,,,,
1478503701.02,1.608585,-0.654991,2.070081,-1.529248,-0.866691,-2.237674,0.792487,0.609152,0.029962,0.009820,0.296106,-0.171990,44.632751,9.025513,-14.526611,,,,,,
1478503701.04,1.612109,-0.700638,2.109901,-1.423874,-1.214361,-2.417530,0.763779,0.644706,0.031572,0.017151,0.183251,-0.221132,43.888000,11.426392,-14.908447,,,,,,
1478503701.06,1.610018,-0.748382,2.148902,-1.352114,-1.495178,-2.465675,0.732228,0.680454,0.028734,0.038128,0.063763,-0.200274,43.292969,13.827515,-15.438965,,,,,,
1478503701.08,1.607547,-0.794925,2.188686,-1.340136,-1.502880,-2.341051,0.699866,0.713811,0.025732,0.073206,-0.035298,-0.120047,43.292969,13.827515,-15.438965,,,,,,
1478503701.10,1.609400,-0.838744,2.229025,-1.277365,-1.298123,-2.213278,0.667899,0.743804,0.025796,0.113076,-0.026199,-0.102517,40.150574,17.805786,-16.589478,,,,,,
1478503701.12,1.616643,-0.880870,2.268475,-1.162824,-1.046622,-2.160871,0.635812,0.771293,0.029171,0.181403,0.018807,-0.103557,38.430115,20.207825,-17.353760,,,,,,
1478503701.14,1.629547,-0.922560,2.307157,-1.062814,-0.767351,-2.154359,0.602740,0.797150,0.035452,0.246030,0.045257,-0.117606,37.084961,22.158508,-17.364746,,,,,,
1478503701.16,1.648399,-0.963078,2.344891,-0.910021,-0.483077,-2.067728,0.569277,0.820953,0.044266,0.303846,0.000733,-0.137467,36.413330,23.809448,-17.745605,,,,,,
1478503701.18,1.670946,-1.000577,2.379158,-0.704427,-0.195920,-1.905231,0.537112,0.841783,0.053972,0.377118,-0.027039,-0.170030,36.413330,23.809448,-17.745605,,,,,,
1478503701.20,1.694273,-1.037857,2.408238,-0.466869,-0.019020,-1.975516,0.504199,0.861317,0.062575,0.399961,-0.033192,-0.208037,33.497620,26.959778,-17.018921,,,,,,
1478503701.22,1.713734,-1.077366,2.431705,-0.217141,-0.088738,-2.085810,0.468820,0.880713,0.067472,0.443046,-0.085852,-0.238950,32.226196,28.385437,-17.029175,,,,,,
1478503701.24,1.725334,-1.117925,2.448891,-0.017648,-0.254230,-2.052527,0.432334,0.899195,0.067349,0.501732,-0.174265,-0.215405,31.180298,29.810547,-16.737915,,,,,,
1478503701.26,1.729416,-1.156531,2.461414,0.059547,-0.439748,-1.894274,0.397464,0.915412,0.063580,0.571988,-0.234596,-0.163754,29.158081,31.086914,-16.978638,,,,,,
1478503701.28,1.729796,-1.191326,2.474209,-0.002158,-0.650422,-1.684586,0.365756,0.928861,0.058650,0.648465,-0.273237,-0.120006,29.158081,31.086914,-16.978638,,,,,,
1478503701.30,1.735256,-1.219304,2.494822,-0.238075,-0.681199,-1.283455,0.339654,0.938860,0.056368,0.771613,-0.208971,-0.075884,26.386169,32.588806,-17.300171,,,,,,
1478503701.32,1.750602,-1.238991,2.523762,-0.301367,-0.560342,-0.975282,0.320499,0.945456,0.058257,0.953641,-0.021872,-0.069335,25.037842,33.339600,-17.385620,,,,,,
1478503701.34,1.760270,-1.257721,2.544162,-0.022686,-0.418744,-0.997385,0.302474,0.951391,0.058007,1.068833,0.056528,-0.055550,24.063110,33.790771,-17.843262,,,,,,
1478503701.36,1.749452,-1.277056,2.540022,0.385034,-0.312876,-0.890985,0.284926,0.957168,0.051452,1.102800,-0.089904,-0.039383,23.240540,34.841309,-17.925049,,,,,,
1478503701.38,1.717789,-1.290403,2.513867,0.472025,-0.378954,-0.358156,0.273749,0.960947,0.040531,0.934808,-0.495493,-0.039112,23.240540,34.841309,-17.925049,,,,,,
1478503701.40,1.687133,-1.286207,2.493186,0.094183,-0.652703,0.626975,0.278865,0.959777,0.032590,0.701298,-0.825500,-0.054684,22.039124,34.993225,-18.834106,,,,,,
1478503701.42,1.673872,-1.261841,2.497841,-0.351821,-1.045180,1.542720,0.302450,0.952652,0.031286,0.522746,-0.848709,-0.092275,21.587585,34.919495,-19.512329,,,,,,
1478503701.44,1.662857,-1.222997,2.512598,-0.412739,-1.368058,2.075127,0.339386,0.940125,0.031333,0.418151,-0.679795,-0.091987,21.810913,34.469727,-19.735474,,,,,,
1478503701.46,1.636555,-1.179858,2.514804,-0.049214,-1.421507,2.175139,0.380232,0.924552,0.025040,0.355516,-0.459342,-0.034302,24.282532,33.494202,-20.241455,,,,,,
1478503701.48,1.595578,-1.137867,2.496300,0.477888,-1.020143,2.095459,0.419402,0.907741,0.010395,0.306168,-0.283229,0.068721,24.282532,33.494202,-20.241455,,,,,,
1478503701.50,1.552647,-1.096637,2.459951,0.979519,-0.175475,2.077768,0.456516,0.889677,-0.008286,0.322079,-0.131864,0.182496,25.027161,31.995056,-21.060181,,,,,,
1478503701.52,1.517344,-1.054349,2.409713,1.463489,0.825505,2.075711,0.493089,0.869579,-0.026382,0.428023,0.071919,0.236526,26.222168,30.720825,-21.950439,,,,,,
1478503701.54,1.492034,-1.011675,2.347303,1.910388,1.764002,2.004352,0.528797,0.847721,-0.041736,0.472851,0.163234,0.234683,27.117126,29.071045,-22.392944,,,,,,
1478503701.56,1.477324,-0.969182,2.276193,2.261725,2.516731,1.948718,0.563504,0.824423,-0.052826,0.474979,0.162470,0.218887,30.331726,25.169983,-22.741943,,,,,,
1478503701.58,1.474732,-0.925025,2.203517,2.335096,2.996821,2.068679,0.599040,0.798636,-0.057724,0.453938,0.125208,0.171326,30.331726,25.169983,-22.741943,,,,,,
1478503701.60,1.486787,-0.876210,2.140074,2.088471,3.140522,2.410885,0.637811,0.768318,-0.053708,0.393439,0.089500,0.118421,34.002686,23.292664,-22.413452,,,,,,
1478503701.62,1.510677,-0.820837,2.090387,1.673422,3.021064,2.787748,0.680378,0.731716,-0.040953,0.333935,0.122822,0.057555,36.172607,20.364807,-21.270752,,,,,,
1478503701.64,1.543467,-0.761627,2.059228,0.912018,2.561760,2.995034,0.723444,0.690100,-0.019776,0.263174,0.201486,-0.051070,38.268677,17.811951,-20.053711,,,,,,
1478503701.66,1.578905,-0.700239,2.052477,-0.105273,1.626044,3.139899,0.764663,0.644400,0.006200,0.207886,0.309991,-0.179525,42.762390,12.855103,-17.017456,,,,,,
1478503701.68,1.604762,-0.636146,2.066327,-0.879276,0.420643,3.240737,0.803928,0.594099,0.027317,0.134366,0.413591,-0.231006,42.762390,12.855103,-17.017456,,,,,,
1478503701.70,1.613988,-0.571539,2.090804,-1.264758,-0.579458,3.166691,0.840285,0.540927,0.036316,0.052247,0.495557,-0.192551,44.333191,10.227539,-15.804321,,,,,,
1478503701.72,1.608798,-0.509703,2.119242,-1.387332,-1.211324,2.993466,0.872259,0.487918,0.033163,-0.044806,0.510816,-0.124014,44.854065,7.976135,-15.049316,,,,,,
1478503701.74,1.593270,-0.451502,2.148356,-1.381148,-1.570390,2.825856,0.899565,0.436318,0.020220,-0.133055,0.493431,-0.047747,45.222534,5.801880,-15.645630,,,,,,
1478503701.76,1.572716,-0.397251,2.176911,-1.312062,-1.622399,2.651736,0.922126,0.386885,0.001770,-0.231925,0.462160,0.023148,44.908325,2.130737,-18.121094,,,,,,
1478503701.78,1.552120,-0.346818,2.203316,-1.146300,-1.434463,2.484171,0.940295,0.339907,-0.017563,-0.307131,0.456525,0.071030,44.908325,2.130737,-18.121094,,,,,,
1478503701.80,1.534807,-0.300270,2.225752,-0.912748,-1.091490,2.295451,0.954638,0.295778,-0.034372,-0.375521,0.488890,0.092599,45.127197,0.406982,-19.018677,,,,,,
1478503701.82,1.523421,-0.257952,2.242746,-0.617958,-0.637050,2.086673,0.965830,0.255100,-0.045791,-0.417215,0.536464,0.099563,44.140808,-2.815125,-20.674316,,,,,,
1478503701.84,1.518257,-0.220020,2.253121,-0.284700,-0.237930,1.828159,0.974546,0.218249,-0.051249,-0.440428,0.583676,0.091303,44.140808,-2.815125,-20.674316,,,,,,
1478503701.86,1.519189,-0.187514,2.257227,-0.029066,0.144488,1.537309,0.981163,0.186417,-0.050680,-0.447105,0.620880,0.089575,43.983643,-5.289185,-21.199341,,,,,,
1478503701.88,1.526016,-0.160662,2.257703,0.055861,0.440295,1.239266,0.986132,0.159972,-0.044188,-0.432543,0.698930,0.067412,43.983643,-5.289185,-21.199341,,,,,,
1478503701.90,1.537093,-0.139836,2.259372,-0.134514,0.586048,0.929293,0.989676,0.139381,-0.033368,-0.378242,0.867196,0.030393,43.981506,-6.565002,-20.673584,,,,,,
1478503701.92,1.549536,-0.127770,2.266759,-0.481736,0.556235,0.389858,0.991624,0.127422,-0.021085,-0.322527,1.066364,-0.029421,44.054993,-7.540710,-20.222656,,,,,,
1478503701.94,1.559553,-0.130619,2.279244,-0.682457,0.323546,-0.522102,0.991419,0.130248,-0.011148,-0.322580,1.166825,-0.084968,43.830994,-7.841919,-19.324219,,,,,,
1478503701.96,1.563481,-0.156680,2.291522,-0.522093,-0.025492,-1.831088,0.987724,0.156039,-0.007225,-0.489510,0.853238,-0.118721,44.657776,-6.942017,-19.543457,,,,,,
1478503701.98,1.559519,-0.207622,2.295953,-0.083907,-0.352428,-2.921423,0.978462,0.206133,-0.011035,-0.520652,0.399381,-0.090787,44.657776,-6.942017,-19.543457,,,,,,
1478503702.00,1.547493,-0.270367,2.292517,0.213637,-0.718659,-3.177903,0.963411,0.267085,-0.022454,-0.423754,0.031987,-0.041373,44.961548,-5.066528,-19.992188,,,,,,
1478503702.02,1.527172,-0.326964,2.285436,0.209042,-0.989716,-2.594170,0.946121,0.321169,-0.041301,-0.379577,-0.180422,0.065776,44.817932,-2.516418,-19.994507,,,,,,
1478503702.04,1.506167,-0.368914,2.283822,-0.233789,-1.078911,-1.845996,0.930772,0.360603,-0.060239,-0.333513,-0.120109,0.098783,43.550659,1.836609,-21.581055,,,,,,
1478503702.06,1.489023,-0.401088,2.293342,-0.753752,-1.026877,-1.461455,0.917561,0.390420,-0.075200,-0.250019,0.077415,0.158956,43.177063,3.338623,-22.784668,,,,,,
1478503702.08,1.478796,-0.429745,2.313552,-1.202442,-0.839613,-1.325820,0.905227,0.416639,-0.083517,-0.172867,0.301653,0.180166,43.177063,3.338623,-22.784668,,,,,,
1478503702.10,1.477480,-0.460257,2.339389,-1.343860,-0.479489,-1.508110,0.892040,0.444179,-0.083484,-0.096706,0.491353,0.151737,42.054688,4.764832,-23.243774,,,,,,
1478503702.12,1.485297,-0.496326,2.365217,-1.275385,-0.041141,-1.821364,0.876126,0.476198,-0.075091,-0.037716,0.574079,0.084078,42.057434,6.340759,-23.844482,,,,,,
1478503702.14,1.500393,-0.537484,2.388496,-1.121361,0.287325,-2.077562,0.856872,0.511976,-0.060427,-0.004378,0.549822,-0.017164,40.717041,10.091187,-23.706421,,,,,,
1478503702.16,1.518222,-0.582595,2.409693,-1.002795,0.310698,-2.285588,0.833884,0.550193,-0.043881,-0.004263,0.447259,-0.122546,40.349304,12.490479,-23.110352,,,,,,
1478503702.18,1.532148,-0.631049,2.429576,-0.885618,-0.012558,-2.465416,0.806806,0.589992,-0.031197,-0.014631,0.305531,-0.198676,40.349304,12.490479,-23.110352,,,,,,
1478503702.20,1.537623,-0.682023,2.447658,-0.767078,-0.422066,-2.570591,0.775872,0.630365,-0.025748,-0.004616,0.169302,-0.201440,39.905029,14.665527,-22.964844,,,,,,
1478503702.22,1.536612,-0.733256,2.463575,-0.649818,-0.633020,-2.530239,0.742565,0.669292,-0.025394,0.024769,0.048283,-0.153347,39.610962,16.915466,-22.818237,,,,,,
1478503702.24,1.532149,-0.781769,2.476208,-0.485966,-0.665773,-2.345131,0.709138,0.704536,-0.027420,0.074401,-0.037041,-0.109604,36.395630,21.042603,-23.144287,,,,,,
1478503702.26,1.524791,-0.825422,2.484148,-0.306408,-0.647675,-2.087627,0.677529,0.734834,-0.031192,0.132941,-0.069169,-0.064740,34.374878,22.768616,-23.160400,,,,,,
1478503702.28,1.515554,-0.864431,2.488801,-0.241601,-0.640801,-1.885026,0.648083,0.760726,-0.035838,0.193241,-0.054916,-0.036748,34.374878,22.768616,-23.160400,,,,,,
1478503702.30,1.507190,-0.900681,2.494342,-0.328533,-0.631143,-1.776940,0.619821,0.783750,-0.039478,0.233924,-0.040891,-0.023343,33.101562,23.744751,-23.545410,,,,,,
1478503702.32,1.502951,-0.935877,2.505267,-0.529227,-0.669908,-1.732210,0.591748,0.805119,-0.040209,0.263095,-0.043218,-0.034834,31.979553,25.396179,-24.079590,,,,,,
1478503702.34,1.503976,-0.970102,2.523271,-0.687540,-0.700380,-1.645745,0.563954,0.824943,-0.037740,0.266810,-0.088645,-0.057811,29.284607,27.723083,-24.475952,,,,,,
1478503702.36,1.507641,-1.002118,2.545275,-0.719425,-0.763220,-1.522342,0.537445,0.842614,-0.033988,0.269546,-0.134011,-0.088678,27.712402,28.773804,-24.413330,,,,,,
1478503702.38,1.511158,-1.031892,2.568071,-0.672303,-0.823081,-1.425123,0.512284,0.858271,-0.030588,0.269638,-0.160487,-0.110174,27.712402,28.773804,-24.413330,,,,,,
1478503702.40,1.511959,-1.060200,2.589056,-0.573818,-0.908534,-1.378678,0.487852,0.872453,-0.028737,0.296450,-0.142473,-0.125697,26.590454,29.974243,-24.347290,,,,,,
1478503702.42,1.508061,-1.088455,2.606582,-0.468487,-0.999191,-1.407767,0.462942,0.885911,-0.029081,0.343729,-0.130357,-0.102053,25.166992,30.875488,-24.733398,,,,,,
1478503702.44,1.501220,-1.117120,2.621267,-0.409826,-0.994051,-1.415968,0.437212,0.898842,-0.030469,0.408109,-0.122078,-0.067233,22.246765,32.676819,-24.606201,,,,,,
1478503702.46,1.494624,-1.145018,2.634682,-0.381158,-0.899645,-1.347826,0.411832,0.910717,-0.031431,0.498995,-0.090359,-0.043642,20.597961,33.428101,-24.918945,,,,,,
1478503702.48,1.492379,-1.170342,2.648367,-0.367421,-0.629950,-1.178906,0.388639,0.920884,-0.030539,0.648135,0.041152,-0.026987,20.597961,33.428101,-24.918945,,,,,,
1478503702.50,1.493097,-1.192902,2.659120,-0.227279,-0.383833,-1.134866,0.367851,0.929443,-0.028639,0.827659,0.212524,-0.043168,19.324829,34.028503,-24.778809,,,,,,
1478503702.52,1.482301,-1.218247,2.653616,0.143444,-0.238925,-1.393852,0.343941,0.938495,-0.030517,0.946556,0.237149,-0.030518,17.451782,35.004822,-25.018311,,,,,,
1478503702.54,1.448283,-1.247596,2.620475,0.532771,-0.063438,-1.544203,0.315222,0.948224,-0.038813,0.934732,-0.099377,0.019129,16.703369,35.830505,-25.249634,,,,,,
1478503702.56,1.397740,-1.270815,2.567448,0.646967,-0.004115,-1.032706,0.291088,0.955342,-0.050884,0.783161,-0.590642,0.024288,15.052795,35.906982,-25.636963,,,,,,
1478503702.58,1.362882,-1.276897,2.532587,0.274351,-0.154707,0.037427,0.283447,0.957122,-0.059797,0.592041,-0.918212,0.001478,15.052795,35.906982,-25.636963,,,,,,
1478503702.60,1.367728,-1.262196,2.547915,-0.271784,-0.753532,1.182818,0.297484,0.952760,-0.061254,0.480882,-0.923203,-0.076945,14.076599,35.757996,-26.019287,,,,,,
1478503702.62,1.388924,-1.230862,2.596285,-0.524255,-1.516343,1.947967,0.327926,0.942777,-0.060307,0.421678,-0.724622,-0.084285,14.676270,35.682861,-26.089600,,,,,,
1478503702.64,1.399695,-1.189009,2.647063,-0.488111,-2.007312,2.367262,0.367139,0.928000,-0.063438,0.360812,-0.503882,-0.016976,15.125916,35.457458,-26.011230,,,,,,
1478503702.66,1.394939,-1.141251,2.686737,-0.275373,-2.050878,2.565429,0.410035,0.909155,-0.072860,0.383575,-0.250281,0.088119,15.348999,34.932800,-26.309204,,,,,,
1478503702.68,1.382145,-1.091010,2.712758,0.012574,-1.636143,2.577025,0.453400,0.887094,-0.086564,0.434509,0.036368,0.177308,15.348999,34.932800,-26.309204,,,,,,
1478503702.70,1.365321,-1.042169,2.720703,0.489550,-0.909029,2.347543,0.493739,0.863500,-0.102903,0.485631,0.276453,0.230345,16.847290,34.332153,-26.372681,,,,,,
1478503702.72,1.347217,-0.996900,2.707045,1.045601,0.038052,2.031937,0.529395,0.839792,-0.120374,0.497491,0.383978,0.281202,18.565735,32.683167,-27.633911,,,,,,
1478503702.74,1.334398,-0.953682,2.676856,1.474603,0.938432,1.905183,0.562590,0.815552,-0.135529,0.468279,0.326737,0.291352,20.510986,31.258057,-28.218750,,,,,,
1478503702.76,1.332215,-0.906668,2.640094,1.700088,1.588963,2.156654,0.598914,0.787454,-0.145664,0.383126,0.171423,0.272266,22.230652,29.608093,-28.804932,,,,,,
1478503702.78,1.341562,-0.851929,2.606426,1.643844,1.843505,2.605176,0.641306,0.752552,-0.149640,0.312490,0.098858,0.230130,22.230652,29.608093,-28.804932,,,,,,
1478503702.80,1.360953,-0.790449,2.584296,1.218129,1.724078,2.984110,0.688093,0.710670,-0.146549,0.225710,0.130029,0.178364,23.877014,28.182434,-28.866821,,,,,,
1478503702.82,1.388130,-0.726195,2.581847,0.392403,1.247874,3.246422,0.735267,0.664029,-0.135823,0.132119,0.212100,0.101429,29.566101,23.754333,-28.746948,,,,,,
1478503702.84,1.413637,-0.660876,2.598283,-0.319732,0.437694,3.385321,0.779725,0.613809,-0.123560,0.049270,0.364905,0.004328,31.886414,21.502441,-28.278442,,,,,,
1478503702.86,1.428189,-0.596071,2.624997,-0.716472,-0.321145,3.372586,0.819147,0.561395,-0.117615,-0.036265,0.435065,0.004715,33.233643,19.625427,-27.367432,,,,,,
1478503702.88,1.431340,-0.533674,2.654699,-0.843988,-0.807380,3.219338,0.852586,0.508700,-0.119675,-0.113511,0.477827,0.033311,33.233643,19.625427,-27.367432,,,,,,
1478503702.90,1.424993,-0.476185,2.683696,-0.858261,-1.131089,2.935531,0.879320,0.458392,-0.129124,-0.189119,0.477018,0.083531,34.805298,18.124268,-27.129883,,,,,,
1478503702.92,1.413192,-0.424565,2.711602,-0.856865,-1.224162,2.659975,0.899924,0.411925,-0.143018,-0.266242,0.422945,0.144392,36.446106,14.899353,-27.715942,,,,,,
1478503702.94,1.400184,-0.378580,2.738761,-0.862306,-1.148165,2.379866,0.915700,0.369601,-0.157763,-0.337971,0.402219,0.182239,37.041687,13.399475,-28.010742,,,,,,
1478503702.96,1.389248,-0.337999,2.764223,-0.787442,-0.892820,2.135055,0.927915,0.331600,-0.170337,-0.389677,0.391087,0.212024,36.961731,12.050842,-28.835693,,,,,,
1478503702.98,1.382313,-0.301877,2.786182,-0.638817,-0.571791,1.886290,0.937871,0.297312,-0.178896,-0.426442,0.437246,0.218233,36.961731,12.050842,-28.835693,,,,,,
1478503703.00,1.380878,-0.270456,2.804080,-0.493882,-0.184740,1.583115,0.946322,0.267171,-0.181917,-0.451068,0.503673,0.222063,36.580322,10.026978,-29.512451,,,,,,
1478503703.02,1.384877,-0.246193,2.817013,-0.326924,0.171643,1.148110,0.953134,0.243713,-0.179276,-0.439569,0.579575,0.211060,36.954590,9.726807,-29.509521,,,,,,
1478503703.04,1.394003,-0.230115,2.824821,-0.182486,0.461145,0.699244,0.958464,0.228090,-0.171238,-0.434721,0.615508,0.184360,37.702576,8.675964,-29.203491,,,,,,
1478503703.06,1.406749,-0.221413,2.830929,-0.293877,0.635362,0.381146,0.962490,0.219608,-0.159326,-0.389950,0.709591,0.160471,38.152527,8.375183,-28.824951,,,,,,
1478503703.08,1.423457,-0.218251,2.843430,-0.785388,0.730906,0.157948,0.965700,0.216522,-0.143324,-0.316805,0.893875,0.103270,38.152527,8.375183,-28.824951,,,,,,
1478503703.10,1.442979,-0.223860,2.866291,-1.358648,0.712391,-0.344423,0.967094,0.221995,-0.124289,-0.267799,1.077840,0.013251,38.604980,8.448242,-27.696533,,,,,,
1478503703.12,1.462520,-0.245420,2.896092,-1.635463,0.576771,-1.299529,0.964355,0.242964,-0.104827,-0.261169,1.114336,-0.083161,38.832642,8.972107,-27.020142,,,,,,
1478503703.14,1.479672,-0.289772,2.922369,-1.331654,0.512106,-2.560257,0.954333,0.285734,-0.087205,-0.327533,0.886141,-0.133560,39.063416,10.620728,-26.194214,,,,,,
1478503703.16,1.493863,-0.356334,2.933309,-0.433563,0.578990,-3.550731,0.934410,0.348841,-0.072029,-0.405846,0.380194,-0.137184,39.070557,12.944763,-25.520386,,,,,,
1478503703.18,1.502216,-0.427275,2.923341,0.575114,0.631966,-3.493109,0.907959,0.414392,-0.062366,-0.305145,-0.036798,-0.088055,39.070557,12.944763,-25.520386,,,,,,
1478503703.20,1.500340,-0.484099,2.895539,1.279994,0.436596,-2.522372,0.882899,0.465411,-0.062309,-0.164805,-0.292224,-0.048164,36.985657,18.419861,-24.863525,,,,,,
1478503703.22,1.491450,-0.516833,2.861848,1.311529,0.334425,-1.318095,0.866653,0.494129,-0.068910,-0.150314,-0.358433,0.060350,36.238342,19.845764,-25.244995,,,,,,
1478503703.24,1.483782,-0.531315,2.839915,0.547419,0.055981,-0.576720,0.858880,0.506667,-0.074924,-0.153512,-0.144500,0.080707,35.713135,19.921387,-25.473999,,,,,,
1478503703.26,1.483853,-0.539810,2.843462,-0.638168,-0.164856,-0.376386,0.854566,0.513973,-0.074487,-0.156583,0.118427,0.086801,35.187134,19.847229,-25.852905,,,,,,
1478503703.28,1.493065,-0.551769,2.872424,-1.639874,-0.367445,-0.610449,0.849027,0.524194,-0.066130,-0.112623,0.459815,-0.032274,35.187134,19.847229,-25.852905,,,,,,
1478503703.30,1.507800,-0.572086,2.918465,-2.200239,-0.576386,-1.066687,0.839105,0.541387,-0.052931,-0.066873,0.546351,-0.144030,34.366882,21.121460,-25.109741,,,,,,
1478503703.32,1.522254,-0.602499,2.972518,-2.412197,-0.911768,-1.601720,0.822951,0.566703,-0.039980,-0.051009,0.484444,-0.247679,33.397034,22.846313,-24.667725,,,,,,
1478503703.34,1.533631,-0.641977,3.031157,-2.511003,-1.298733,-2.031731,0.800361,0.598780,-0.029759,-0.054694,0.332357,-0.295848,32.203857,24.870544,-23.777588,,,,,,
1478503703.36,1.540403,-0.687018,3.092825,-2.505886,-1.739576,-2.244996,0.772784,0.634234,-0.023494,-0.054537,0.146527,-0.322697,29.516357,29.220703,-22.975098,,,,,,
1478503703.38,1.540805,-0.733243,-3.128818,-2.340050,-2.136675,-2.240287,0.742674,0.669282,-0.022281,-0.040968,0.008254,-0.315061,29.516357,29.220703,-22.975098,,,,,,
1478503703.40,1.534045,-0.777225,-3.073100,-1.945376,-2.307284,-2.076054,0.712381,0.701304,-0.026193,-0.008523,-0.077967,-0.284842,26.224670,31.846069,-22.101074,,,,,,
1478503703.42,1.519189,-0.817327,-3.030312,-1.376434,-2.253118,-1.885658,0.683262,0.729320,-0.035293,0.034160,-0.101085,-0.225770,24.279785,33.872009,-22.116577,,,,,,
1478503703.44,1.497469,-0.854772,-3.002317,-0.880948,-2.056079,-1.793818,0.654626,0.754422,-0.048088,0.092734,-0.079968,-0.150749,21.733032,35.223389,-22.136353,,,,,,
1478503703.46,1.471384,-0.890762,-2.987683,-0.498783,-1.753337,-1.749598,0.625715,0.777551,-0.062409,0.161410,-0.073221,-0.074157,19.787537,36.423218,-21.401611,,,,,,
1478503703.48,1.446598,-0.925651,-2.981415,-0.352712,-1.335009,-1.705788,0.596682,0.799013,-0.074491,0.212491,-0.090837,-0.012546,19.787537,36.423218,-21.401611,,,,,,
1478503703.50,1.429166,-0.959216,-2.976289,-0.411603,-0.952249,-1.614083,0.568413,0.818742,-0.081047,0.244148,-0.124604,-0.008003,15.438782,37.626709,-22.259888,,,,,,
1478503703.52,1.421128,-0.990524,-2.966629,-0.550371,-0.747957,-1.455481,0.542122,0.836314,-0.081750,0.276390,-0.155787,-0.045783,13.790527,38.377625,-22.347534,,,,,,
1478503703.54,1.418435,-1.018436,-2.952045,-0.617792,-0.792735,-1.260980,0.518620,0.851288,-0.079635,0.301418,-0.155121,-0.105073,11.617126,38.678101,-21.914062,,,,,,
1478503703.56,1.414714,-1.043929,-2.934897,-0.644674,-1.025618,-1.180936,0.496716,0.864386,-0.078164,0.318546,-0.124167,-0.148551,9.295959,39.878540,-21.482056,,,,,,
1478503703.58,1.406298,-1.069303,-2.916853,-0.641262,-1.309448,-1.203904,0.474246,0.876866,-0.078724,0.333218,-0.098438,-0.135906,9.295959,39.878540,-21.482056,,,,,,
1478503703.60,1.394645,-1.095666,-2.898873,-0.647671,-1.406108,-1.249611,0.450375,0.889233,-0.080165,0.405139,-0.050915,-0.079686,7.198242,40.479126,-21.123047,,,,,,
1478503703.62,1.384152,-1.122550,-2.880605,-0.644011,-1.284910,-1.256162,0.425859,0.901209,-0.080420,0.506362,-0.000894,-0.018136,5.924683,40.704041,-20.682739,,,,,,
1478503703.64,1.378996,-1.149141,-2.862323,-0.617403,-0.967136,-1.244790,0.401767,0.912413,-0.078018,0.674207,0.133318,0.021072,4.275696,40.854370,-20.320190,,,,,,
1478503703.66,1.375910,-1.177166,-2.850129,-0.414580,-0.560292,-1.424195,0.376283,0.923523,-0.074275,0.854445,0.269867,0.027141,1.654602,41.679382,-19.440308,,,,,,
1478503703.68,1.361807,-1.209347,-2.858977,0.001071,-0.132659,-1.724880,0.345936,0.935385,-0.073368,0.969143,0.203683,0.037495,1.654602,41.679382,-19.440308,,,,,,
1478503703.70,1.326668,-1.241733,-2.898535,0.437807,0.231576,-1.684712,0.313575,0.946345,-0.078110,0.946938,-0.155330,0.047837,0.154907,41.830139,-19.451660,,,,,,
1478503703.72,1.281971,-1.264506,-2.952200,0.498989,0.318454,-1.027712,0.289035,0.953459,-0.085882,0.731229,-0.812345,-0.006098,-1.870117,41.530640,-19.091675,,,,,,
1478503703.74,1.258839,-1.268236,-2.979592,0.217688,0.002556,0.168785,0.283584,0.954577,-0.091452,0.607652,-1.005266,-0.056833,-2.772278,41.307312,-19.923218,,,,,,
1478503703.76,1.266726,-1.250954,-2.961700,-0.120368,-0.790422,1.315665,0.299994,0.949285,-0.094139,0.526697,-0.896123,-0.093194,-2.623474,41.082642,-20.222046,,,,,,
1478503703.78,1.285698,-1.219012,-2.914124,-0.371179,-1.571126,1.975464,0.330664,0.938759,-0.096912,0.445504,-0.669762,-0.012677,-2.623474,41.082642,-20.222046,,,,,,
1478503703.80,1.300604,-1.180481,-2.859553,-0.428990,-1.882815,2.187457,0.366676,0.924789,-0.101557,0.411293,-0.433807,0.106821,-1.947266,41.231750,-19.842041,,,,,,
1478503703.82,1.307678,-1.140694,-2.814008,-0.282845,-1.589793,2.149492,0.402614,0.908923,-0.108449,0.421269,-0.217166,0.214925,-0.895386,41.455200,-19.159302,,,,,,
1478503703.84,1.310820,-1.101001,-2.785901,0.072156,-0.779591,2.051211,0.437491,0.891661,-0.116371,0.451562,-0.039976,0.278984,-0.068420,41.828979,-18.628296,,,,,,
