timestamp(unix),attitude_roll(radians),attitude_pitch(radians),attitude_yaw(radians),rotation_rate_x(radians/s),rotation_rate_y(radians/s),rotation_rate_z(radians/s),gravity_x(G),gravity_y(G),gravity_z(G),user_acc_x(G),user_acc_y(G),user_acc_z(G),magnetic_field_x(microteslas),magnetic_field_y(microteslas),magnetic_field_z(microteslas),latitude(degree),longitude(degree),altitude(meter),speed(m/s),course(degree),timestamp(unix)
1478503249.45,-0.246106,1.409628,-2.246468,-0.035681,-0.077764,0.002253,-0.039095,-0.987041,-0.155636,-0.008008,-0.012837,-0.006611,-6.147217,-32.201172,-26.339722,,,,,,
,,,,,,,,,,,,,,,,37.392085,-122.011385,10.474915,-1.000000,-1.000000,1478503185.58
1478503249.47,-0.246043,1.408613,-2.247828,-0.052608,-0.055372,-0.004260,-0.039330,-0.986877,-0.156611,-0.000908,-0.005417,-0.005056,-6.147217,-32.201172,-26.339722,,,,,,
,,,,,,,,,,,,,,,,37.391947,-122.011798,10.474915,0.620000,301.640625,1478503124.00
1478503249.49,-0.245010,1.407177,-2.249662,-0.066373,-0.023440,-0.000126,-0.039512,-0.986644,-0.158026,-0.001870,-0.005910,-0.007761,-6.372131,-32.125977,-26.416382,,,,,,
,,,,,,,,,,,,,,,,37.392085,-122.011385,10.474915,-1.000000,-1.000000,1478503185.58
1478503249.51,-0.244405,1.405653,-2.250497,-0.059876,-0.006438,-0.007566,-0.039780,-0.986395,-0.159508,-0.012787,-0.015864,-0.008353,-6.745483,-31.600952,-26.269409,,,,,,
1478503249.53,-0.243475,1.404699,-2.251481,-0.046928,0.006311,-0.026672,-0.039858,-0.986237,-0.160459,-0.014997,0.000047,0.002713,-6.670532,-31.901550,-25.893677,,,,,,
1478503249.55,-0.243792,1.403988,-2.250988,-0.039576,0.015815,-0.004288,-0.040078,-0.986120,-0.161126,-0.015845,0.012640,0.007088,-6.894287,-31.451538,-25.820679,,,,,,
,,,,,,,,,,,,,,,,37.392491,-122.005556,10.474915,-1.000000,-1.000000,1478503249.54
,,,,,,,,,,,,,,,,37.392545,-122.004699,10.474915,-1.000000,-1.000000,1478503249.54
1478503249.57,-0.247073,1.403416,-2.247284,-0.031242,0.026355,0.031936,-0.040745,-0.986025,-0.161540,-0.006313,-0.001158,0.010478,-6.894287,-31.451538,-25.820679,,,,,,
1478503249.59,-0.251218,1.403097,-2.242656,-0.004760,0.015605,0.050195,-0.041492,-0.985971,-0.161675,0.005375,0.005716,0.004952,-6.369019,-31.301697,-25.891724,,,,,,
1478503249.61,-0.255229,1.403223,-2.238593,0.015434,-0.011025,0.042893,-0.042109,-0.985992,-0.161387,0.012354,0.012939,0.004985,-6.445740,-31.826355,-26.117065,,,,,,
1478503249.63,-0.258246,1.403411,-2.236161,0.020753,-0.039721,0.028061,-0.042548,-0.986024,-0.161080,0.009376,-0.000182,-0.005973,-6.147461,-32.125854,-26.564697,,,,,,
1478503249.65,-0.258229,1.403913,-2.237072,0.043141,-0.058905,0.014371,-0.042419,-0.986107,-0.160603,0.019028,-0.007286,-0.007427,-6.594788,-31.376160,-26.193481,,,,,,
1478503249.67,-0.261332,1.404186,-2.235307,0.039776,-0.078059,0.030348,-0.042848,-0.986153,-0.160210,0.010545,0.012703,-0.015923,-6.594788,-31.376160,-26.193481,,,,,,
1478503249.69,-0.267917,1.403775,-2.229770,0.013148,-0.041859,0.049309,-0.044009,-0.986084,-0.160315,-0.008893,-0.011215,-0.017846,-6.596008,-31.826050,-26.268188,,,,,,
1478503249.71,-0.277368,1.403202,-2.221038,0.021808,-0.039724,0.028067,-0.045677,-0.985989,-0.160435,-0.008827,-0.009144,-0.007579,-6.596863,-32.201172,-26.193115,,,,,,
1478503249.73,-0.279393,1.403440,-2.219775,0.030447,-0.041842,0.007892,-0.045937,-0.986029,-0.160117,0.004571,0.007192,-0.013757,-6.821472,-31.975891,-26.269775,,,,,,
1478503249.75,-0.280342,1.403548,-2.219671,0.029373,-0.049275,0.004704,-0.046059,-0.986047,-0.159970,0.005425,0.000817,-0.010714,-6.671753,-31.975769,-26.418701,,,,,,
1478503249.77,-0.281265,1.404049,-2.220019,0.056974,-0.078067,0.003833,-0.046070,-0.986130,-0.159454,0.012043,0.014145,-0.012299,-6.671753,-31.975769,-26.418701,,,,,,
1478503249.79,-0.283242,1.404912,-2.219433,0.076149,-0.067507,0.009244,-0.046147,-0.986273,-0.158545,0.003423,0.002829,-0.019007,-7.046875,-32.200928,-26.196411,,,,,,
1478503249.81,-0.290168,1.405667,-2.213576,0.079341,-0.052649,0.017757,-0.047031,-0.986397,-0.157509,-0.018673,-0.026329,-0.017617,-6.746460,-32.201477,-25.969238,,,,,,
1478503249.83,-0.299125,1.406855,-2.205835,0.103790,-0.080357,0.010486,-0.048095,-0.986592,-0.155961,-0.016343,-0.006328,-0.014693,-6.897278,-32.350952,-26.195190,,,,,,
1478503249.85,-0.305931,1.408613,-2.201244,0.152393,-0.147538,0.036402,-0.048633,-0.986877,-0.153976,0.014773,-0.002167,-0.031495,-7.046326,-32.351562,-25.746338,,,,,,
1478503249.87,-0.315108,1.410648,-2.193838,0.091316,0.019611,0.015584,-0.049421,-0.987204,-0.151613,-0.020418,0.024099,0.079484,-7.046326,-32.351562,-25.746338,,,,,,
1478503249.89,-0.318013,1.412519,-2.191276,0.101984,-0.036710,-0.018336,-0.049284,-0.987500,-0.149714,-0.008394,-0.000338,-0.002523,-7.271606,-32.576721,-25.598022,,,,,,
1478503249.91,-0.318753,1.414638,-2.191471,0.107352,-0.049461,-0.032126,-0.048739,-0.987832,-0.147690,0.012011,0.001931,-0.006546,-7.270752,-32.276855,-25.523071,,,,,,
1478503249.93,-0.322006,1.416950,-2.189190,0.120001,-0.051664,-0.011827,-0.048496,-0.988189,-0.145364,-0.009015,-0.018159,-0.005225,-7.047302,-32.876831,-25.596191,,,,,,
1478503249.95,-0.327068,1.419380,-2.185306,0.131740,-0.066566,-0.023449,-0.048459,-0.988558,-0.142842,0.004529,0.001330,-0.006847,-7.271851,-32.801941,-25.447876,,,,,,
1478503249.97,-0.329909,1.422140,-2.183871,0.137132,-0.078248,-0.040433,-0.047981,-0.988971,-0.140122,0.018867,0.005862,-0.008087,-7.271851,-32.801941,-25.447876,,,,,,
1478503249.99,-0.333218,1.424912,-2.182634,0.146509,-0.113386,-0.026490,-0.047548,-0.989378,-0.137371,0.000352,0.001875,0.000256,-7.196350,-32.727173,-25.297241,,,,,,
1478503250.01,-0.339812,1.428203,-2.177943,0.179589,-0.095422,-0.025271,-0.047367,-0.989851,-0.133985,0.005619,0.003629,-0.005420,-7.047546,-33.252380,-25.220947,,,,,,
1478503250.03,-0.347070,1.431860,-2.172777,0.197649,-0.118861,-0.030458,-0.047106,-0.990364,-0.130232,-0.006772,0.000618,-0.007204,-7.497070,-33.102234,-25.149292,,,,,,
1478503250.05,-0.358974,1.435491,-2.163467,0.199701,-0.129511,-0.024041,-0.047390,-0.990860,-0.126295,-0.023808,0.006943,-0.007708,-7.570557,-33.103333,-24.399902,,,,,,
1478503250.07,-0.368949,1.439074,-2.155166,0.211771,-0.064663,-0.044297,-0.047367,-0.991337,-0.122504,-0.005337,0.010884,-0.010629,-7.570557,-33.103333,-24.399902,,,,,,
1478503250.09,-0.381464,1.443297,-2.143930,0.243907,-0.063701,-0.050627,-0.047337,-0.991883,-0.118014,-0.026073,0.019501,-0.001172,-7.646790,-33.177490,-24.925415,,,,,,
1478503250.11,-0.404528,1.447832,-2.122014,0.273543,-0.050045,-0.012156,-0.048275,-0.992449,-0.112755,-0.035404,0.026553,0.000802,-7.345154,-32.803162,-24.623291,,,,,,
1478503250.13,-0.429981,1.452013,-2.097165,0.233000,-0.020194,0.014193,-0.049399,-0.992954,-0.107717,-0.065927,-0.021741,-0.022593,-7.194824,-33.104126,-24.022095,,,,,,
1478503250.15,-0.446601,1.455458,-2.079660,0.231685,0.084127,-0.058355,-0.049704,-0.993356,-0.103795,-0.038873,-0.070441,-0.032359,-7.493835,-33.330078,-23.274170,,,,,,
1478503250.17,-0.444711,1.460110,-2.080504,0.204421,0.067344,-0.137252,-0.047520,-0.993881,-0.099717,0.034336,0.005752,-0.042129,-7.493835,-33.330078,-23.274170,,,,,,
1478503250.19,-0.422356,1.465032,-2.101712,0.206838,0.049364,-0.193633,-0.043273,-0.994412,-0.096291,0.027251,0.019696,-0.030388,-7.194824,-33.479797,-23.571899,,,,,,
1478503250.21,-0.406290,1.471152,-2.117294,0.270609,0.002384,-0.196404,-0.039315,-0.995040,-0.091381,-0.001319,-0.018709,-0.025593,-7.495483,-33.704529,-23.649048,,,,,,
1478503250.23,-0.403785,1.476750,-2.120134,0.254097,-0.024266,-0.126194,-0.036896,-0.995581,-0.086355,-0.029907,0.008398,-0.006693,-6.521790,-34.079773,-23.791626,,,,,,
1478503250.25,-0.407438,1.481757,-2.116977,0.230317,-0.027472,-0.073095,-0.035236,-0.996039,-0.081642,-0.029095,0.003637,-0.007148,-6.894714,-34.081177,-22.744385,,,,,,
1478503250.27,-0.418516,1.486089,-2.106828,0.252688,-0.055159,-0.088893,-0.034384,-0.996414,-0.077304,-0.030694,-0.002746,-0.023618,-6.894714,-34.081177,-22.744385,,,,,,
1478503250.29,-0.421599,1.491756,-2.104886,0.268895,-0.041340,-0.117567,-0.032311,-0.996878,-0.072045,-0.034080,0.008673,-0.018776,-7.120422,-34.305908,-22.821045,,,,,,
1478503250.31,-0.427295,1.497214,-2.099394,0.283136,0.008643,-0.152688,-0.030466,-0.997294,-0.066906,-0.038992,0.008677,-0.019260,-6.894897,-34.531860,-22.294189,,,,,,
1478503250.33,-0.417555,1.503715,-2.108599,0.285434,0.039484,-0.162303,-0.027183,-0.997751,-0.061272,-0.035699,0.010217,-0.012535,-6.445496,-34.531677,-22.590820,,,,,,
1478503250.35,-0.412717,1.509640,-2.112033,0.283380,0.088369,-0.147483,-0.024514,-0.998131,-0.055986,-0.019095,0.001854,-0.014464,-6.894165,-34.832947,-21.544067,,,,,,
1478503250.37,-0.402317,1.516078,-2.120830,0.289789,0.072421,-0.159133,-0.021414,-0.998503,-0.050324,0.000418,0.000685,-0.021392,-6.894165,-34.832947,-21.544067,,,,,,
1478503250.39,-0.381583,1.522414,-2.140626,0.313144,0.025592,-0.172772,-0.018010,-0.998830,-0.044885,-0.000728,-0.000346,-0.027106,-6.593384,-34.608215,-21.466919,,,,,,
1478503250.41,-0.359595,1.529611,-2.163041,0.320390,-0.049900,-0.181133,-0.014489,-0.999152,-0.038541,-0.009315,0.020911,-0.024295,-6.218506,-34.833801,-21.238892,,,,,,
1478503250.43,-0.330344,1.536444,-2.193889,0.307365,-0.095595,-0.168361,-0.011141,-0.999410,-0.032489,-0.002714,0.007451,-0.011502,-6.144409,-35.208984,-21.163208,,,,,,
1478503250.45,-0.288286,1.543187,-2.238231,0.300866,-0.124281,-0.167288,-0.007849,-0.999619,-0.026467,0.003759,-0.012176,-0.011787,-6.294983,-35.584045,-21.014160,,,,,,
1478503250.47,-0.208365,1.549886,-2.320781,0.343507,-0.133969,-0.177685,-0.004325,-0.999781,-0.020457,0.006706,0.004756,-0.019597,-6.294983,-35.584045,-21.014160,,,,,,
1478503250.49,-0.040294,1.557910,-2.491643,0.397927,-0.147927,-0.199719,-0.000519,-0.999917,-0.012875,-0.017181,0.021920,-0.035373,-7.942993,-35.509644,-20.126587,,,,,,
1478503250.51,0.427297,1.564595,-2.962038,0.406628,-0.127724,-0.217793,0.002570,-0.999981,-0.005644,-0.048163,0.020046,-0.040957,-6.068726,-35.735413,-20.187378,,,,,,
1478503250.53,1.851796,1.563483,1.894396,0.370547,-0.097829,-0.223359,0.007027,-0.999973,0.002028,-0.065788,-0.001217,-0.038039,-6.143005,-35.811096,-19.737793,,,,,,
1478503250.55,2.267551,1.557970,1.477401,0.339892,-0.038185,-0.228932,0.009836,-0.999918,0.008231,-0.068400,-0.006994,-0.032843,-6.142700,-36.111877,-19.212769,,,,,,
1478503250.57,2.361426,1.550107,1.383791,0.321096,0.049075,-0.240877,0.014551,-0.999786,0.014705,-0.071039,0.013839,-0.034953,-6.142700,-36.111877,-19.212769,,,,,,
1478503250.59,2.417492,1.544717,1.329992,0.308665,0.150115,-0.242152,0.017275,-0.999660,0.019534,-0.089220,0.003688,-0.070819,-6.817627,-36.036438,-19.292725,,,,,,
1478503250.61,2.413538,1.537018,1.337948,0.261211,0.229000,-0.275532,0.022472,-0.999430,0.025209,-0.093838,-0.002264,-0.095324,-5.918213,-36.862915,-18.535645,,,,,,
1478503250.63,2.380484,1.533807,1.376444,0.157041,0.296318,-0.277258,0.025506,-0.999316,0.026777,-0.082193,0.004351,-0.111661,-5.693054,-36.788086,-18.533936,,,,,,
1478503250.65,2.317167,1.528912,1.446822,0.015660,0.400947,-0.267549,0.030741,-0.999123,0.028430,-0.061502,0.017647,-0.113147,-5.692993,-37.013550,-18.233765,,,,,,
1478503250.67,2.179512,1.529068,1.594028,-0.158888,0.515208,-0.232482,0.034223,-0.999129,0.023854,-0.046247,-0.007127,-0.124531,-5.692993,-37.013550,-18.233765,,,,,,
1478503250.69,2.032313,1.528161,1.752368,-0.321946,0.563511,-0.195130,0.038163,-0.999091,0.018980,-0.035462,-0.016198,-0.121977,-5.092773,-37.089050,-18.079346,,,,,,
1478503250.72,1.820595,1.528506,1.975041,-0.422497,0.528673,-0.149853,0.040965,-0.999106,0.010451,-0.027324,-0.016473,-0.119063,-4.643433,-36.788330,-18.751099,,,,,,
1478503250.74,1.601342,1.527354,2.204617,-0.518703,0.497030,-0.115205,0.043408,-0.999057,0.001326,-0.027539,-0.069623,-0.130355,-4.643921,-36.938171,-18.826050,,,,,,
1478503250.76,1.350124,1.524262,2.465696,-0.656339,0.479360,-0.091451,0.045389,-0.998917,-0.010182,-0.038538,-0.134124,-0.145305,-4.344727,-37.088013,-19.048706,,,,,,
1478503250.78,1.083825,1.517194,2.742282,-0.853240,0.523595,-0.095794,0.047348,-0.998564,-0.025071,-0.041001,-0.198061,-0.164001,-4.344727,-37.088013,-19.048706,,,,,,
1478503250.80,0.844361,1.503517,2.994080,-1.124163,0.650006,-0.142184,0.050256,-0.997738,-0.044654,-0.044122,-0.281803,-0.190057,-3.895447,-36.261169,-20.395874,,,,,,
1478503250.82,0.661054,1.482096,-3.090388,-1.430248,0.796708,-0.176024,0.054386,-0.996069,-0.069924,-0.082249,-0.305292,-0.201820,-4.345398,-35.734985,-21.074463,,,,,,
1478503250.84,0.529646,1.453802,-2.942549,-1.700023,0.762461,-0.155100,0.058974,-0.993164,-0.100734,-0.123259,-0.182770,-0.147526,-3.971436,-35.659302,-21.671753,,,,,,
1478503250.86,0.436012,1.420863,-2.833603,-1.841227,0.710711,-0.090862,0.063084,-0.988781,-0.135397,-0.042301,-0.160236,-0.065561,-3.221069,-34.607910,-22.791626,,,,,,
1478503250.88,0.362591,1.386769,-2.743863,-1.894226,0.846604,0.113023,0.064906,-0.983115,-0.171092,0.076009,-0.166986,-0.029866,-3.221069,-34.607910,-22.791626,,,,,,
1478503250.90,0.302403,1.352501,-2.659897,-1.894859,1.269440,0.280567,0.064497,-0.976268,-0.206739,0.226000,-0.076299,0.140898,-2.846191,-32.804626,-25.114624,,,,,,
1478503250.92,0.266870,1.319022,-2.593996,-1.769263,1.468977,0.239438,0.065697,-0.968472,-0.240304,0.296562,0.070340,0.281167,-2.997375,-32.052307,-26.616089,,,,,,
1478503250.94,0.251293,1.287694,-2.555119,-1.600683,0.799086,-0.006644,0.069459,-0.960193,-0.270563,0.228957,0.155658,0.163187,-2.248108,-30.924988,-28.411133,,,,,,
1478503250.96,0.241704,1.258651,-2.538915,-1.379632,0.043834,-0.173535,0.073507,-0.951677,-0.298174,0.120020,0.071474,0.134661,-1.646301,-29.649292,-29.082275,,,,,,
1478503250.98,0.231183,1.235068,-2.531127,-1.062377,-0.225200,-0.120286,0.075488,-0.944171,-0.320692,0.066510,-0.073194,0.151274,-1.646301,-29.649292,-29.082275,,,,,,
1478503251.00,0.215302,1.217798,-2.519383,-0.803789,-0.250847,0.081300,0.073859,-0.938340,-0.337731,0.026116,-0.073333,0.210656,-1.720398,-28.222229,-30.433594,,,,,,
1478503251.02,0.192385,1.205526,-2.501545,-0.587790,-0.364503,0.229561,0.068297,-0.934027,-0.350612,0.023973,0.138465,0.247279,-2.395569,-27.846069,-30.963745,,,,,,
1478503251.04,0.166353,1.198158,-2.483337,-0.316818,-0.501521,0.262129,0.060286,-0.931370,-0.359048,0.005327,0.209858,0.282037,-2.546265,-27.619995,-31.640015,,,,,,
1478503251.06,0.142559,1.196784,-2.469304,0.019897,-0.542949,0.226785,0.051908,-0.930869,-0.361647,-0.007948,0.260306,0.298918,-3.144775,-27.170044,-31.419678,,,,,,
1478503251.08,0.124768,1.201800,-2.460844,0.346582,-0.469462,0.156083,0.044884,-0.932690,-0.357875,-0.018609,0.286053,0.277950,-3.144775,-27.170044,-31.419678,,,,,,
1478503251.10,0.115528,1.212140,-2.458858,0.603526,-0.298975,0.067712,0.040462,-0.936369,-0.348676,-0.019313,0.286315,0.250989,-4.195984,-27.544250,-31.577393,,,,,,
1478503251.12,0.114014,1.226623,-2.460564,0.792943,-0.069934,0.058824,0.038387,-0.941355,-0.335228,-0.043117,0.273661,0.194908,-4.645020,-27.695068,-30.905762,,,,,,
1478503251.14,0.114501,1.244451,-2.459806,0.940087,0.143107,0.157242,0.036627,-0.947220,-0.318484,-0.024847,0.243607,0.105212,-4.645874,-28.145325,-30.755493,,,,,,
1478503251.16,0.111134,1.264871,-2.450731,1.049313,0.310421,0.331101,0.033402,-0.953569,-0.299318,0.018875,0.201402,-0.068709,-5.246460,-28.820801,-30.234619,,,,,,
1478503251.18,0.086728,1.290102,-2.420379,1.348757,0.162004,0.744934,0.023995,-0.960863,-0.275982,0.029517,0.255785,-0.230992,-5.246460,-28.820801,-30.234619,,,,,,
1478503251.20,0.018510,1.321738,-2.348284,1.624684,0.018951,1.174597,0.004562,-0.969145,-0.246449,0.067566,0.316328,-0.337871,-5.171509,-29.572205,-29.333740,,,,,,
1478503251.22,-0.095015,1.348655,-2.233531,1.072122,-0.179441,1.350698,-0.020902,-0.975428,-0.219325,0.065458,-0.075994,-0.968618,-5.096375,-30.173401,-28.507812,,,,,,
1478503251.24,-0.233887,1.352337,-2.094882,0.237729,-0.083348,1.444965,-0.050229,-0.976232,-0.210825,-0.063800,-0.794947,-0.883581,-6.744324,-30.099060,-27.545166,,,,,,
1478503251.26,-0.329631,1.358044,-2.008156,0.898031,-1.037329,0.430256,-0.068348,-0.977454,-0.199783,0.083027,-0.118051,-0.391785,-7.944763,-30.699280,-27.028809,,,,,,
1478503251.28,-0.402694,1.384211,-1.961544,1.521347,-1.350666,-0.273734,-0.072699,-0.982643,-0.170666,0.096121,-0.340187,-0.108829,-7.944763,-30.699280,-27.028809,,,,,,
1478503251.30,-0.431701,1.399443,-1.933764,0.202619,0.903291,0.285096,-0.071347,-0.985355,-0.154872,-0.100513,-1.096188,0.041164,-9.820190,-31.148865,-26.667725,,,,,,
1478503251.32,-0.458158,1.386647,-1.870590,-0.361543,1.937597,0.791381,-0.080989,-0.983092,-0.164226,-0.497182,-0.796266,0.089519,-10.270447,-31.599243,-26.220947,,,,,,
1478503251.34,-0.457940,1.391697,-1.840060,0.808040,1.224443,-0.268799,-0.078757,-0.984005,-0.159788,-0.119622,0.563137,0.349134,-10.046204,-31.448486,-26.819336,,,,,,
1478503251.36,-0.432946,1.421581,-1.851378,1.572018,0.460795,-0.890429,-0.062371,-0.988888,-0.134945,0.592278,1.047421,0.804898,-8.924805,-32.348022,-27.485474,,,,,,
1478503251.38,-0.459170,1.460256,-1.821477,1.928444,-0.003703,-0.395964,-0.048892,-0.993897,-0.098889,0.602466,0.767395,0.565548,-8.924805,-32.348022,-27.485474,,,,,,
1478503251.40,-0.708964,1.487395,-1.575943,1.666633,-0.329895,0.573917,-0.054235,-0.996524,-0.063231,-0.138422,-0.031872,0.191161,-8.250305,-32.798828,-27.180176,,,,,,
1478503251.42,-1.091015,1.499757,-1.200625,1.460352,-0.406046,0.127939,-0.062966,-0.997478,-0.032763,-0.241294,-0.646519,0.093951,-8.775269,-33.925720,-25.758423,,,,,,
1478503251.44,-1.520346,1.512448,-0.777408,1.506329,-0.324523,-0.364796,-0.058241,-0.998298,-0.002941,0.040770,-0.190728,0.071682,-9.149841,-34.526978,-24.786011,,,,,,
1478503251.46,-2.025718,1.512521,-0.278254,1.325180,-0.360362,-0.207126,-0.052318,-0.998303,0.025591,-0.014362,0.253445,0.077619,-8.925293,-35.503540,-23.808838,,,,,,
1478503251.48,-2.334809,1.499173,0.025609,1.157634,-0.244436,0.074934,-0.051673,-0.997436,0.049509,-0.149972,0.050262,0.123343,-8.925293,-35.503540,-23.808838,,,,,,
1478503251.50,-2.523364,1.478809,0.207905,1.344292,-0.483186,0.075259,-0.053240,-0.995772,0.074856,-0.023695,0.091017,0.075566,-9.524841,-36.029602,-22.913086,,,,,,
1478503251.52,-2.685306,1.454393,0.354864,1.477975,-0.946844,-0.096814,-0.051173,-0.993233,0.104259,0.115917,0.046959,0.031804,-9.901428,-37.080200,-22.390381,,,,,,
1478503251.54,-2.812733,1.429609,0.462713,1.360033,-1.046212,-0.201632,-0.045447,-0.990050,0.133178,-0.012414,-0.043352,0.004044,-10.200867,-37.681641,-21.342407,,,,,,
1478503251.56,-2.905597,1.406644,0.536301,1.221871,-0.974511,-0.214210,-0.038208,-0.986557,0.158886,-0.190292,0.002960,0.001682,-10.950378,-39.034180,-19.397217,,,,,,
1478503251.58,-2.968954,1.383967,0.583510,1.203033,-0.760875,-0.148639,-0.031908,-0.982598,0.182984,-0.190947,0.064950,0.036880,-10.950378,-39.034180,-19.397217,,,,,,
1478503251.60,-3.012210,1.360769,0.615833,1.198735,-0.469557,-0.150171,-0.026899,-0.978025,0.206744,-0.131426,0.027799,0.071363,-10.950012,-39.485229,-18.646973,,,,,,
1478503251.62,-3.046997,1.338053,0.644873,1.152011,-0.264078,-0.229513,-0.021786,-0.973037,0.229616,-0.093388,-0.012299,0.056318,-11.099731,-39.936218,-17.973022,,,,,,
1478503251.64,-3.080823,1.316451,0.674615,1.090629,-0.260578,-0.292661,-0.015281,-0.967828,0.251148,-0.065713,0.041376,0.027646,-10.950867,-40.611694,-17.671509,,,,,,
1478503251.66,-3.112870,1.295226,0.701905,1.085378,-0.299837,-0.326694,-0.007814,-0.962270,0.271984,-0.009489,0.055394,0.022755,-9.975891,-41.664246,-16.388672,,,,,,
1478503251.68,3.139238,1.273375,0.727812,1.119582,-0.329654,-0.361589,0.000690,-0.956095,0.293055,0.022930,0.017039,-0.018351,-9.975891,-41.664246,-16.388672,,,,,,
1478503251.70,3.110332,1.250388,0.750078,1.169209,-0.438273,-0.351571,0.009844,-0.949107,0.314800,0.066328,-0.022161,-0.049572,-9.376343,-42.039856,-16.158936,,,,,,
1478503251.72,3.084019,1.226930,0.766045,1.158537,-0.648839,-0.295955,0.019399,-0.941458,0.336571,0.112178,-0.041772,-0.072121,-9.075806,-42.716675,-15.031372,,,,,,
1478503251.74,3.057048,1.204021,0.777178,1.122136,-0.930528,-0.254210,0.030282,-0.933489,0.357326,0.101981,-0.098265,-0.115307,-9.300842,-43.092224,-14.583008,,,,,,
1478503251.76,3.031883,1.181977,0.782117,1.074113,-1.087888,-0.158429,0.041507,-0.925357,0.376817,0.048901,-0.146145,-0.226198,-8.700867,-44.069336,-13.377930,,,,,,
1478503251.78,3.009839,1.161431,0.779954,1.014012,-1.290980,-0.030711,0.052290,-0.917374,0.394577,-0.027205,-0.164978,-0.376069,-8.700867,-44.069336,-13.377930,,,,,,
1478503251.80,2.989506,1.142038,0.771419,0.983010,-1.485574,0.048188,0.062985,-0.909483,0.410943,-0.115567,-0.108935,-0.431206,-8.625671,-44.294983,-13.002197,,,,,,
1478503251.82,2.962938,1.123259,0.766617,0.896663,-1.574224,-0.162922,0.076901,-0.901516,0.425859,-0.240430,-0.148045,-0.365419,-8.701111,-45.046021,-12.252319,,,,,,
1478503251.84,2.924953,1.109628,0.777861,0.410814,-1.230834,-0.471626,0.095651,-0.895533,0.434593,-0.345727,-0.190206,-0.173133,-8.703064,-46.321899,-11.651733,,,,,,
1478503251.86,2.893686,1.105338,0.795853,0.000617,-0.479082,-0.383477,0.110132,-0.893616,0.435111,-0.280893,-0.303085,-0.118583,-7.954346,-46.471680,-12.096069,,,,,,
1478503251.88,2.879132,1.104175,0.807001,0.023896,-0.169072,-0.184759,0.116723,-0.893093,0.434466,-0.208596,-0.226536,-0.296084,-7.954346,-46.471680,-12.096069,,,,,,
1478503251.90,2.870224,1.103918,0.812022,-0.128385,-0.296315,-0.094920,0.120650,-0.892978,0.433629,-0.416136,-0.570493,-0.309423,-6.906494,-46.545715,-13.063354,,,,,,
1478503251.92,2.858974,1.115789,0.817415,-0.933356,-0.278266,0.191238,0.122555,-0.898258,0.422034,-0.406811,-0.542370,-0.362525,-5.710388,-47.144470,-14.253906,,,,,,
1478503251.94,2.859045,1.147967,0.813618,-1.957823,-0.132370,0.726152,0.114405,-0.911931,0.394072,-0.260126,-0.419444,-0.636336,-3.092407,-47.591370,-17.234009,,,,,,
1478503251.96,2.860709,1.203037,0.811545,-2.942755,0.026020,0.737530,0.099662,-0.933135,0.345436,0.119637,-0.255646,-0.478004,-1.595276,-46.988831,-19.398193,,,,,,
1478503251.98,2.832404,1.263495,0.837307,-3.048928,-0.361958,0.292577,0.092042,-0.953153,0.288143,0.446181,-0.123293,-0.249417,-1.595276,-46.988831,-19.398193,,,,,,
1478503252.00,2.757865,1.319751,0.897804,-2.854977,-1.114068,0.202176,0.093002,-0.968653,0.230351,0.457031,-0.289068,-0.069828,0.126587,-45.108704,-23.361206,,,,,,
1478503252.02,2.681087,1.373038,0.949234,-2.596904,-1.427529,0.836384,0.087312,-0.980509,0.176005,0.241850,-0.477849,0.168889,2.526794,-42.780823,-26.119385,,,,,,
1478503252.04,2.651766,1.429586,0.951869,-2.519552,-1.235502,1.522055,0.066215,-0.990046,0.124193,0.020348,-0.403859,0.256896,5.230225,-38.426575,-29.851318,,,,,,
1478503252.06,2.705138,1.489253,0.880389,-2.526321,-0.635204,1.747842,0.034432,-0.996677,0.073817,-0.075418,-0.314373,0.344594,4.783569,-36.324890,-30.830688,,,,,,
1478503252.08,3.119323,1.550249,0.464111,-2.795497,0.258826,1.681132,0.000458,-0.999789,0.020541,0.003937,-0.369382,0.324170,4.783569,-36.324890,-30.830688,,,,,,
1478503252.10,-0.668386,1.521258,-2.019023,-3.079020,0.775690,1.499867,-0.030687,-0.998773,-0.038863,0.029177,-0.246619,0.310683,5.312256,-34.674805,-31.052490,,,,,,
1478503252.12,-0.498940,1.453999,-2.172864,-3.200677,0.809552,1.211732,-0.055760,-0.993187,-0.102326,0.056401,-0.122398,0.354233,5.693176,-32.500366,-30.825806,,,,,,
1478503252.14,-0.418458,1.389495,-2.236969,-3.074703,0.919218,0.889714,-0.073269,-0.983610,-0.164752,0.119900,-0.055163,0.449694,5.479980,-28.301270,-30.154419,,,,,,
1478503252.16,-0.356334,1.330305,-2.278225,-2.821901,1.181431,0.643740,-0.083087,-0.971221,-0.223218,0.110522,0.044646,0.513440,5.185608,-26.577087,-29.482544,,,,,,
1478503252.18,-0.307334,1.277270,-2.301924,-2.504129,1.384713,0.537663,-0.087528,-0.957230,-0.275772,0.051517,0.144272,0.517990,5.185608,-26.577087,-29.482544,,,,,,
1478503252.20,-0.270255,1.231216,-2.309924,-2.097889,1.527943,0.560967,-0.088928,-0.942894,-0.321002,-0.024811,0.203774,0.544406,5.114929,-24.852051,-29.484009,,,,,,
1478503252.22,-0.246363,1.194066,-2.302110,-1.563450,1.568598,0.639422,-0.089718,-0.929873,-0.356774,0.010281,0.282381,0.592171,5.043213,-23.727356,-29.260132,,,,,,
1478503252.24,-0.231797,1.167972,-2.284619,-0.965892,1.507163,0.618315,-0.090057,-0.919957,-0.381534,0.113601,0.331441,0.607959,3.923584,-22.077698,-28.669189,,,,,,
1478503252.26,-0.222888,1.155355,-2.265484,-0.268080,1.206466,0.444836,-0.089213,-0.914938,-0.393610,0.217006,0.381476,0.616007,3.850342,-21.778442,-28.145020,,,,,,
1478503252.28,-0.220023,1.157619,-2.248911,0.457068,0.708029,0.218584,-0.087633,-0.915850,-0.391841,0.278947,0.429735,0.629192,3.850342,-21.778442,-28.145020,,,,,,
1478503252.30,-0.224617,1.172384,-2.233229,0.946719,0.437624,0.130139,-0.086411,-0.921678,-0.378209,0.321732,0.460771,0.591649,3.175964,-21.703430,-27.925049,,,,,,
1478503252.32,-0.238193,1.193568,-2.209183,1.264522,0.448073,0.252158,-0.086910,-0.929689,-0.357946,0.308986,0.441316,0.415731,2.649719,-22.829407,-27.103394,,,,,,
1478503252.34,-0.262824,1.219461,-2.172332,1.484828,0.542887,0.339449,-0.089414,-0.938914,-0.332334,0.000348,0.266459,0.077741,1.748413,-23.955139,-26.359619,,,,,,
1478503252.36,-0.290621,1.246230,-2.127040,1.477326,1.158452,0.350180,-0.091379,-0.947789,-0.305525,-0.184012,-0.146083,-0.368181,1.672791,-24.931396,-25.459595,,,,,,
1478503252.38,-0.291748,1.263058,-2.078596,0.620842,2.493999,0.581889,-0.087123,-0.953021,-0.290104,-0.532414,-0.934873,-1.521145,1.672791,-24.931396,-25.459595,,,,,,
1478503252.40,-0.288548,1.262770,-2.035520,0.050097,2.064411,0.469763,-0.086273,-0.952934,-0.290644,-0.196473,-0.480065,-0.610219,1.747559,-25.382141,-25.008911,,,,,,
1478503252.42,-0.259145,1.266463,-2.030776,0.462876,1.343421,-0.184732,-0.076788,-0.954047,-0.289652,0.467093,0.037848,-0.127142,2.495178,-26.207275,-25.152954,,,,,,
1478503252.44,-0.255397,1.293386,-2.035609,1.920602,-1.207008,-0.479415,-0.069187,-0.961768,-0.264983,0.592227,0.654349,0.151839,2.869934,-26.132141,-25.375122,,,,,,
1478503252.46,-0.316175,1.338613,-2.014884,2.064952,-1.696030,-0.156398,-0.071547,-0.973166,-0.218697,0.614866,-0.093621,0.725120,2.642273,-27.332214,-25.226196,,,,,,
1478503252.48,-0.407872,1.348479,-1.924354,0.176369,0.779962,1.535847,-0.087459,-0.975389,-0.202403,-0.248280,-1.507735,0.056697,2.642273,-27.332214,-25.226196,,,,,,
1478503252.50,-0.503855,1.332624,-1.795209,0.081186,1.440930,1.283096,-0.113907,-0.971771,-0.206608,-0.498047,-0.672730,-0.372174,1.816895,-28.233215,-24.256958,,,,,,
1478503252.52,-0.519307,1.352665,-1.757292,1.641238,0.596783,-0.963784,-0.107397,-0.976304,-0.187875,0.156470,0.462281,0.479883,0.690186,-28.982788,-24.189941,,,,,,
1478503252.54,-0.460242,1.402079,-1.818807,1.975400,-0.389412,-1.801401,-0.074583,-0.985801,-0.150445,0.429976,0.802329,0.830606,1.664490,-29.809326,-23.507324,,,,,,
1478503252.56,-0.449929,1.448770,-1.835596,2.098031,-0.050655,-0.607939,-0.052938,-0.992564,-0.109609,0.148214,0.621653,0.798147,2.489319,-30.711304,-22.450684,,,,,,
1478503252.58,-0.667110,1.481706,-1.607081,1.895279,0.759374,0.411633,-0.055049,-0.996034,-0.069898,-0.353109,-0.066054,0.551847,2.489319,-30.711304,-22.450684,,,,,,
1478503252.60,-0.951213,1.501305,-1.309012,1.360357,0.549554,-0.195622,-0.056529,-0.997586,-0.040321,-0.298894,-0.462100,0.148109,3.240479,-31.463928,-20.944702,,,,,,
1478503252.62,-1.299983,1.522329,-0.951881,1.495822,0.318992,-0.522393,-0.046682,-0.998826,-0.012961,0.052267,-0.148605,0.053869,3.540710,-33.192505,-18.691528,,,,,,
1478503252.64,-2.041975,1.528571,-0.207872,1.646926,-0.142033,-0.412282,-0.037613,-0.999109,0.019162,0.175080,0.185586,0.026126,4.142578,-33.645081,-17.186768,,,,,,
1478503252.66,-2.564376,1.511701,0.307388,1.419342,-0.471339,-0.147970,-0.032229,-0.998254,0.049492,0.032168,0.077310,0.039452,4.217224,-34.321045,-16.510986,,,,,,
1478503252.68,-2.753242,1.487357,0.485670,1.403616,-0.638567,0.058711,-0.031559,-0.996521,0.077136,-0.122250,0.033325,-0.020496,4.217224,-34.321045,-16.510986,,,,,,
1478503252.70,-2.868858,1.457967,0.583630,1.653991,-1.078315,-0.021210,-0.030328,-0.993641,0.108429,0.025491,0.139104,-0.043197,4.293823,-34.773132,-15.160034,,,,,,
1478503252.72,-2.967148,1.424660,0.658093,1.745676,-1.268707,-0.138576,-0.025273,-0.989341,0.143407,0.170476,0.016441,0.010188,3.245300,-35.976013,-12.917358,,,,,,
1478503252.74,-3.041344,1.393987,0.709355,1.455995,-1.114503,-0.236207,-0.017603,-0.984410,0.175007,0.034968,-0.038982,0.079250,3.020691,-36.577332,-11.943726,,,,,,
1478503252.76,-3.098776,1.370069,0.747712,1.103290,-0.933590,-0.291646,-0.008534,-0.979922,0.199200,-0.168987,-0.045698,0.068684,2.572388,-37.104370,-10.446777,,,,,,
1478503252.78,3.139294,1.350322,0.776766,0.979089,-0.776936,-0.274470,0.000503,-0.975794,0.218692,-0.239822,0.045008,0.021740,2.572388,-37.104370,-10.446777,,,,,,
1478503252.80,3.106114,1.329643,0.798081,1.080043,-0.535938,-0.270024,0.008471,-0.971063,0.238672,-0.096713,0.047784,0.047842,2.423340,-37.255249,-9.772949,,,,,,
1478503252.82,3.077563,1.307119,0.818567,1.122543,-0.396672,-0.344517,0.016677,-0.965438,0.260099,-0.010833,0.017638,0.044681,1.750244,-37.932678,-7.977661,,,,,,
1478503252.84,3.049052,1.285285,0.840892,1.027359,-0.322883,-0.414345,0.026027,-0.959518,0.280443,-0.010631,0.002105,-0.008669,1.976074,-38.309143,-7.075684,,,,,,
1478503252.86,3.022877,1.265581,0.862474,0.924201,-0.271518,-0.413926,0.035590,-0.953782,0.298383,-0.042151,-0.004332,-0.086988,1.976257,-38.609802,-6.625610,,,,,,
1478503252.88,2.997745,1.246566,0.881907,0.905876,-0.384101,-0.442596,0.045669,-0.947896,0.315289,-0.027679,-0.019755,-0.140423,1.976257,-38.609802,-6.625610,,,,,,
1478503252.90,2.970280,1.227198,0.900873,0.919337,-0.538258,-0.466771,0.057430,-0.941549,0.331946,-0.012599,-0.033076,-0.194403,1.753540,-39.062317,-4.902100,,,,,,
1478503252.92,2.944044,1.207953,0.915455,0.888514,-0.689256,-0.392195,0.069661,-0.934892,0.348030,-0.030950,-0.119750,-0.258904,1.754028,-39.288086,-4.376831,,,,,,
1478503252.94,2.920407,1.189984,0.923134,0.844485,-0.901933,-0.284599,0.081540,-0.928363,0.362620,-0.062131,-0.182477,-0.299311,1.980652,-39.364502,-3.475098,,,,,,
1478503252.96,2.896618,1.172897,0.926595,0.802103,-1.117636,-0.271730,0.093977,-0.921877,0.375914,-0.041517,-0.112791,-0.315108,1.530212,-39.965088,-2.953125,,,,,,
1478503252.98,2.864771,1.156717,0.935737,0.663521,-1.199755,-0.473556,0.109961,-0.915487,0.387030,-0.088584,-0.065821,-0.198446,1.530212,-39.965088,-2.953125,,,,,,
1478503253.00,2.823266,1.145604,0.957509,0.233869,-0.962070,-0.628502,0.129102,-0.910960,0.391772,-0.182614,-0.154592,-0.029742,1.607178,-40.267090,-1.602539,,,,,,
1478503253.02,2.787995,1.141624,0.981924,-0.063742,-0.489347,-0.472247,0.144092,-0.909310,0.390375,-0.215839,-0.277427,-0.087549,1.530884,-40.641907,-1.752930,,,,,,
1478503253.04,2.764807,1.140873,0.998651,-0.080689,-0.416282,-0.276583,0.153355,-0.908998,0.387564,-0.258122,-0.171721,-0.294058,2.130615,-40.867432,-1.598267,,,,,,
1478503253.06,2.744277,1.140893,1.011187,-0.185367,-0.468064,-0.261112,0.161272,-0.909006,0.384317,-0.389726,-0.554877,-0.346658,1.755249,-41.017212,-1.601074,,,,,,
1478503253.08,2.713475,1.151544,1.035889,-1.079198,-0.344102,-0.186375,0.169002,-0.913393,0.370339,-0.535274,-0.609815,-0.330147,1.755249,-41.017212,-1.601074,,,,,,
1478503253.10,2.673662,1.182071,1.075868,-2.089017,-0.026451,-0.009381,0.170948,-0.925393,0.338267,-0.395115,-0.444282,-0.505610,1.525635,-42.291016,-2.352051,,,,,,
1478503253.12,2.606209,1.226292,1.151310,-2.873067,0.228411,-0.211010,0.172300,-0.941243,0.290472,-0.052046,-0.294780,-0.481039,1.597229,-42.664185,-3.551270,,,,,,
1478503253.14,2.492637,1.273551,1.274094,-3.081963,0.040009,-0.301289,0.177008,-0.956147,0.233348,0.119134,-0.176895,-0.316493,1.292480,-42.660461,-5.953735,,,,,,
1478503253.16,2.346311,1.315387,1.418748,-2.740639,-0.652843,0.095506,0.180401,-0.967560,0.176870,-0.067471,-0.080765,-0.048956,1.212402,-42.656616,-8.504272,,,,,,
1478503253.18,2.204577,1.357444,1.545195,-2.372461,-0.958660,1.014529,0.170617,-0.977327,0.125390,-0.266106,-0.264647,0.197242,1.212402,-42.656616,-8.504272,,,,,,
1478503253.20,2.070788,1.407610,1.671869,-2.389458,-0.053993,1.683693,0.142576,-0.986715,0.077888,-0.249509,-0.525462,0.375161,0.304565,-42.124268,-13.086426,,,,,,
1478503253.22,1.847277,1.457810,1.912627,-2.554221,1.222358,1.658490,0.108464,-0.993624,0.030777,-0.406469,-0.289823,0.454468,-0.898376,-41.971191,-14.745483,,,,,,
1478503253.24,1.317987,1.491861,2.481398,-2.827410,2.200377,1.599082,0.076347,-0.996886,-0.019723,-0.317711,-0.158326,0.400949,-2.327881,-41.891968,-17.081177,,,,,,
1478503253.26,0.575936,1.481722,-3.008824,-2.960685,2.518945,1.454157,0.048447,-0.996036,-0.074606,-0.305756,-0.083875,0.399023,-2.856873,-39.784729,-21.736206,,,,,,
1478503253.28,0.206790,1.436090,-2.587140,-2.962622,2.504439,1.244463,0.027574,-0.990941,-0.131439,-0.320528,-0.114574,0.423110,-2.856873,-39.784729,-21.736206,,,,,,
1478503253.30,0.068693,1.382546,-2.397424,-2.792406,2.487130,1.101717,0.012845,-0.982333,-0.186699,-0.259214,-0.150479,0.499168,-3.083801,-38.430603,-24.363525,,,,,,
1478503253.32,0.014843,1.331118,-2.288912,-2.534337,2.739448,1.030365,0.003523,-0.971414,-0.237364,-0.213957,-0.130575,0.594771,-2.334717,-37.002686,-26.608643,,,,,,
1478503253.34,-0.003109,1.283784,-2.209388,-2.288171,3.085217,1.040772,-0.000880,-0.959094,-0.283087,-0.168996,-0.053983,0.640249,-2.185608,-35.499268,-28.933472,,,,,,
1478503253.36,-0.006928,1.242326,-2.139849,-1.942174,3.132888,1.104342,-0.002235,-0.946537,-0.322588,-0.093529,0.034016,0.606905,0.438416,-33.170410,-32.364868,,,,,,
1478503253.38,-0.010276,1.209381,-2.072289,-1.463977,2.928143,1.180732,-0.003633,-0.935397,-0.353580,0.016619,0.145755,0.586231,0.438416,-33.170410,-32.364868,,,,,,
1478503253.40,-0.014536,1.186616,-2.011446,-0.922734,2.444980,1.070540,-0.005448,-0.927106,-0.374760,0.141129,0.230191,0.568409,1.338806,-32.269531,-33.258545,,,,,,
1478503253.42,-0.016100,1.175273,-1.964402,-0.332812,1.900269,0.807422,-0.006203,-0.922795,-0.385241,0.246010,0.298024,0.581622,2.538879,-31.668945,-33.999756,,,,,,
1478503253.44,-0.017182,1.176009,-1.930741,0.278095,1.288486,0.558359,-0.006608,-0.923078,-0.384555,0.326432,0.354353,0.609012,3.439087,-31.369019,-34.293091,,,,,,
1478503253.46,-0.018720,1.189028,-1.906179,0.862590,0.944499,0.423710,-0.006974,-0.928007,-0.372497,0.360184,0.409437,0.645217,4.338135,-31.894897,-34.061157,,,,,,
1478503253.48,-0.031709,1.208849,-1.876044,1.044334,0.652174,0.668924,-0.011226,-0.935209,-0.353918,0.334362,0.406217,0.566275,4.338135,-31.894897,-34.061157,,,,,,
1478503253.50,-0.065441,1.229800,-1.824725,1.118345,0.851449,0.870218,-0.021870,-0.942422,-0.333711,0.231220,0.381951,0.372560,5.236389,-32.870728,-33.754028,,,,,,
1478503253.52,-0.094802,1.250789,-1.768949,1.117142,1.326771,0.817327,-0.029778,-0.949233,-0.313161,0.026787,0.161834,0.078618,5.237915,-33.397888,-32.328735,,,,,,
1478503253.54,-0.119709,1.271570,-1.702324,1.112368,2.406630,0.992364,-0.035204,-0.955565,-0.292672,-0.048521,-0.332628,-0.359413,5.161194,-34.673889,-31.578613,,,,,,
1478503253.56,-0.169773,1.278317,-1.604154,0.226766,1.978811,1.657719,-0.048715,-0.957532,-0.284182,-0.425070,-0.804126,-1.623304,6.136902,-35.726929,-29.920776,,,,,,
1478503253.58,-0.228590,1.276253,-1.505909,0.189796,1.638693,1.075753,-0.065784,-0.956935,-0.282751,-0.487576,-0.117635,-0.686060,6.136902,-35.726929,-29.920776,,,,,,
1478503253.60,-0.254601,1.283906,-1.462464,0.839941,0.187984,0.215032,-0.071269,-0.959128,-0.273849,0.094218,0.194373,-0.199387,6.510864,-36.177246,-29.842773,,,,,,
1478503253.62,-0.298723,1.317878,-1.432526,2.469891,-1.114702,-0.176409,-0.073643,-0.968186,-0.239149,0.273762,0.582581,0.306425,6.585266,-36.853027,-29.316895,,,,,,
1478503253.64,-0.376287,1.361444,-1.355264,1.831626,0.813497,0.584652,-0.076370,-0.978166,-0.193286,-0.170731,-1.182815,0.332599,5.759583,-38.880859,-27.146973,,,,,,
1478503253.66,-0.454829,1.349959,-1.233385,-0.658150,3.044773,1.685299,-0.096229,-0.975714,-0.196778,-0.953469,-1.970529,-0.035736,5.683655,-39.706787,-26.547119,,,,,,
1478503253.68,-0.437390,1.341356,-1.180726,0.484192,3.800996,0.010645,-0.096335,-0.973794,-0.206023,-0.075387,-0.136771,0.135130,5.683655,-39.706787,-26.547119,,,,,,
1478503253.70,-0.345901,1.372266,-1.219987,1.651624,1.902249,-1.539541,-0.066869,-0.980357,-0.185547,0.944738,1.095729,0.977479,6.434509,-39.557495,-26.316650,,,,,,
1478503253.72,-0.166567,1.415688,-1.371676,1.842014,1.619333,-1.820156,-0.025614,-0.987995,-0.152349,1.216532,1.246036,1.061483,8.309631,-40.084473,-25.627319,,,,,,
1478503253.74,-0.014192,1.456640,-1.499674,2.039699,0.966608,-0.406550,-0.001616,-0.993491,-0.113897,-0.059068,0.669700,0.376165,10.636353,-40.462646,-24.259644,,,,,,
1478503253.76,-0.145285,1.495735,-1.356968,1.943295,0.084343,0.888694,-0.010857,-0.997184,-0.074201,-0.616691,-0.655587,0.169431,12.740784,-41.594177,-20.643433,,,,,,
1478503253.78,-0.552896,1.529286,-0.958545,2.011167,-0.511953,0.092665,-0.021793,-0.999139,-0.035315,0.001087,-0.890281,0.329489,12.740784,-41.594177,-20.643433,,,,,,
1478503253.80,-1.977624,1.555691,0.461311,2.080991,-0.248472,-0.534342,-0.013872,-0.999886,0.005977,0.115114,0.090310,0.045262,11.990295,-42.870789,-19.298340,,,,,,
1478503253.82,-2.993089,1.526177,1.471150,1.808465,-0.232207,-0.215450,-0.006600,-0.999005,0.044114,0.007607,0.446637,0.033218,11.916626,-43.623230,-17.648438,,,,,,
1478503253.84,-3.068839,1.492050,1.547696,1.731718,0.162064,0.012396,-0.005718,-0.996901,0.078457,-0.115635,0.025908,0.072117,12.220276,-44.753235,-14.420776,,,,,,
1478503253.86,-3.098833,1.456794,1.578517,1.820976,-0.150543,-0.126087,-0.004863,-0.993509,0.113652,-0.000524,0.089425,0.017101,12.370667,-45.354675,-13.519287,,,,,,
1478503253.88,3.134690,1.419694,1.618842,1.869252,-0.621412,-0.273071,0.001039,-0.988606,0.150524,0.120558,0.070591,0.018681,12.370667,-45.354675,-13.519287,,,,,,
1478503253.90,3.096297,1.385050,1.644969,1.635891,-0.615362,-0.260524,0.008362,-0.982799,0.184491,-0.038483,-0.105946,0.045032,11.997681,-46.032288,-11.646606,,,,,,
1478503253.92,3.063494,1.355496,1.666627,1.386168,-0.583576,-0.342846,0.016668,-0.976912,0.212990,-0.192755,-0.048784,0.064415,12.000122,-46.259521,-10.146484,,,,,,
1478503253.94,3.029813,1.329220,1.688196,1.261484,-0.676648,-0.388098,0.026686,-0.970962,0.237740,-0.213362,0.082061,0.017432,12.903442,-46.563049,-8.114624,,,,,,
1478503253.96,3.002271,1.303351,1.702374,1.291763,-0.688604,-0.296367,0.036699,-0.964449,0.261708,-0.116976,-0.016401,-0.022999,12.829651,-46.789368,-7.215088,,,,,,
1478503253.98,2.985687,1.276665,1.705114,1.333833,-0.683583,-0.206725,0.045015,-0.957054,0.286392,0.000044,-0.102653,-0.057358,12.829651,-46.789368,-7.215088,,,,,,
1478503254.00,2.974004,1.250727,1.703089,1.263458,-0.685498,-0.197528,0.052482,-0.949213,0.310225,0.058754,-0.066930,-0.072737,13.431396,-46.866150,-6.235596,,,,,,
1478503254.02,2.953426,1.226142,1.709319,1.164191,-0.777331,-0.388479,0.063202,-0.941192,0.331908,0.006852,-0.013993,-0.102232,13.208130,-47.017578,-5.187256,,,,,,
1478503254.04,2.926097,1.202338,1.720775,1.118422,-0.863201,-0.442889,0.077017,-0.932884,0.351847,-0.021414,-0.029000,-0.154123,13.511963,-46.795166,-3.534912,,,,,,
1478503254.06,2.902161,1.179149,1.727506,1.107023,-0.892052,-0.339652,0.090523,-0.924281,0.370823,-0.075371,-0.104832,-0.219547,13.737793,-46.720764,-3.233276,,,,,,
1478503254.08,2.885993,1.156988,1.726098,1.069936,-0.871997,-0.189791,0.101661,-0.915596,0.389036,-0.205177,-0.207786,-0.309263,13.737793,-46.720764,-3.233276,,,,,,
1478503254.10,2.873392,1.136330,1.720362,1.021657,-0.920813,-0.149585,0.111544,-0.907095,0.405878,-0.213656,-0.180125,-0.394892,14.115540,-46.572754,-2.030518,,,,,,
1478503254.12,2.857930,1.115956,1.716475,0.984876,-0.972593,-0.259351,0.122954,-0.898331,0.421762,-0.206145,-0.089202,-0.396738,14.341125,-46.723511,-1.578735,,,,,,
1478503254.14,2.831587,1.099481,1.724605,0.509264,-0.920668,-0.494104,0.138517,-0.890972,0.432414,-0.219099,-0.133290,-0.235866,14.493530,-46.575195,-0.527710,,,,,,
1478503254.16,2.800245,1.095482,1.744203,-0.190676,-0.541067,-0.447432,0.153191,-0.889149,0.431215,-0.118584,-0.308483,-0.231477,14.343750,-46.575256,-0.453735,,,,,,
1478503254.18,2.776420,1.099666,1.761821,-0.347189,-0.405952,-0.215373,0.162090,-0.891056,0.423965,-0.114254,-0.214321,-0.448532,14.343750,-46.575256,-0.453735,,,,,,
1478503254.20,2.756222,1.104127,1.771006,-0.278769,-0.705156,-0.080414,0.169124,-0.893072,0.416917,-0.374385,-0.526987,-0.526460,15.094238,-46.125183,-0.748413,,,,,,
1478503254.22,2.728064,1.117033,1.783599,-1.119079,-0.931326,0.098407,0.176149,-0.898804,0.401402,-0.658326,-0.688034,-0.423634,15.616577,-46.574341,-1.494263,,,,,,
1478503254.24,2.688499,1.153342,1.809598,-2.294858,-0.574813,0.245755,0.177479,-0.914124,0.364526,-0.336841,-0.416382,-0.450738,15.764038,-46.647583,-2.693115,,,,,,
1478503254.26,2.621754,1.202962,1.879211,-3.092189,0.092948,-0.156701,0.178626,-0.933108,0.312093,0.157526,-0.246961,-0.356145,15.309448,-46.493652,-5.171753,,,,,,
1478503254.28,2.514104,1.253225,1.992569,-3.086655,-0.240809,-0.206194,0.183332,-0.949997,0.252776,0.163637,-0.244309,-0.071898,15.309448,-46.493652,-5.171753,,,,,,
1478503254.30,2.394817,1.297610,2.105132,-2.593772,-0.745321,0.421080,0.183269,-0.962916,0.198002,-0.035427,-0.426870,0.202343,15.455444,-46.190186,-7.570679,,,,,,
1478503254.32,2.294987,1.347065,2.191285,-2.516857,-0.791928,1.383880,0.166188,-0.975076,0.146995,-0.189854,-0.632757,0.194268,15.297607,-44.981934,-12.972534,,,,,,
1478503254.34,2.188767,1.406023,2.290757,-2.634714,-0.169353,1.840020,0.133692,-0.986456,0.095035,-0.331355,-0.446619,0.327206,14.243286,-44.978149,-15.155396,,,,,,
1478503254.36,1.982471,1.466245,2.506087,-2.844250,0.722054,1.945026,0.095641,-0.994540,0.041759,-0.296416,-0.342161,0.397984,12.665222,-44.674500,-17.042358,,,,,,
1478503254.38,1.314109,1.511261,-3.079083,-3.020067,1.764667,1.853055,0.057550,-0.998228,-0.015106,-0.092401,-0.286409,0.396377,12.665222,-44.674500,-17.042358,,,,,,
1478503254.40,0.329836,1.492188,-2.050318,-3.115930,2.297994,1.637752,0.025434,-0.996912,-0.074294,-0.099698,-0.173605,0.406371,11.386597,-44.220276,-19.452148,,,,,,
1478503254.42,0.009970,1.434549,-1.682869,-3.140918,2.250747,1.348143,0.001354,-0.990733,-0.135819,-0.134396,-0.105703,0.405823,10.183838,-41.888245,-23.737305,,,,,,
1478503254.44,-0.073368,1.373162,-1.554274,-2.964761,2.169867,1.071400,-0.014393,-0.980534,-0.195822,-0.105007,-0.059582,0.471732,10.482910,-40.685425,-25.685791,,,,,,
1478503254.46,-0.089182,1.316195,-1.493822,-2.694682,2.198128,0.828006,-0.022432,-0.967764,-0.250859,-0.085372,0.032904,0.559376,10.933167,-39.107849,-27.558105,,,,,,
1478503254.48,-0.080093,1.265658,-1.455238,-2.351459,2.387487,0.732735,-0.024036,-0.953806,-0.299462,-0.073483,0.094263,0.636284,10.933167,-39.107849,-27.558105,,,,,,
1478503254.50,-0.070656,1.223453,-1.415804,-1.896562,2.304997,0.855649,-0.024031,-0.940280,-0.339552,-0.066087,0.142978,0.635786,11.683411,-37.680786,-29.203369,,,,,,
1478503254.52,-0.073292,1.190736,-1.367475,-1.385221,2.029778,1.044100,-0.027165,-0.928642,-0.369981,0.037663,0.254707,0.629273,13.485107,-35.654114,-30.915771,,,,,,
1478503254.54,-0.081862,1.168698,-1.317746,-0.815095,1.744105,1.025314,-0.032001,-0.920242,-0.390039,0.148136,0.303024,0.603617,14.235596,-35.128906,-31.285400,,,,,,
1478503254.56,-0.094466,1.158140,-1.272446,-0.213680,1.298067,0.853655,-0.037829,-0.916059,-0.399256,0.249758,0.321439,0.631098,13.636108,-34.828369,-31.440063,,,,,,
1478503254.58,-0.107716,1.161161,-1.239295,0.476177,0.593660,0.533846,-0.042818,-0.917266,-0.395966,0.315721,0.356857,0.650773,13.636108,-34.828369,-31.440063,,,,,,
1478503254.60,-0.125071,1.174947,-1.212490,0.861226,0.272557,0.449162,-0.048101,-0.922670,-0.382580,0.386510,0.405336,0.560085,15.136414,-34.904541,-31.203735,,,,,,
1478503254.62,-0.150431,1.193043,-1.178942,1.061462,0.395099,0.524591,-0.055275,-0.929495,-0.364668,0.282890,0.467627,0.401671,15.061768,-35.881592,-29.778809,,,,,,
1478503254.64,-0.166982,1.214116,-1.144811,1.178875,0.848899,0.401064,-0.058034,-0.937061,-0.344309,0.030049,0.344028,0.075083,14.536011,-36.782471,-29.032349,,,,,,
1478503254.66,-0.167939,1.235453,-1.115290,1.201903,2.004709,0.261046,-0.055008,-0.944297,-0.324464,-0.004898,-0.060280,-0.126464,13.936768,-37.383850,-27.911621,,,,,,
1478503254.68,-0.146637,1.260852,-1.086132,1.267333,2.498797,0.295782,-0.044565,-0.952350,-0.301733,-0.137899,-0.552883,-0.990595,13.936768,-37.383850,-27.911621,,,,,,
1478503254.70,-0.143217,1.275796,-1.044227,0.620927,1.914539,0.612469,-0.041497,-0.956802,-0.287764,-0.668479,-0.476700,-0.957201,15.588135,-38.212280,-26.173706,,,,,,
1478503254.72,-0.147362,1.287690,-1.011712,0.753004,0.951550,0.247409,-0.041015,-0.960192,-0.276312,-0.114930,0.004397,-0.299509,17.615479,-39.041626,-23.983032,,,,,,
1478503254.74,-0.169628,1.310789,-0.989842,1.519734,-0.700586,0.051882,-0.043400,-0.966388,-0.253397,0.279179,0.264041,0.080134,17.465698,-39.793091,-22.933838,,,,,,
1478503254.76,-0.226029,1.354462,-0.955505,2.557096,-1.001401,-0.076086,-0.048105,-0.976691,-0.209191,0.410471,0.584906,0.677498,17.614502,-40.693970,-22.407349,,,,,,
1478503254.78,-0.280435,1.386489,-0.899649,0.793345,0.600287,0.414227,-0.050723,-0.983063,-0.176106,0.049197,-0.950500,-0.043117,17.614502,-40.693970,-22.407349,,,,,,
1478503254.80,-0.315466,1.380023,-0.818511,-0.219251,2.988549,0.815924,-0.058831,-0.981858,-0.180261,-0.512016,-1.882797,-0.136191,17.391479,-41.822449,-20.008423,,,,,,
1478503254.82,-0.278607,1.388747,-0.800178,1.085696,2.581462,-0.424943,-0.049791,-0.983475,-0.174064,0.169008,-0.326736,0.185554,17.392517,-42.499451,-18.657959,,,,,,
1478503254.84,-0.126496,1.430428,-0.921920,2.122398,0.934939,-1.882555,-0.017651,-0.990164,-0.138790,0.537655,1.189704,0.760403,18.144531,-42.651611,-17.452271,,,,,,
1478503254.86,0.167414,1.470202,-1.217203,1.965288,-0.315826,-1.307749,0.016734,-0.994945,-0.099021,0.407231,1.253841,0.746314,20.247192,-42.579651,-16.161499,,,,,,
1478503254.88,0.334374,1.509754,-1.385250,2.166651,0.172559,0.496940,0.020020,-0.998137,-0.057626,-0.336442,0.471206,0.631768,20.247192,-42.579651,-16.161499,,,,,,
1478503254.90,0.299892,1.552929,-1.347888,1.899276,0.045677,0.593598,0.005278,-0.999840,-0.017069,-0.602034,-0.690299,0.302622,21.828186,-42.810303,-12.924561,,,,,,
1478503254.92,2.649888,1.552704,2.590935,1.568198,0.500618,-0.553250,0.008542,-0.999836,0.015948,-0.152615,-0.689327,0.292707,20.629150,-44.012695,-10.907837,,,,,,
1478503254.94,2.727258,1.518292,2.524649,1.643234,0.487761,-0.634785,0.021128,-0.998622,0.048040,0.182348,0.137004,-0.012914,20.856079,-44.465088,-9.406006,,,,,,
1478503254.96,2.757781,1.483613,2.496556,1.624949,-0.042815,-0.562756,0.032605,-0.996202,0.080738,-0.004529,0.160737,0.010937,21.758667,-44.392273,-8.199341,,,,,,
1478503254.98,2.793073,1.451702,2.460063,1.550606,-0.035679,-0.254470,0.040575,-0.992917,0.111670,-0.125780,-0.060886,-0.027700,21.758667,-44.392273,-8.199341,,,,,,
1478503255.00,2.847635,1.421337,2.400492,1.612098,-0.408297,-0.074729,0.043144,-0.988852,0.142516,-0.068199,0.099554,-0.064559,22.740173,-43.871765,-5.567261,,,,,,
1478503255.02,2.871094,1.387767,2.361434,1.753937,-0.925190,-0.217935,0.048635,-0.983297,0.175391,0.098063,0.038457,-0.026053,22.142273,-44.023193,-4.371704,,,,,,
1478503255.04,2.865256,1.354116,2.348321,1.571986,-0.881754,-0.398901,0.058656,-0.976617,0.206832,0.049681,-0.075752,0.038728,22.893494,-44.250000,-3.465820,,,,,,
1478503255.06,2.843419,1.325645,2.355059,1.222726,-0.728397,-0.509632,0.071300,-0.970101,0.231993,-0.114284,0.011162,0.016801,22.895752,-44.176575,-2.415894,,,,,,
1478503255.08,2.816556,1.302112,2.367824,1.027739,-0.747955,-0.514932,0.084774,-0.964121,0.251563,-0.240276,0.063318,-0.012794,22.895752,-44.176575,-2.415894,,,,,,
1478503255.10,2.793999,1.278921,2.375107,1.121030,-0.787698,-0.452659,0.098018,-0.957706,0.270540,-0.218394,-0.042706,-0.047030,23.649597,-43.728943,-1.060425,,,,,,
1478503255.12,2.782670,1.253576,2.370665,1.259883,-0.774539,-0.332692,0.109569,-0.950106,0.292049,-0.105907,-0.079069,-0.022930,23.576721,-43.354797,-0.461182,,,,,,
1478503255.14,2.780433,1.228343,2.359258,1.223872,-0.574690,-0.254421,0.118658,-0.941934,0.314136,-0.009664,-0.062446,0.006360,24.102539,-43.280579,-0.157227,,,,,,
1478503255.16,2.777183,1.205452,2.352515,1.053401,-0.445330,-0.349231,0.127331,-0.934001,0.333811,0.008747,0.004725,-0.054193,24.403931,-43.206604,0.444946,,,,,,
1478503255.18,2.765864,1.184336,2.355967,0.928821,-0.385130,-0.495843,0.138308,-0.926249,0.350619,0.013410,0.004145,-0.153704,24.403931,-43.206604,0.444946,,,,,,
1478503255.20,2.750925,1.163829,2.363350,0.901003,-0.432868,-0.503375,0.150733,-0.918326,0.366002,-0.077033,-0.059046,-0.259008,25.007996,-42.759155,1.949219,,,,,,
1478503255.22,2.739050,1.143935,2.364607,0.922828,-0.619261,-0.349683,0.162194,-0.910270,0.380923,-0.188302,-0.149560,-0.318133,25.535278,-42.235107,2.402832,,,,,,
1478503255.24,2.729296,1.125503,2.358576,0.876316,-0.856457,-0.199483,0.172597,-0.902484,0.394629,-0.258367,-0.209241,-0.333060,26.137878,-41.711487,3.082153,,,,,,
1478503255.26,2.718567,1.108425,2.351088,0.846667,-0.860559,-0.230510,0.183122,-0.894997,0.406751,-0.238313,-0.163658,-0.332975,26.062805,-42.011841,3.381714,,,,,,
1478503255.28,2.702442,1.091966,2.351437,0.638458,-0.744710,-0.430892,0.195894,-0.887534,0.417023,-0.261141,-0.121804,-0.351441,26.062805,-42.011841,3.381714,,,,,,
1478503255.30,2.676757,1.082449,2.365969,0.055964,-0.583143,-0.548240,0.210316,-0.883110,0.419386,-0.242650,-0.285119,-0.271788,26.889526,-41.487610,3.612793,,,,,,
1478503255.32,2.646231,1.080790,2.389939,-0.283530,-0.426883,-0.515215,0.223714,-0.882330,0.414060,-0.219305,-0.354791,-0.350263,27.188477,-41.562134,3.164917,,,,,,
1478503255.34,2.618053,1.083225,2.411944,-0.408510,-0.447055,-0.301906,0.234217,-0.883473,0.405731,-0.413217,-0.440135,-0.490692,27.490479,-40.887451,3.316895,,,,,,
1478503255.36,2.594446,1.093036,2.429219,-0.845057,-0.378206,0.040488,0.239208,-0.888027,0.392667,-0.659236,-0.688816,-0.563474,28.088013,-40.961121,2.196411,,,,,,
1478503255.38,2.561112,1.122226,2.458438,-2.152697,-0.335120,0.315329,0.237840,-0.901068,0.362641,-0.575502,-0.644266,-0.514252,28.088013,-40.961121,2.196411,,,,,,
1478503255.40,2.493799,1.173836,2.533808,-3.404794,0.391199,0.096572,0.233296,-0.922241,0.308295,0.012157,-0.347840,-0.360144,28.084534,-41.409241,0.996582,,,,,,
1478503255.42,2.389841,1.225817,2.657468,-3.392975,0.465838,-0.048248,0.230948,-0.941082,0.247037,0.117044,-0.247944,-0.091534,27.630493,-41.405945,-1.031738,,,,,,
1478503255.44,2.260810,1.271915,2.794834,-3.019830,-0.182549,0.395492,0.227092,-0.955666,0.187433,-0.049587,-0.327583,0.215415,28.076538,-41.102722,-3.353516,,,,,,
1478503255.46,2.135900,1.318809,2.915696,-2.603446,-0.508626,1.260521,0.210566,-0.968419,0.133516,-0.192820,-0.583903,0.312513,27.393311,-40.795654,-7.858765,,,,,,
1478503255.48,1.999239,1.372490,3.048051,-2.594445,-0.226909,1.853068,0.179202,-0.980402,0.081848,-0.325519,-0.432822,0.413834,27.393311,-40.795654,-7.858765,,,,,,
1478503255.50,1.788145,1.427537,-3.015254,-2.727157,0.650175,2.101161,0.139411,-0.989756,0.030787,-0.410773,-0.304342,0.528707,25.962280,-41.316345,-10.269287,,,,,,
1478503255.52,1.332466,1.470001,-2.529715,-3.026720,1.764300,2.076529,0.097781,-0.994924,-0.023756,-0.263445,-0.304255,0.446958,24.606995,-42.063171,-11.929077,,,,,,
1478503255.54,0.644897,1.467957,-1.793429,-3.155826,2.519951,1.850060,0.061709,-0.994717,-0.082040,-0.213855,-0.199589,0.457941,22.953308,-42.284912,-13.516357,,,,,,
1478503255.56,0.238717,1.424159,-1.330777,-3.162219,2.668206,1.592191,0.034549,-0.989268,-0.141969,-0.250629,-0.118902,0.475251,21.973755,-41.980530,-16.148804,,,,,,
1478503255.58,0.071472,1.368360,-1.108399,-2.965379,2.593455,1.418808,0.014358,-0.979580,-0.200544,-0.211684,-0.062275,0.562818,21.973755,-41.980530,-16.148804,,,,,,
1478503255.60,0.005430,1.314509,-0.987050,-2.626071,2.676716,1.208711,0.001376,-0.967338,-0.253488,-0.215839,-0.013604,0.671212,21.296997,-41.603210,-17.504150,,,,,,
1478503255.62,-0.014385,1.265896,-0.908075,-2.336749,2.940718,1.086417,-0.004318,-0.953877,-0.300167,-0.205597,-0.008815,0.737408,21.446533,-40.851440,-18.703369,,,,,,
1478503255.64,-0.014741,1.223187,-0.842407,-1.996274,3.170271,1.112422,-0.005021,-0.940190,-0.340614,-0.120665,0.042470,0.786521,21.597107,-40.250793,-19.152466,,,,,,
1478503255.66,-0.012170,1.189359,-0.779051,-1.484743,3.055783,1.189922,-0.004530,-0.928131,-0.372227,0.006560,0.133392,0.799336,22.572083,-39.725281,-19.820435,,,,,,
1478503255.68,-0.011203,1.167482,-0.719278,-0.835995,2.642344,1.133440,-0.004397,-0.919765,-0.392444,0.114611,0.227047,0.730502,22.572083,-39.725281,-19.820435,,,,,,
1478503255.70,-0.012827,1.159091,-0.667643,-0.151917,2.078024,0.964545,-0.005133,-0.916440,-0.400140,0.241446,0.293591,0.691094,22.272705,-39.800781,-19.447754,,,,,,
1478503255.72,-0.017776,1.164920,-0.627050,0.587522,1.356326,0.713163,-0.007018,-0.918757,-0.394761,0.366317,0.330759,0.702607,22.797852,-40.026550,-19.068604,,,,,,
1478503255.74,-0.028356,1.184619,-0.595031,1.193459,0.720993,0.564172,-0.010679,-0.926355,-0.376499,0.468656,0.403986,0.688068,22.648987,-40.478149,-17.944580,,,,,,
1478503255.76,-0.048242,1.210834,-0.562635,1.390901,0.451445,0.526280,-0.016986,-0.935910,-0.351830,0.498630,0.524777,0.520683,22.051941,-41.381775,-15.323608,,,,,,
1478503255.78,-0.067577,1.237501,-0.530319,1.346681,0.695257,0.408572,-0.022092,-0.944969,-0.326413,0.295697,0.577843,0.272671,22.051941,-41.381775,-15.323608,,,,,,
1478503255.80,-0.070883,1.263301,-0.505617,1.325925,1.226066,0.276716,-0.021436,-0.953095,-0.301913,0.011488,0.301910,-0.019422,21.678101,-42.058777,-13.901123,,,,,,
1478503255.82,-0.075184,1.290348,-0.459384,1.294588,2.427568,0.849545,-0.020790,-0.960931,-0.276005,-0.150657,-0.315222,-0.498455,21.306335,-42.211243,-12.103882,,,,,,
1478503255.84,-0.146862,1.297116,-0.334529,0.287574,2.588248,2.009393,-0.039551,-0.962783,-0.267367,-0.869430,-0.689729,-1.001111,21.087952,-42.666992,-8.205200,,,,,,
1478503255.86,-0.193735,1.299908,-0.239335,0.468851,1.631974,0.764252,-0.051517,-0.963534,-0.262581,-0.015179,0.098467,-0.323250,19.513000,-43.492737,-7.166626,,,,,,
1478503255.88,-0.205885,1.322571,-0.221460,1.740561,-0.512331,-0.392187,-0.050226,-0.969350,-0.240495,0.218500,0.532704,0.293916,19.513000,-43.492737,-7.166626,,,,,,
1478503255.90,-0.219086,1.378938,-0.228230,3.078816,-0.659681,-0.680539,-0.041443,-0.981652,-0.186125,0.520904,0.737938,0.965438,19.583557,-45.142517,-7.315186,,,,,,
1478503255.92,-0.263322,1.409094,-0.182455,0.177429,0.154477,0.543484,-0.041906,-0.986955,-0.155449,-0.028940,-2.071578,-0.568672,20.260925,-45.219849,-6.035156,,,,,,
1478503255.94,-0.289505,1.399667,-0.109540,-0.144417,3.302289,0.619955,-0.048615,-0.985393,-0.163208,-0.245528,-1.855061,-0.177170,20.117676,-45.149658,-2.736206,,,,,,
1478503255.96,-0.223192,1.409215,-0.110075,1.070390,3.380224,-0.585953,-0.035610,-0.986974,-0.156889,0.330333,0.279134,0.591520,19.668335,-45.901367,-1.464233,,,,,,
1478503255.98,0.006219,1.449808,-0.298079,2.112952,1.397610,-1.975958,0.000751,-0.992690,-0.120691,0.619840,1.403716,1.015695,19.668335,-45.901367,-1.464233,,,,,,
1478503256.00,0.462468,1.484085,-0.749636,2.226556,0.048291,-1.476158,0.038639,-0.996243,-0.077506,0.282193,1.187954,0.806510,20.197876,-45.153625,-0.110718,,,,,,
1478503256.02,0.888679,1.517391,-1.174988,2.131584,0.043870,0.592713,0.041436,-0.998574,-0.033653,-0.512902,0.160287,0.271919,22.603333,-44.332397,1.557007,,,,,,
1478503256.04,1.726951,1.545651,-2.017482,1.770225,-0.205977,0.658172,0.024836,-0.999684,0.003910,-0.431605,-0.924022,0.180736,23.213562,-43.588989,5.761230,,,,,,
1478503256.06,2.506081,1.524826,-2.793444,1.613951,0.444150,-0.564657,0.027278,-0.998944,0.036982,-0.016032,-0.449741,0.239705,21.940552,-43.815308,7.026733,,,,,,
1478503256.08,2.615755,1.490362,-2.894986,1.616868,0.288997,-0.606985,0.040330,-0.996767,0.069493,0.204955,0.221834,-0.103993,21.940552,-43.815308,7.026733,,,,,,
1478503256.10,2.683510,1.459315,-2.963675,1.483777,-0.156483,-0.346266,0.049198,-0.993792,0.099781,-0.041691,0.219546,-0.083332,22.244934,-43.292664,8.528687,,,,,,
1478503256.12,2.757547,1.431455,-3.040767,1.499070,-0.120917,-0.046047,0.052039,-0.990308,0.128773,-0.269278,-0.064853,-0.048375,22.772217,-42.994141,9.357544,,,,,,
1478503256.14,2.811377,1.401688,-3.102636,1.630046,-0.561365,-0.112785,0.054572,-0.985735,0.159210,-0.194159,0.112307,-0.112457,23.679749,-41.873108,11.688843,,,,,,
1478503256.16,2.825545,1.366769,-3.133750,1.811522,-0.929330,-0.378417,0.062975,-0.979258,0.192580,0.033369,0.151103,-0.046980,23.608093,-41.199280,12.512939,,,,,,
1478503256.18,2.819764,1.331225,3.136680,1.663227,-0.857449,-0.474081,0.075054,-0.971440,0.225103,-0.007396,-0.068538,0.023096,23.608093,-41.199280,12.512939,,,,,,
1478503256.20,2.804418,1.300515,3.139657,1.324076,-0.485186,-0.545704,0.088330,-0.963696,0.251969,-0.164212,-0.118763,0.044433,24.138184,-40.301697,13.941528,,,,,,
1478503256.22,2.786509,1.274505,-3.130659,1.092503,-0.178065,-0.650700,0.101511,-0.956426,0.273761,-0.206567,0.021093,0.028714,24.664062,-40.227600,14.320435,,,,,,
1478503256.24,2.771903,1.250077,-3.117365,1.097058,-0.052670,-0.627447,0.113908,-0.949009,0.293951,-0.202866,0.049839,-0.003866,26.020813,-38.580139,15.604736,,,,,,
1478503256.26,2.766231,1.224365,-3.111526,1.207130,0.000936,-0.482152,0.124480,-0.940590,0.315903,-0.045988,-0.077858,-0.038010,25.574585,-37.906555,16.651001,,,,,,
1478503256.28,2.769467,1.198967,-3.115200,1.202098,-0.021569,-0.371437,0.132102,-0.931664,0.338454,0.037148,-0.076225,-0.061156,25.574585,-37.906555,16.651001,,,,,,
1478503256.30,2.772614,1.175114,-3.119578,1.112683,-0.055247,-0.401683,0.139013,-0.922734,0.359496,-0.008886,-0.036189,-0.131362,26.478210,-37.083069,17.407349,,,,,,
1478503256.32,2.767695,1.152454,-3.115621,0.984517,-0.066306,-0.525852,0.148380,-0.913764,0.378179,-0.001514,-0.003229,-0.197820,26.709656,-35.735596,18.983398,,,,,,
1478503256.34,2.758789,1.131078,-3.107969,0.923601,-0.135199,-0.533534,0.159003,-0.904872,0.394874,-0.064795,-0.128713,-0.297370,27.835327,-35.285828,18.766724,,,,,,
1478503256.36,2.750474,1.111080,-3.104604,0.887732,-0.363936,-0.376901,0.169146,-0.896179,0.410187,-0.146075,-0.240266,-0.389237,27.838684,-34.687195,19.666382,,,,,,
1478503256.38,2.744722,1.093152,-3.109370,0.875091,-0.589622,-0.185017,0.177685,-0.888080,0.423959,-0.155240,-0.215603,-0.447107,27.838684,-34.687195,19.666382,,,,,,
1478503256.40,2.735955,1.075200,-3.116025,0.883248,-0.843591,-0.268681,0.187657,-0.879685,0.436965,-0.164479,-0.112090,-0.499893,28.290833,-33.937561,19.819458,,,,,,
1478503256.42,2.712647,1.059994,-3.111405,0.431254,-1.005473,-0.481689,0.203330,-0.872353,0.444587,-0.230186,-0.162834,-0.358665,29.043701,-33.339050,20.499878,,,,,,
1478503256.44,2.677678,1.055936,-3.091189,-0.276944,-0.757470,-0.550892,0.220332,-0.870361,0.440369,-0.196375,-0.285736,-0.266419,29.644470,-32.663696,20.053955,,,,,,
1478503256.46,2.644024,1.059730,-3.065248,-0.521912,-0.473083,-0.400448,0.233446,-0.872224,0.429801,-0.296694,-0.413223,-0.400611,30.544006,-32.212830,19.235596,,,,,,
1478503256.48,2.620474,1.067979,-3.047945,-0.627445,-0.391583,-0.003029,0.239912,-0.876228,0.417931,-0.654997,-0.684029,-0.463219,30.544006,-32.212830,19.235596,,,,,,
1478503256.50,2.598895,1.089403,-3.034193,-1.507458,-0.569151,0.419270,0.239123,-0.886351,0.396488,-0.819109,-0.775316,-0.478702,30.692871,-32.362366,18.861572,,,,,,
1478503256.52,2.554644,1.136205,-2.995127,-3.029097,-0.206105,0.511483,0.233181,-0.907042,0.350572,-0.476483,-0.608873,-0.494294,31.360413,-33.934998,17.067383,,,,,,
1478503256.54,2.481388,1.194393,-2.907785,-3.419442,0.585675,0.172816,0.225427,-0.929993,0.290337,0.086355,-0.426498,-0.204553,30.453186,-35.281799,15.186279,,,,,,
1478503256.56,2.379782,1.244987,-2.790516,-3.110334,0.289160,0.150482,0.220927,-0.947392,0.231603,0.103216,-0.195781,0.073131,31.046753,-36.479492,13.466431,,,,,,
