timestamp(unix),attitude_roll(radians),attitude_pitch(radians),attitude_yaw(radians),rotation_rate_x(radians/s),rotation_rate_y(radians/s),rotation_rate_z(radians/s),gravity_x(G),gravity_y(G),gravity_z(G),user_acc_x(G),user_acc_y(G),user_acc_z(G),magnetic_field_x(microteslas),magnetic_field_y(microteslas),magnetic_field_z(microteslas),latitude(degree),longitude(degree),altitude(meter),speed(m/s),course(degree),timestamp(unix)
1478503475.59,-0.600228,1.290918,-1.955626,-0.011226,0.003861,0.001436,-0.156028,-0.961089,-0.227954,-0.000786,-0.003739,0.005176,-13.381470,-30.834534,-21.841675,,,,,,
,,,,,,,,,,,,,,,,37.392598,-122.003842,10.474915,-1.000000,-1.000000,1478503441.85
1478503475.61,-0.599786,1.291047,-1.956070,-0.008014,-0.001456,-0.003862,-0.155857,-0.961125,-0.227921,0.005451,-0.000713,0.005051,-12.856323,-30.759827,-21.837769,,,,,,
,,,,,,,,,,,,,,,,37.391947,-122.011798,10.474915,0.620000,301.640625,1478503124.00
,,,,,,,,,,,,,,,,37.392598,-122.003842,10.474915,-1.000000,-1.000000,1478503441.85
1478503475.63,-0.598754,1.291166,-1.957288,-0.002696,-0.015283,-0.010200,-0.155558,-0.961158,-0.227987,0.004221,-0.000070,0.000417,-12.856323,-30.759827,-21.837769,,,,,,
1478503475.65,-0.598136,1.291252,-1.958422,0.002589,-0.030182,-0.013315,-0.155370,-0.961181,-0.228015,-0.000147,-0.003464,-0.006803,-13.154663,-30.460327,-21.390259,,,,,,
1478503475.67,-0.597975,1.291409,-1.959352,0.006815,-0.041889,-0.014339,-0.155249,-0.961224,-0.227915,0.000555,-0.003635,-0.005849,-13.454651,-30.460205,-21.392456,,,,,,
,,,,,,,,,,,,,,,,37.392598,-122.003843,10.474915,-1.000000,-1.000000,1478503475.66
1478503475.69,-0.598584,1.291508,-1.959492,0.004688,-0.031260,-0.009043,-0.155333,-0.961252,-0.227742,-0.006486,-0.004874,-0.002986,-13.379639,-30.460205,-21.391968,,,,,,
,,,,,,,,,,,,,,,,37.392598,-122.003843,10.474915,-1.000000,-1.000000,1478503475.67
1478503475.71,-0.599353,1.291410,-1.959088,0.001562,-0.005740,-0.005904,-0.155562,-0.961225,-0.227700,-0.010271,-0.004763,-0.002571,-13.304688,-30.460266,-21.391357,,,,,,
1478503475.73,-0.599929,1.291259,-1.958402,0.001613,0.016578,-0.001677,-0.155775,-0.961183,-0.227730,-0.010622,-0.004271,-0.000816,-13.304688,-30.460266,-21.391357,,,,,,
1478503475.75,-0.600189,1.291147,-1.957545,0.000586,0.038896,0.004672,-0.155895,-0.961152,-0.227779,-0.006489,-0.001601,-0.000829,-13.155640,-30.534790,-21.765259,,,,,,
1478503475.77,-0.600306,1.291064,-1.956509,0.003813,0.049514,0.005739,-0.155967,-0.961129,-0.227826,-0.004418,0.003579,0.001325,-14.280334,-30.534485,-21.623657,,,,,,
1478503475.79,-0.599903,1.291149,-1.955989,0.010209,0.043122,0.001526,-0.155829,-0.961153,-0.227822,0.002249,-0.000700,0.000328,-13.306213,-30.534302,-22.066406,,,,,,
1478503475.81,-0.598929,1.291346,-1.956268,0.011222,0.027119,-0.002671,-0.155500,-0.961207,-0.227816,0.005735,-0.002751,-0.003492,-13.081482,-30.985107,-21.614380,,,,,,
1478503475.83,-0.598282,1.291717,-1.956554,0.013303,0.011167,-0.003701,-0.155152,-0.961309,-0.227623,0.006012,-0.004572,0.000999,-13.081482,-30.985107,-21.614380,,,,,,
1478503475.85,-0.598135,1.292129,-1.956510,0.013289,0.009039,-0.002635,-0.154895,-0.961423,-0.227319,0.002017,-0.005664,0.000939,-12.931702,-31.060120,-21.613281,,,,,,
1478503475.87,-0.597735,1.292609,-1.956725,0.013279,0.005850,-0.002631,-0.154545,-0.961555,-0.226999,0.007038,-0.006020,-0.000296,-13.380615,-30.609802,-21.691895,,,,,,
1478503475.89,-0.597676,1.292938,-1.956621,0.015420,0.009033,-0.002625,-0.154353,-0.961645,-0.226747,0.001170,-0.003596,-0.000441,-13.156006,-30.759888,-21.690186,,,,,,
1478503475.91,-0.597736,1.293123,-1.956245,0.022883,0.018569,0.001660,-0.154266,-0.961696,-0.226590,0.003311,-0.003636,-0.007053,-12.856018,-30.760071,-21.687866,,,,,,
1478503475.93,-0.593802,1.293190,-1.959782,0.027985,-0.011245,0.019823,-0.153338,-0.961714,-0.227142,0.036517,-0.003053,-0.033997,-12.856018,-30.760071,-21.687866,,,,,,
1478503475.95,-0.590050,1.293193,-1.964638,0.023106,-0.130352,0.050836,-0.152483,-0.961715,-0.227713,0.062944,-0.005570,-0.043268,-12.630920,-30.910522,-21.461060,,,,,,
1478503475.97,-0.599025,1.292805,-1.960134,0.016008,-0.294116,0.067054,-0.154731,-0.961609,-0.226643,0.059714,-0.002274,-0.041270,-12.781494,-30.985229,-21.612183,,,,,,
1478503475.99,-0.606700,1.292045,-1.959481,0.006057,-0.407827,0.060781,-0.156883,-0.961400,-0.226050,0.043891,0.001088,-0.044031,-13.456299,-30.984985,-21.542236,,,,,,
1478503476.01,-0.617808,1.291288,-1.957021,-0.024843,-0.443839,0.041505,-0.159805,-0.961191,-0.224886,0.016067,-0.002401,-0.034941,-13.605103,-30.760376,-21.243408,,,,,,
1478503476.03,-0.625508,1.289568,-1.958144,-0.069572,-0.446876,0.037006,-0.162500,-0.960715,-0.224989,0.001458,0.011146,-0.029619,-13.605103,-30.760376,-21.243408,,,,,,
1478503476.05,-0.632496,1.287737,-1.960054,-0.102504,-0.436122,0.028293,-0.165108,-0.960205,-0.225267,0.000939,0.005097,-0.019454,-13.605103,-30.685242,-21.318604,,,,,,
1478503476.07,-0.636601,1.285329,-1.964328,-0.127787,-0.387103,0.009983,-0.167405,-0.959530,-0.226445,-0.008300,-0.005085,-0.015178,-14.129700,-30.835510,-20.947388,,,,,,
1478503476.09,-0.637825,1.283075,-1.969560,-0.133706,-0.261623,0.004437,-0.168970,-0.958893,-0.227977,-0.022910,-0.011276,-0.009266,-14.504822,-30.534668,-21.400391,,,,,,
1478503476.11,-0.635484,1.280651,-1.975314,-0.135108,-0.101037,-0.022425,-0.169815,-0.958202,-0.230242,-0.020264,-0.020985,-0.016645,-13.903748,-30.310425,-21.095947,,,,,,
1478503476.13,-0.628107,1.279357,-1.983948,-0.122757,-0.024515,-0.086307,-0.168840,-0.957831,-0.232491,-0.007552,-0.017449,-0.028693,-13.903748,-30.310425,-21.095947,,,,,,
1478503476.15,-0.617166,1.278616,-1.996013,-0.116182,-0.038290,-0.123508,-0.166697,-0.957618,-0.234903,0.003763,-0.016228,-0.015707,-14.203979,-30.535522,-20.948120,,,,,,
1478503476.17,-0.606452,1.278242,-2.008619,-0.110836,-0.081848,-0.151089,-0.164374,-0.957510,-0.236970,0.003837,-0.005777,-0.014052,-14.279358,-30.685425,-20.948608,,,,,,
1478503476.19,-0.594583,1.278108,-2.023113,-0.103219,-0.111565,-0.193581,-0.161622,-0.957472,-0.239011,-0.006927,-0.003161,-0.015552,-14.503784,-30.460327,-20.950439,,,,,,
1478503476.21,-0.581270,1.278350,-2.039612,-0.098755,-0.132763,-0.238232,-0.158299,-0.957541,-0.240948,-0.011882,0.001502,-0.009266,-14.353760,-30.385254,-21.024292,,,,,,
1478503476.23,-0.567926,1.279124,-2.056547,-0.086893,-0.142320,-0.266890,-0.154671,-0.957764,-0.242413,-0.015602,0.004884,-0.001605,-14.353760,-30.385254,-21.024292,,,,,,
1478503476.25,-0.554571,1.280573,-2.073764,-0.064372,-0.150849,-0.295491,-0.150689,-0.958180,-0.243278,-0.019339,0.011754,0.008567,-14.203979,-30.535522,-20.948120,,,,,,
1478503476.27,-0.541403,1.282614,-2.091020,-0.036581,-0.158349,-0.314483,-0.146465,-0.958762,-0.243565,-0.021733,0.022330,0.010044,-13.978271,-30.310669,-20.871460,,,,,,
1478503476.29,-0.529445,1.285408,-2.107459,-0.012204,-0.194625,-0.318516,-0.142188,-0.959552,-0.242985,-0.024453,0.021381,0.017888,-14.128845,-30.610779,-20.797485,,,,,,
1478503476.31,-0.519544,1.288670,-2.122801,0.011003,-0.245748,-0.309790,-0.138220,-0.960466,-0.241663,-0.024652,0.019883,0.021188,-13.827881,-30.461365,-20.495361,,,,,,
1478503476.33,-0.512639,1.292257,-2.135958,0.025592,-0.297934,-0.286206,-0.134858,-0.961458,-0.239607,-0.026275,0.017427,0.026991,-13.827881,-30.461365,-20.495361,,,,,,
1478503476.35,-0.507815,1.295784,-2.148709,0.038998,-0.396880,-0.270009,-0.132050,-0.962422,-0.237290,-0.019378,0.018757,0.022965,-13.453613,-30.761536,-20.492310,,,,,,
1478503476.37,-0.507999,1.299711,-2.158112,0.063057,-0.471434,-0.239952,-0.130255,-0.963481,-0.233962,-0.016459,0.006465,0.023940,-13.526672,-30.687805,-19.592896,,,,,,
1478503476.39,-0.510776,1.303486,-2.166094,0.088160,-0.543872,-0.205636,-0.129125,-0.964485,-0.230425,-0.018550,-0.004021,0.016848,-13.903076,-30.911987,-20.045654,,,,,,
1478503476.41,-0.516311,1.307189,-2.172743,0.106904,-0.616278,-0.176679,-0.128634,-0.965456,-0.226599,-0.020917,-0.019254,0.013769,-13.752441,-30.987732,-19.594482,,,,,,
1478503476.43,-0.523834,1.310645,-2.178473,0.104399,-0.675854,-0.149988,-0.128666,-0.966351,-0.222734,-0.010800,-0.012561,0.000978,-13.752441,-30.987732,-19.594482,,,,,,
1478503476.45,-0.532862,1.313505,-2.183770,0.077393,-0.735418,-0.127664,-0.129267,-0.967083,-0.219183,-0.008230,-0.014347,0.000524,-14.127197,-31.138000,-19.297241,,,,,,
1478503476.47,-0.543538,1.315758,-2.188582,0.057869,-0.797054,-0.106387,-0.130472,-0.967654,-0.215925,-0.012090,-0.018446,0.000440,-14.576782,-31.288330,-18.925537,,,,,,
1478503476.49,-0.556210,1.317561,-2.192789,0.044793,-0.859758,-0.094653,-0.132276,-0.968107,-0.212772,-0.015902,-0.012453,-0.000805,-14.726135,-31.363953,-18.476562,,,,,,
1478503476.51,-0.568174,1.319265,-2.198009,0.019351,-0.856454,-0.112894,-0.133925,-0.968533,-0.209783,-0.034777,-0.020725,-0.011057,-15.400513,-31.364014,-18.181763,,,,,,
1478503476.53,-0.576316,1.321084,-2.205980,0.026270,-0.779857,-0.154487,-0.134668,-0.968984,-0.207209,-0.045126,-0.015346,0.014215,-15.400513,-31.364014,-18.181763,,,,,,
1478503476.55,-0.583426,1.322918,-2.215400,0.010165,-0.804268,-0.148151,-0.135158,-0.969435,-0.204762,-0.037113,-0.025163,-0.007274,-15.624084,-31.289856,-17.583374,,,,,,
1478503476.57,-0.589634,1.324838,-2.224811,0.024157,-0.795777,-0.166182,-0.135392,-0.969904,-0.202372,-0.027968,-0.007192,-0.002309,-15.474670,-31.514893,-17.582153,,,,,,
1478503476.59,-0.596020,1.326795,-2.235836,0.004747,-0.894554,-0.184234,-0.135616,-0.970379,-0.199932,-0.018666,0.001431,-0.010304,-16.223999,-31.590210,-17.137695,,,,,,
1478503476.61,-0.602041,1.328497,-2.249104,-0.033882,-0.974165,-0.184324,-0.135882,-0.970789,-0.197750,-0.023695,-0.006735,0.004437,-16.298096,-31.590820,-16.688232,,,,,,
1478503476.63,-0.607863,1.329541,-2.262976,-0.073321,-0.960237,-0.172851,-0.136452,-0.971039,-0.196124,-0.022225,0.002838,0.017459,-16.298096,-31.590820,-16.688232,,,,,,
1478503476.65,-0.611622,1.330000,-2.278324,-0.098775,-0.918701,-0.167731,-0.136932,-0.971148,-0.195245,-0.027588,0.013934,0.029916,-16.822205,-31.591248,-16.242065,,,,,,
1478503476.67,-0.613155,1.330031,-2.294328,-0.118729,-0.821905,-0.159472,-0.137214,-0.971156,-0.195010,-0.027749,0.018397,0.035846,-16.596802,-31.816956,-15.790405,,,,,,
1478503476.69,-0.612319,1.329955,-2.311201,-0.118470,-0.763418,-0.168075,-0.137093,-0.971138,-0.195185,-0.020744,0.021095,0.029734,-17.046692,-31.967285,-15.493652,,,,,,
1478503476.71,-0.610683,1.330323,-2.328026,-0.090553,-0.725211,-0.181818,-0.136569,-0.971225,-0.195116,-0.012204,0.029041,0.025499,-17.870972,-32.042542,-15.049805,,,,,,
1478503476.73,-0.609575,1.331132,-2.343684,-0.063899,-0.701925,-0.172126,-0.135903,-0.971418,-0.194623,-0.010414,0.027936,0.014173,-17.870972,-32.042542,-15.049805,,,,,,
1478503476.75,-0.609775,1.332192,-2.357402,-0.047799,-0.663708,-0.169967,-0.135352,-0.971669,-0.193752,-0.008020,0.027501,0.012798,-17.570129,-31.968079,-14.747559,,,,,,
1478503476.77,-0.608674,1.333566,-2.371578,-0.036866,-0.617995,-0.189136,-0.134375,-0.971993,-0.192805,-0.002100,0.026619,0.006938,-17.269653,-31.893494,-14.595459,,,,,,
1478503476.79,-0.605417,1.335505,-2.386630,-0.004461,-0.543627,-0.218877,-0.132673,-0.972446,-0.191692,-0.001985,0.020756,0.000057,-18.394653,-31.892883,-14.603882,,,,,,
1478503476.81,-0.598328,1.337439,-2.403990,0.026945,-0.463924,-0.257147,-0.130251,-0.972896,-0.191073,-0.009077,-0.003545,-0.024274,-18.169006,-32.194092,-13.852051,,,,,,
1478503476.83,-0.586977,1.339887,-2.423757,0.039065,-0.368258,-0.268936,-0.126755,-0.973459,-0.190555,-0.003998,-0.006171,-0.031796,-18.169006,-32.194092,-13.852051,,,,,,
1478503476.85,-0.573868,1.342823,-2.443558,0.044613,-0.290678,-0.261574,-0.122694,-0.974127,-0.189799,0.017835,0.012029,-0.046987,-18.318359,-32.194519,-13.553101,,,,,,
1478503476.87,-0.562683,1.346355,-2.460517,0.046819,-0.257739,-0.255225,-0.118727,-0.974919,-0.188249,0.035414,0.027470,-0.059478,-17.943726,-32.344727,-13.550293,,,,,,
1478503476.89,-0.543601,1.348794,-2.484843,0.044619,-0.254560,-0.243540,-0.113884,-0.975458,-0.188445,0.041358,0.029475,-0.063493,-17.794006,-32.569946,-13.398926,,,,,,
1478503476.91,-0.533647,1.351958,-2.500529,0.043395,-0.269470,-0.226491,-0.110431,-0.976150,-0.186910,0.040775,0.036804,-0.068217,-17.868652,-32.945862,-12.799438,,,,,,
1478503476.93,-0.515201,1.353853,-2.524718,0.076456,-0.296113,-0.248630,-0.106053,-0.976560,-0.187305,0.022573,0.049100,-0.058300,-17.868652,-32.945862,-12.799438,,,,,,
1478503476.95,-0.504792,1.358395,-2.542116,0.121379,-0.333381,-0.298358,-0.101952,-0.977528,-0.184515,-0.001106,0.039188,-0.084193,-17.717529,-32.646301,-12.573486,,,,,,
1478503476.97,-0.474224,1.362294,-2.575857,0.104689,-0.018239,-0.521410,-0.094524,-0.978342,-0.184152,-0.044102,0.040033,-0.060171,-17.193542,-32.946289,-12.719360,,,,,,
1478503476.99,-0.405292,1.369687,-2.639280,0.013743,0.675935,-0.922154,-0.078761,-0.979846,-0.183573,-0.044209,0.063677,-0.065755,-16.817627,-33.097595,-12.041382,,,,,,
1478503477.01,-0.311890,1.379743,-2.725607,0.215019,0.305355,-0.948160,-0.058270,-0.981805,-0.180732,-0.077472,-0.043052,-0.123772,-16.519104,-33.923035,-11.813843,,,,,,
1478503477.03,-0.217451,1.387723,-2.810376,0.219303,0.562373,-0.808014,-0.039276,-0.983289,-0.177765,-0.014999,-0.086871,-0.102096,-16.519104,-33.923035,-11.813843,,,,,,
1478503477.05,-0.138316,1.395118,-2.884940,0.262784,0.142048,-0.670879,-0.024097,-0.984608,-0.173107,0.028538,-0.037059,-0.158207,-15.845581,-34.373230,-11.958618,,,,,,
1478503477.07,-0.046015,1.399853,-2.968881,0.191718,0.584799,-0.813522,-0.007825,-0.985425,-0.169931,0.016477,0.046429,-0.087759,-14.420837,-34.899658,-11.422607,,,,,,
1478503477.09,0.086223,1.403336,-3.087192,0.218946,0.641472,-1.047649,0.014354,-0.986011,-0.166059,-0.099986,0.029163,-0.114550,-13.896729,-35.199829,-11.493408,,,,,,
1478503477.11,0.225641,1.404150,3.068439,0.220266,0.797667,-1.001041,0.037112,-0.986147,-0.161671,-0.150011,-0.003355,-0.062954,-13.299133,-36.325439,-11.263428,,,,,,
1478503477.13,0.349809,1.402392,2.958092,0.172484,0.758267,-0.877761,0.057443,-0.985853,-0.157459,-0.188302,0.036803,-0.130246,-13.299133,-36.325439,-11.263428,,,,,,
1478503477.15,0.461022,1.399309,2.860492,0.188817,0.699598,-0.796680,0.075915,-0.985332,-0.152832,-0.207889,0.055339,-0.108413,-12.698669,-36.326111,-11.033936,,,,,,
1478503477.17,0.558270,1.395955,2.773390,0.246198,0.521700,-0.702418,0.092146,-0.984754,-0.147541,-0.239576,0.053281,-0.098430,-11.050659,-37.227112,-10.946045,,,,,,
1478503477.19,0.641767,1.393290,2.697418,0.279150,0.402317,-0.587089,0.105700,-0.984287,-0.141444,-0.274508,0.051899,-0.116705,-10.675659,-37.678162,-10.343140,,,,,,
1478503477.21,0.714086,1.391223,2.631684,0.286949,0.374472,-0.486941,0.116976,-0.983920,-0.134974,-0.314745,0.071170,-0.109091,-10.451050,-37.978516,-10.191284,,,,,,
1478503477.23,0.774890,1.389741,2.577688,0.262785,0.401959,-0.355117,0.125982,-0.983654,-0.128658,-0.338629,0.076153,-0.101826,-10.451050,-37.978516,-10.191284,,,,,,
1478503477.25,0.820494,1.389638,2.539993,0.230896,0.444264,-0.172263,0.131791,-0.983636,-0.122850,-0.347763,0.057519,-0.099913,-9.550903,-38.204468,-9.809204,,,,,,
1478503477.27,0.852710,1.391536,2.516266,0.223509,0.435509,-0.017938,0.134273,-0.983976,-0.117313,-0.352383,-0.028140,-0.081784,-9.550049,-38.580811,-8.909180,,,,,,
1478503477.29,0.876201,1.395488,2.500520,0.245965,0.377806,0.106820,0.134003,-0.984673,-0.111636,-0.347626,-0.120659,-0.077069,-10.073914,-38.806885,-8.087891,,,,,,
1478503477.31,0.891690,1.401375,2.490880,0.247989,0.244706,0.219871,0.131203,-0.985683,-0.105905,-0.351829,-0.244130,-0.103949,-10.524536,-39.181824,-7.941040,,,,,,
1478503477.33,0.890251,1.408978,2.494989,0.189843,0.061738,0.386956,0.125222,-0.986936,-0.101375,-0.317224,-0.290408,-0.126087,-10.524536,-39.181824,-7.941040,,,,,,
1478503477.35,0.862800,1.418694,2.521339,0.134570,-0.157536,0.580764,0.115102,-0.988455,-0.098533,-0.292806,-0.276774,-0.125390,-10.749451,-39.332031,-7.717773,,,,,,
1478503477.37,0.803835,1.430510,2.575333,0.087943,-0.331039,0.785155,0.100678,-0.990176,-0.097033,-0.283570,-0.273236,-0.112776,-12.398193,-39.332214,-7.055176,,,,,,
1478503477.39,0.700732,1.443734,2.672661,0.007709,-0.314183,1.018879,0.081707,-0.991938,-0.096862,-0.275387,-0.212011,-0.105867,-14.499451,-39.705933,-7.220703,,,,,,
1478503477.41,0.538718,1.456280,2.831252,-0.076146,-0.167558,1.222579,0.058623,-0.993450,-0.098082,-0.255156,-0.092945,-0.109178,-15.022766,-39.331238,-6.849731,,,,,,
1478503477.43,0.309687,1.465104,3.060989,-0.144707,0.051347,1.406027,0.032151,-0.994420,-0.100477,-0.220689,0.025151,-0.122515,-15.022766,-39.331238,-6.849731,,,,,,
1478503477.45,0.025422,1.466399,-2.932297,-0.218394,0.304311,1.576622,0.002649,-0.994556,-0.104174,-0.184549,0.127978,-0.149122,-16.597473,-39.030029,-7.086792,,,,,,
1478503477.47,-0.258721,1.457307,-2.636394,-0.286134,0.636027,1.691775,-0.028973,-0.993567,-0.109477,-0.170963,0.162131,-0.137502,-20.120972,-37.827148,-7.863892,,,,,,
1478503477.49,-0.477763,1.438727,-2.397179,-0.366409,1.148712,1.698005,-0.060548,-0.991292,-0.116940,-0.180785,0.059269,-0.096622,-21.396790,-37.450256,-8.698486,,,,,,
1478503477.51,-0.609537,1.413948,-2.234375,-0.519786,1.629884,1.621915,-0.089426,-0.987725,-0.128075,-0.191977,-0.079017,-0.086921,-23.495728,-36.548340,-9.314697,,,,,,
1478503477.53,-0.673504,1.385164,-2.131024,-0.686068,2.097257,1.557484,-0.115120,-0.982820,-0.144266,-0.151069,-0.189818,-0.020147,-23.495728,-36.548340,-9.314697,,,,,,
1478503477.55,-0.693553,1.353844,-2.063877,-0.849762,2.391328,1.493332,-0.137607,-0.976558,-0.165527,-0.093976,-0.249242,-0.006013,-25.147766,-35.869690,-11.202515,,,,,,
1478503477.57,-0.689754,1.321261,-2.018560,-0.976151,2.378039,1.424530,-0.157149,-0.969027,-0.190501,-0.030321,-0.294767,0.018016,-26.726746,-33.160889,-16.540649,,,,,,
1478503477.59,-0.675765,1.287498,-1.987303,-1.101460,2.112733,1.382730,-0.174841,-0.960139,-0.218093,0.059988,-0.315328,0.031554,-26.953125,-31.807129,-18.943115,,,,,,
1478503477.61,-0.660799,1.252200,-1.962265,-1.206944,1.846183,1.407039,-0.192247,-0.949676,-0.247299,0.136537,-0.307557,0.078720,-27.105591,-30.302368,-22.020020,,,,,,
1478503477.63,-0.648784,1.215450,-1.940120,-1.266679,1.536985,1.416762,-0.210217,-0.937526,-0.277225,0.176601,-0.246678,0.110828,-27.105591,-30.302368,-22.020020,,,,,,
1478503477.65,-0.649567,1.176235,-1.924890,-1.456726,-0.014679,1.468112,-0.232503,-0.923165,-0.306118,0.227513,-0.177085,-0.064091,-26.733459,-27.520203,-26.968628,,,,,,
1478503477.67,-0.663325,1.136337,-1.901750,-1.287073,0.744543,1.679724,-0.259178,-0.907098,-0.331664,0.302742,-0.188834,0.441695,-26.507263,-25.417236,-28.992920,,,,,,
1478503477.69,-0.679172,1.093732,-1.882211,-1.389715,-0.343715,1.641430,-0.288429,-0.888346,-0.357280,0.216576,-0.030187,-0.023869,-26.730774,-23.539795,-30.570435,,,,,,
1478503477.71,-0.696129,1.053538,-1.864716,-1.322964,0.069723,1.590072,-0.317098,-0.869178,-0.379444,0.190588,-0.039238,0.164432,-27.329834,-21.736816,-32.375854,,,,,,
1478503477.73,-0.708424,1.013676,-1.851101,-1.246201,0.007890,1.545879,-0.344021,-0.848781,-0.401522,0.184231,-0.060795,0.303896,-27.329834,-21.736816,-32.375854,,,,,,
1478503477.75,-0.713445,0.976270,-1.840191,-1.237963,0.236736,1.378449,-0.366564,-0.828414,-0.423510,0.177202,-0.040894,0.216510,-27.698792,-17.382996,-34.780884,,,,,,
1478503477.77,-0.712837,0.942618,-1.834008,-1.118007,0.362157,1.175598,-0.384327,-0.809099,-0.444580,0.202214,-0.029600,0.278701,-27.321960,-15.581177,-36.129028,,,,,,
1478503477.79,-0.707890,0.912476,-1.830395,-1.042293,0.388788,1.007783,-0.397805,-0.791021,-0.464798,0.213265,-0.002985,0.253525,-26.495483,-13.929504,-37.473511,,,,,,
1478503477.81,-0.701186,0.886461,-1.828837,-0.928106,0.391963,0.807215,-0.407821,-0.774839,-0.483018,0.233794,0.003141,0.252946,-25.743408,-12.128174,-38.668823,,,,,,
1478503477.83,-0.693609,0.864894,-1.830169,-0.817285,0.293139,0.576978,-0.414738,-0.761027,-0.498829,0.251728,-0.014761,0.264287,-25.743408,-12.128174,-38.668823,,,,,,
1478503477.85,-0.686034,0.847826,-1.834568,-0.718350,0.158196,0.353118,-0.419116,-0.749844,-0.511934,0.272494,-0.041569,0.266344,-24.465820,-9.951660,-40.085327,,,,,,
1478503477.87,-0.679629,0.834990,-1.841589,-0.610064,-0.004459,0.151706,-0.421843,-0.741290,-0.522052,0.278853,-0.054792,0.276935,-23.189880,-9.051270,-40.751221,,,,,,
1478503477.89,-0.675435,0.826041,-1.850505,-0.498899,-0.187393,-0.010273,-0.423780,-0.735254,-0.528973,0.295789,-0.044424,0.280056,-21.839111,-8.376282,-41.191528,,,,,,
1478503477.91,-0.674370,0.820505,-1.860305,-0.369945,-0.389593,-0.131674,-0.425752,-0.731490,-0.532595,0.315797,-0.028504,0.292055,-21.462402,-8.002075,-40.813721,,,,,,
1478503477.93,-0.679552,0.821044,-1.868841,-0.012869,-0.704010,-0.338939,-0.428258,-0.731858,-0.530075,0.296300,-0.134948,0.308609,-21.462402,-8.002075,-40.813721,,,,,,
1478503477.95,-0.691665,0.832604,-1.877444,0.432869,-1.044896,-0.770286,-0.429223,-0.739686,-0.518297,0.232079,-0.323195,0.282366,-20.410950,-7.252258,-41.031250,,,,,,
1478503477.97,-0.706293,0.856596,-1.888744,0.807001,-1.211131,-1.237422,-0.425115,-0.755617,-0.498316,0.172659,-0.437040,0.263316,-20.710999,-7.627808,-40.583252,,,,,,
1478503477.99,-0.719638,0.889438,-1.904311,0.950433,-1.307751,-1.570739,-0.415141,-0.776718,-0.473674,0.148982,-0.411286,0.193126,-20.338379,-8.753296,-40.354980,,,,,,
1478503478.01,-0.730303,0.924610,-1.924540,0.869884,-1.345608,-1.658413,-0.401689,-0.798386,-0.448582,0.195329,-0.239623,0.145451,-20.789368,-9.804321,-39.532715,,,,,,
1478503478.03,-0.738161,0.958092,-1.947626,0.751443,-1.327223,-1.617576,-0.386989,-0.818096,-0.425392,0.257030,-0.021031,0.144478,-20.789368,-9.804321,-39.532715,,,,,,
1478503478.05,-0.744279,0.989886,-1.971548,0.719284,-1.278319,-1.558215,-0.371770,-0.835963,-0.403674,0.291264,0.217693,0.165255,-21.842041,-12.506775,-37.514404,,,,,,
1478503478.07,-0.747609,1.021290,-1.995404,0.724086,-1.105061,-1.547807,-0.355082,-0.852783,-0.382986,0.296168,0.391021,0.209692,-21.769104,-13.932983,-36.763184,,,,,,
1478503478.09,-0.743859,1.052586,-2.021567,0.682522,-0.844417,-1.569722,-0.335402,-0.868707,-0.364491,0.247496,0.343774,0.254872,-21.994141,-14.308533,-36.314575,,,,,,
1478503478.11,-0.730645,1.083394,-2.052537,0.623936,-0.632569,-1.622527,-0.312542,-0.883553,-0.348787,0.186031,0.058373,0.281145,-21.695374,-15.209534,-35.786865,,,,,,
1478503478.13,-0.709271,1.114581,-2.090068,0.623474,-0.629210,-1.717275,-0.286924,-0.897726,-0.334308,0.124906,-0.229227,0.259082,-21.695374,-15.209534,-35.786865,,,,,,
1478503478.15,-0.686652,1.147519,-2.132778,0.727186,-0.953678,-1.788597,-0.260396,-0.911748,-0.317664,0.114660,-0.360134,0.176398,-21.547668,-16.860901,-34.885132,,,,,,
1478503478.17,-0.670853,1.182790,-2.177410,0.886374,-1.463408,-1.806107,-0.235199,-0.925665,-0.296353,0.103012,-0.296457,0.114148,-21.099304,-17.461060,-34.956421,,,,,,
1478503478.19,-0.665765,1.220150,-2.220930,1.042039,-1.970034,-1.769352,-0.212169,-0.939151,-0.270147,0.048595,-0.265012,0.059927,-21.550842,-18.286255,-34.659302,,,,,,
1478503478.21,-0.664428,1.258620,-2.266248,1.054502,-2.114610,-1.798869,-0.189379,-0.951668,-0.241794,0.000155,-0.201363,0.022022,-22.151855,-19.412292,-33.763306,,,,,,
1478503478.23,-0.645911,1.296855,-2.326050,0.939947,-1.846149,-1.898906,-0.162838,-0.962712,-0.216031,-0.067127,-0.085384,0.024945,-22.151855,-19.412292,-33.763306,,,,,,
1478503478.25,-0.600813,1.332728,-2.409318,0.814257,-1.815999,-1.884739,-0.133316,-0.971795,-0.194527,-0.105271,-0.059409,0.001260,-24.029419,-22.264709,-31.525879,,,,,,
1478503478.27,-0.543500,1.364172,-2.503129,0.725111,-1.592877,-1.643927,-0.106094,-0.978729,-0.175595,-0.134766,-0.063645,0.019467,-24.629822,-23.466309,-30.254883,,,,,,
1478503478.29,-0.481375,1.391726,-2.602517,0.731061,-1.988722,-1.453811,-0.082467,-0.984010,-0.157874,-0.171394,-0.034957,-0.019937,-25.005981,-24.742676,-29.207031,,,,,,
1478503478.31,-0.414204,1.415903,-2.711641,0.651543,-1.941927,-1.318063,-0.062090,-0.988028,-0.141229,-0.161055,-0.079111,0.046823,-25.081055,-25.569092,-28.232178,,,,,,
1478503478.33,-0.298722,1.436296,-2.861931,0.515066,-1.347967,-1.478327,-0.039464,-0.990968,-0.128157,-0.180079,-0.080397,0.032072,-25.081055,-25.569092,-28.232178,,,,,,
1478503478.35,-0.102284,1.453545,-3.087480,0.569816,-1.413952,-1.585406,-0.011945,-0.993134,-0.116372,-0.284274,-0.129028,-0.082649,-25.906860,-27.822449,-25.762329,,,,,,
1478503478.37,0.170593,1.464626,2.901928,0.654011,-0.831586,-1.606055,0.017990,-0.994369,-0.104433,-0.320664,-0.109955,-0.066481,-26.507507,-28.648132,-25.091187,,,,,,
1478503478.39,0.465628,1.467573,2.588048,0.604325,-1.066642,-1.458005,0.046264,-0.994677,-0.092071,-0.366439,-0.053342,-0.230149,-25.308533,-29.775146,-24.181641,,,,,,
1478503478.41,0.718061,1.462956,2.310089,0.659688,-1.068194,-1.283121,0.070814,-0.994191,-0.081056,-0.292951,-0.042507,-0.105880,-24.034485,-31.127502,-22.971558,,,,,,
1478503478.43,0.924431,1.453688,2.081178,0.616240,-1.145823,-1.192759,0.093272,-0.993151,-0.070372,-0.338893,0.009020,-0.238740,-24.034485,-31.127502,-22.971558,,,,,,
1478503478.45,1.090591,1.440702,1.893718,0.630865,-0.869507,-1.162228,0.115056,-0.991550,-0.059929,-0.394963,0.029285,-0.143257,-22.834290,-31.353699,-22.587402,,,,,,
1478503478.47,1.222820,1.424842,1.747583,0.601195,-0.431483,-1.113027,0.136720,-0.989367,-0.049594,-0.479509,0.040286,-0.163145,-22.158752,-31.504761,-22.132324,,,,,,
1478503478.49,1.331402,1.407746,1.636629,0.545280,0.149056,-1.046090,0.157699,-0.986737,-0.038490,-0.543457,0.017926,-0.175087,-21.107544,-31.205627,-21.899536,,,,,,
1478503478.51,1.419692,1.390689,1.556656,0.480228,0.660414,-0.919485,0.177094,-0.983825,-0.026965,-0.555115,-0.024064,-0.178266,-16.756409,-29.705811,-23.217651,,,,,,
1478503478.53,1.489509,1.375793,1.502021,0.391359,0.865558,-0.732934,0.193130,-0.981047,-0.015734,-0.531555,-0.078920,-0.227446,-16.756409,-29.705811,-23.217651,,,,,,
1478503478.55,1.543682,1.363623,1.463726,0.325164,0.788959,-0.582022,0.205619,-0.978616,-0.005577,-0.510275,-0.211142,-0.247048,-13.379211,-28.657166,-23.417847,,,,,,
1478503478.57,1.579651,1.353884,1.440299,0.181714,0.571196,-0.421739,0.215207,-0.976567,0.001906,-0.514447,-0.412410,-0.267683,-10.750916,-27.233337,-23.548828,,,,,,
1478503478.59,1.591623,1.350122,1.436496,-0.041122,0.323492,-0.019142,0.218840,-0.975750,0.004558,-0.473723,-0.560016,-0.254528,-6.845276,-25.886963,-22.395264,,,,,,
1478503478.61,1.578698,1.356214,1.452809,-0.262695,0.037304,0.500617,0.212932,-0.977066,0.001683,-0.432857,-0.490098,-0.233296,-2.482849,-24.395630,-18.088379,,,,,,
1478503478.63,1.538768,1.372621,1.491176,-0.453211,-0.192648,1.025783,0.196779,-0.980428,-0.006305,-0.356112,-0.292033,-0.195645,-2.482849,-24.395630,-18.088379,,,,,,
1478503478.65,1.467877,1.397874,1.558554,-0.583944,-0.244026,1.460523,0.171152,-0.985086,-0.017677,-0.294076,-0.063528,-0.161934,-1.577209,-24.475464,-15.156372,,,,,,
1478503478.67,1.350119,1.428300,1.673319,-0.682567,-0.188953,1.760086,0.138571,-0.989865,-0.031086,-0.266561,0.139172,-0.141857,-2.023987,-25.078796,-12.759399,,,,,,
1478503478.69,1.147547,1.459781,1.876353,-0.738531,0.046851,1.982964,0.101012,-0.993844,-0.045503,-0.276335,0.286248,-0.110060,-2.697205,-25.530640,-11.339355,,,,,,
1478503478.71,0.795102,1.485618,2.236586,-0.727954,0.492113,2.073892,0.060739,-0.996374,-0.059571,-0.322534,0.312704,-0.061782,-4.642578,-25.984009,-8.428589,,,,,,
1478503478.73,0.288915,1.494353,2.762191,-0.727131,1.167374,1.979192,0.021758,-0.997080,-0.073203,-0.377563,0.200937,-0.006493,-4.642578,-25.984009,-8.428589,,,,,,
1478503478.75,-0.139659,1.481422,-3.058006,-0.807366,1.948319,1.788082,-0.012425,-0.996009,-0.088387,-0.405544,0.021354,0.031548,-5.316589,-26.886230,-6.783203,,,,,,
1478503478.77,-0.365915,1.455313,-2.783061,-0.973501,2.621018,1.644567,-0.041229,-0.993339,-0.107599,-0.391068,-0.220238,0.080026,-6.739624,-27.863708,-4.618530,,,,,,
1478503478.79,-0.460860,1.422548,-2.629044,-1.165423,3.052342,1.571534,-0.065687,-0.989031,-0.132295,-0.292925,-0.428434,0.138567,-14.542847,-29.585571,-4.076172,,,,,,
1478503478.81,-0.493830,1.386117,-2.531716,-1.297987,3.206945,1.562055,-0.087042,-0.982995,-0.161692,-0.146708,-0.454978,0.188227,-18.372375,-28.678589,-7.480347,,,,,,
1478503478.83,-0.502942,1.348188,-2.456953,-1.316261,3.230324,1.601305,-0.106415,-0.975325,-0.193436,-0.040421,-0.400759,0.261154,-18.372375,-28.678589,-7.480347,,,,,,
1478503478.85,-0.502141,1.309136,-2.392203,-1.364634,3.185750,1.645816,-0.124506,-0.965962,-0.226751,0.015894,-0.377086,0.304143,-19.874573,-25.820862,-12.142944,,,,,,
1478503478.87,-0.496055,1.267486,-2.343687,-1.553316,2.158380,1.601634,-0.142160,-0.954353,-0.262681,0.122186,-0.345635,0.149689,-18.599182,-22.440369,-16.185059,,,,,,
1478503478.89,-0.508818,1.224533,-2.293515,-1.424323,2.040554,1.862260,-0.165330,-0.940647,-0.296392,0.226747,-0.333538,0.481863,-16.196838,-19.963745,-18.118286,,,,,,
1478503478.91,-0.520779,1.178630,-2.243355,-1.618399,1.221352,1.945472,-0.190162,-0.924083,-0.331525,0.202353,-0.151845,0.155194,-14.990967,-16.963135,-18.935791,,,,,,
1478503478.93,-0.546054,1.132566,-2.197817,-1.504075,0.816880,2.006328,-0.220367,-0.905504,-0.362630,0.239516,-0.077925,0.428762,-14.990967,-16.963135,-18.935791,,,,,,
1478503478.95,-0.573949,1.084671,-2.155102,-1.508941,0.296759,2.152930,-0.253670,-0.884150,-0.392340,0.243339,-0.057333,0.306464,-15.590759,-16.512146,-19.390503,,,,,,
1478503478.97,-0.608002,1.035838,-2.112046,-1.439029,0.113439,2.284526,-0.291215,-0.860290,-0.418444,0.273439,-0.052522,0.398424,-16.790771,-15.835327,-20.224854,,,,,,
1478503478.99,-0.642186,0.987337,-2.073560,-1.326811,-0.173889,2.236614,-0.329968,-0.834562,-0.441166,0.272901,-0.070315,0.395603,-19.639404,-14.106750,-21.671997,,,,,,
1478503479.01,-0.674448,0.941072,-2.040287,-1.217888,-0.280376,2.135182,-0.367762,-0.808190,-0.459978,0.270319,-0.091606,0.395129,-20.763611,-13.204956,-22.430908,,,,,,
1478503479.03,-0.701871,0.898231,-2.012813,-1.083369,-0.257062,1.931502,-0.402235,-0.782226,-0.475741,0.206267,-0.091065,0.405169,-20.763611,-13.204956,-22.430908,,,,,,
1478503479.05,-0.721472,0.860381,-1.992305,-0.971366,-0.156944,1.623261,-0.430738,-0.758091,-0.489656,0.186734,-0.107311,0.401277,-21.662292,-11.928162,-23.338257,,,,,,
1478503479.07,-0.733411,0.828192,-1.978593,-0.867738,-0.039763,1.301109,-0.452660,-0.736710,-0.502352,0.205406,-0.123825,0.392886,-22.486938,-10.951172,-24.395020,,,,,,
1478503479.09,-0.739492,0.801238,-1.970386,-0.780605,0.008290,1.022616,-0.468921,-0.718218,-0.514078,0.257373,-0.118788,0.394114,-23.910095,-9.148438,-25.756714,,,,,,
1478503479.11,-0.743273,0.779111,-1.965354,-0.637697,-0.038559,0.800992,-0.481499,-0.702647,-0.523875,0.316185,-0.087682,0.397777,-24.209961,-8.622314,-26.359131,,,,,,
1478503479.13,-0.749444,0.765034,-1.961374,-0.265411,-0.288914,0.411683,-0.491413,-0.692561,-0.528084,0.304538,-0.154561,0.385338,-24.209961,-8.622314,-26.359131,,,,,,
1478503479.15,-0.761394,0.766749,-1.961832,0.247020,-0.832392,-0.406467,-0.496868,-0.693798,-0.521313,0.229961,-0.356892,0.344738,-24.134949,-8.171570,-26.883789,,,,,,
1478503479.17,-0.778402,0.788394,-1.970073,0.774964,-1.296093,-1.275749,-0.495000,-0.709222,-0.501976,0.204976,-0.527595,0.288429,-24.735718,-8.320984,-27.113281,,,,,,
1478503479.19,-0.798461,0.826139,-1.981259,1.204718,-1.473064,-1.785142,-0.485439,-0.735320,-0.472920,0.211803,-0.399736,0.165333,-25.713867,-10.647522,-25.769409,,,,,,
1478503479.21,-0.819507,0.871939,-1.993773,1.289047,-1.552644,-2.027264,-0.470161,-0.765578,-0.439134,0.227272,-0.130449,0.046388,-26.767090,-12.447998,-25.101318,,,,,,
1478503479.23,-0.835315,0.916987,-2.010905,1.023197,-1.382776,-2.008757,-0.450996,-0.793772,-0.408078,0.292137,0.099025,-0.019412,-26.767090,-12.447998,-25.101318,,,,,,
1478503479.25,-0.842103,0.957044,-2.031395,0.849703,-1.043365,-1.843101,-0.429677,-0.817492,-0.383515,0.351888,0.330981,0.017869,-26.618530,-13.874573,-24.049561,,,,,,
1478503479.27,-0.843420,0.994836,-2.050280,0.892795,-0.754480,-1.758144,-0.406804,-0.838670,-0.362138,0.358693,0.494340,0.096117,-26.921936,-15.900757,-23.225708,,,,,,
1478503479.29,-0.839674,1.033371,-2.069178,0.916314,-0.497205,-1.797793,-0.381091,-0.859029,-0.341816,0.316912,0.440649,0.167164,-27.227173,-19.202820,-21.726440,,,,,,
1478503479.31,-0.823488,1.071401,-2.092438,0.808309,-0.020552,-1.806563,-0.351279,-0.877872,-0.325489,0.265448,0.161289,0.200260,-26.255127,-20.553589,-21.493408,,,,,,
1478503479.33,-0.792652,1.107548,-2.123196,0.709181,0.249827,-1.817100,-0.318259,-0.894606,-0.313675,0.201026,-0.161669,0.195572,-26.255127,-20.553589,-21.493408,,,,,,
1478503479.35,-0.755092,1.143271,-2.160320,0.742981,0.132742,-1.837996,-0.284162,-0.909995,-0.301930,0.156904,-0.503580,0.137074,-25.583801,-22.204346,-21.262695,,,,,,
1478503479.37,-0.719409,1.179168,-2.201457,0.796809,-0.270408,-1.812603,-0.251514,-0.924289,-0.287108,0.156299,-0.581571,0.040145,-25.287476,-23.854858,-21.034668,,,,,,
1478503479.39,-0.688903,1.213768,-2.246960,0.781630,-0.807393,-1.729902,-0.222169,-0.936939,-0.269788,0.150697,-0.377727,-0.051333,-23.342773,-26.481750,-20.418579,,,,,,
1478503479.41,-0.667139,1.246657,-2.294941,0.786480,-1.383800,-1.635322,-0.197065,-0.947925,-0.250207,0.116727,-0.228085,-0.125617,-22.668823,-27.608459,-19.513184,,,,,,
1478503479.43,-0.647266,1.278515,-2.347984,0.757029,-1.561268,-1.624569,-0.173749,-0.957589,-0.229857,0.062192,-0.122977,-0.134049,-22.668823,-27.608459,-19.513184,,,,,,
1478503479.45,-0.607652,1.309212,-2.414696,0.677165,-0.999613,-1.656733,-0.147652,-0.965981,-0.212317,-0.046425,-0.021491,-0.043374,-22.144958,-28.809998,-18.608643,,,,,,
1478503479.47,-0.544028,1.336353,-2.497670,0.542646,-0.703697,-1.615340,-0.120236,-0.972644,-0.198765,-0.199664,0.027804,-0.021344,-22.144409,-29.712158,-17.182983,,,,,,
1478503479.49,-0.447937,1.359195,-2.602178,0.417480,-0.110190,-1.540287,-0.090964,-0.977696,-0.189305,-0.207498,-0.032116,-0.043300,-20.572937,-32.114807,-15.970093,,,,,,
1478503479.51,-0.334519,1.377456,-2.722727,0.387289,-0.326101,-1.432609,-0.063082,-0.981368,-0.181487,-0.184935,-0.061250,-0.043000,-19.523682,-32.715881,-15.586914,,,,,,
1478503479.53,-0.212749,1.392344,-2.853217,0.394077,-0.351803,-1.339921,-0.037480,-0.984120,-0.173505,-0.190211,-0.107525,-0.073611,-19.523682,-32.715881,-15.586914,,,,,,
1478503479.55,-0.075237,1.403612,-2.999579,0.353220,-0.193224,-1.361677,-0.012508,-0.986057,-0.165936,-0.222752,-0.109707,-0.060245,-18.999695,-33.166260,-15.507690,,,,,,
,,,,,,,,,,,,,,,,37.392598,-122.003843,10.474915,-1.000000,-1.000000,1478503479.54
1478503479.57,0.114541,1.409502,3.097759,0.330494,0.262229,-1.561556,0.018355,-0.987020,-0.159544,-0.325484,-0.078532,-0.156084,-18.476074,-34.142334,-14.978394,,,,,,
1478503479.59,0.302859,1.409491,2.909340,0.294872,0.077107,-1.419892,0.047901,-0.987019,-0.153297,-0.324650,-0.009975,-0.167138,-16.454224,-35.869202,-14.437256,,,,,,
1478503479.61,0.465740,1.405408,2.747815,0.326463,0.306312,-1.232715,0.073935,-0.986354,-0.147100,-0.294730,0.041866,-0.097208,-15.630493,-36.544922,-14.205811,,,,,,
1478503479.63,0.606152,1.399311,2.612458,0.311785,0.331615,-1.085933,0.097218,-0.985332,-0.140245,-0.345906,0.091045,-0.170241,-15.630493,-36.544922,-14.205811,,,,,,
1478503479.65,0.727228,1.391968,2.499187,0.318372,0.601419,-0.966019,0.118253,-0.984053,-0.132877,-0.411069,0.079374,-0.088467,-14.132874,-37.144958,-14.644287,,,,,,
1478503479.67,0.834159,1.383484,2.407371,0.270123,1.011756,-0.857266,0.137938,-0.982508,-0.125102,-0.466964,0.046977,-0.069341,-12.259644,-38.196472,-14.254639,,,,,,
1478503479.69,0.929911,1.374178,2.336532,0.208281,1.481687,-0.756129,0.156589,-0.980733,-0.116803,-0.502567,0.013204,-0.053470,-11.662842,-39.096130,-14.699707,,,,,,
1478503479.71,1.015780,1.365207,2.282841,0.179653,1.759023,-0.622581,0.173500,-0.978941,-0.107575,-0.502876,-0.095903,-0.050231,-10.613037,-39.171692,-14.691772,,,,,,
1478503479.73,1.088383,1.357838,2.244710,0.142388,1.747165,-0.462028,0.187233,-0.977410,-0.098050,-0.476295,-0.257698,-0.072894,-10.613037,-39.171692,-14.691772,,,,,,
1478503479.75,1.138610,1.352049,2.224147,0.020529,1.333686,-0.286426,0.197054,-0.976170,-0.090895,-0.431688,-0.481563,-0.115206,-9.340027,-39.546509,-15.207031,,,,,,
1478503479.77,1.154261,1.350131,2.227313,-0.126769,0.690311,0.080996,0.200164,-0.975752,-0.088557,-0.355987,-0.590242,-0.134282,-7.392395,-40.221985,-15.567139,,,,,,
1478503479.79,1.127492,1.355662,2.260065,-0.255896,0.024288,0.596518,0.192844,-0.976948,-0.091567,-0.309070,-0.471386,-0.124055,-7.318970,-40.596558,-15.866455,,,,,,
1478503479.81,1.058762,1.368112,2.325536,-0.351398,-0.340800,1.013833,0.175482,-0.979530,-0.098627,-0.297583,-0.191506,-0.074805,-7.619019,-40.671570,-15.793579,,,,,,
1478503479.83,0.955719,1.383729,2.423895,-0.412283,-0.266604,1.251833,0.151894,-0.982554,-0.107314,-0.310311,0.079218,-0.010408,-7.619019,-40.671570,-15.793579,,,,,,
1478503479.85,0.829798,1.399111,2.551875,-0.395311,0.196694,1.352349,0.126047,-0.985298,-0.115323,-0.351404,0.317635,0.052137,-8.294250,-40.295288,-16.398926,,,,,,
1478503479.87,0.695539,1.412912,2.700160,-0.304577,0.870420,1.359274,0.100752,-0.987562,-0.120706,-0.412871,0.412107,0.109323,-10.244812,-40.068481,-16.938477,,,,,,
1478503479.89,0.564932,1.424163,2.859634,-0.241662,1.661334,1.280707,0.078220,-0.989269,-0.123407,-0.460499,0.294978,0.158456,-11.069702,-39.467041,-17.620117,,,,,,
1478503479.91,0.445136,1.431347,3.024136,-0.270101,2.460053,1.164369,0.059850,-0.990293,-0.125453,-0.492681,0.024350,0.194590,-11.070007,-39.316467,-17.995239,,,,,,
1478503479.93,0.335984,1.433791,-3.090648,-0.373955,3.140885,1.116988,0.045029,-0.990629,-0.128941,-0.469483,-0.151872,0.210590,-11.070007,-39.316467,-17.995239,,,,,,
1478503479.95,0.226670,1.431067,-2.911108,-0.544388,3.599504,1.200514,0.031300,-0.990254,-0.135712,-0.398853,-0.330211,0.226624,-11.146912,-39.014404,-19.345947,,,,,,
1478503479.97,0.109101,1.422512,-2.717387,-0.719508,3.784759,1.369589,0.016087,-0.989026,-0.146863,-0.249378,-0.390643,0.248944,-9.650330,-38.636902,-21.509888,,,,,,
1478503479.99,-0.006382,1.407988,-2.524982,-0.841953,3.733892,1.500992,-0.001035,-0.986776,-0.162087,-0.105502,-0.298136,0.295555,-9.126465,-38.110413,-22.706177,,,,,,
1478503480.01,-0.103488,1.388910,-2.349647,-0.917948,3.780768,1.584599,-0.018686,-0.983504,-0.179917,-0.041586,-0.207902,0.305543,-8.302734,-37.734131,-23.825195,,,,,,
1478503480.03,-0.180742,1.364294,-2.199476,-1.064530,3.397347,1.641860,-0.036858,-0.978754,-0.201698,0.025505,-0.197577,0.327950,-8.302734,-37.734131,-23.825195,,,,,,
1478503480.05,-0.243438,1.335359,-2.071498,-1.191618,2.825661,1.713354,-0.056227,-0.972413,-0.226390,0.071043,-0.161392,0.260829,-7.629456,-37.357483,-25.170288,,,,,,
1478503480.07,-0.309247,1.301602,-1.961635,-1.260582,1.598804,1.834066,-0.080941,-0.963986,-0.253338,0.120202,-0.094654,0.258069,-5.981567,-35.929016,-28.008789,,,,,,
1478503480.09,-0.386010,1.265554,-1.862140,-1.141463,0.966576,2.023035,-0.113146,-0.953774,-0.278411,0.154955,-0.101936,0.408554,-5.831482,-34.802063,-29.358154,,,,,,
1478503480.11,-0.453671,1.227568,-1.773123,-1.208604,0.436199,2.071376,-0.147490,-0.941673,-0.302487,0.033247,-0.103188,0.171139,-7.031433,-34.125183,-30.192505,,,,,,
1478503480.13,-0.518521,1.189435,-1.704754,-1.063195,0.003305,1.915288,-0.184453,-0.928159,-0.323262,0.055974,-0.122943,0.413670,-7.031433,-34.125183,-30.192505,,,,,,
1478503480.15,-0.565502,1.152054,-1.651984,-1.079655,0.008835,1.824707,-0.217879,-0.913601,-0.343311,0.026122,-0.163364,0.306613,-7.629211,-32.774048,-30.797607,,,,,,
1478503480.17,-0.604169,1.115649,-1.608860,-0.997771,0.127785,1.744074,-0.249724,-0.898196,-0.361775,0.048018,-0.163709,0.383961,-10.102112,-30.895813,-32.092041,,,,,,
1478503480.19,-0.630043,1.080336,-1.575440,-1.000959,0.185452,1.604519,-0.277522,-0.882116,-0.380595,0.074855,-0.188440,0.343943,-10.626160,-29.769226,-32.996582,,,,,,
1478503480.21,-0.648748,1.045697,-1.547291,-0.991712,0.386362,1.601071,-0.302879,-0.865274,-0.399456,0.142906,-0.254355,0.385036,-11.299805,-28.567627,-33.827271,,,,,,
1478503480.23,-0.662787,1.010514,-1.520974,-0.970404,0.445771,1.634097,-0.326994,-0.847105,-0.418912,0.201659,-0.260317,0.390164,-11.299805,-28.567627,-33.827271,,,,,,
1478503480.25,-0.675143,0.975407,-1.495283,-0.937584,0.437110,1.661968,-0.350524,-0.827930,-0.437795,0.278091,-0.207531,0.392797,-12.346375,-26.465759,-34.736206,,,,,,
1478503480.27,-0.689215,0.940684,-1.469598,-0.846593,0.297504,1.683971,-0.374713,-0.807962,-0.454740,0.358081,-0.140418,0.385037,-13.245483,-25.489136,-35.493408,,,,,,
1478503480.29,-0.706639,0.908613,-1.444646,-0.672065,-0.008995,1.541689,-0.399204,-0.788652,-0.467616,0.380634,-0.096480,0.346568,-13.993591,-24.137634,-36.249756,,,,,,
1478503480.31,-0.728900,0.884771,-1.423413,-0.328943,-0.461166,1.103560,-0.421920,-0.773770,-0.472507,0.318145,-0.180271,0.326893,-14.066589,-23.087219,-36.550781,,,,,,
1478503480.33,-0.754275,0.874514,-1.409764,0.054271,-0.900229,0.394184,-0.439185,-0.767232,-0.467410,0.228324,-0.350414,0.285525,-14.066589,-23.087219,-36.550781,,,,,,
1478503480.35,-0.778648,0.878844,-1.404931,0.379543,-1.090442,-0.280734,-0.448108,-0.770002,-0.454198,0.159351,-0.332095,0.218893,-15.564148,-22.186462,-36.487427,,,,,,
1478503480.37,-0.800496,0.894627,-1.406339,0.597336,-1.198744,-0.757333,-0.449145,-0.779976,-0.435783,0.150881,-0.157448,0.142509,-16.613525,-22.637329,-35.595215,,,,,,
1478503480.39,-0.820926,0.916652,-1.411164,0.672120,-1.192251,-0.958122,-0.445272,-0.793569,-0.414706,0.214651,0.034490,0.101443,-16.988281,-22.637329,-35.447998,,,,,,
1478503480.41,-0.837519,0.939305,-1.415947,0.653625,-0.914793,-0.911808,-0.438621,-0.807148,-0.395126,0.291495,0.245075,0.071136,-17.589294,-23.838501,-34.476929,,,,,,
1478503480.43,-0.848806,0.961000,-1.419673,0.643932,-0.603298,-0.891045,-0.429807,-0.819765,-0.378486,0.316175,0.425844,0.061225,-17.589294,-23.838501,-34.476929,,,,,,
1478503480.45,-0.852565,0.983623,-1.424467,0.652160,-0.250190,-0.987342,-0.417153,-0.832510,-0.364569,0.305841,0.482275,0.113409,-18.116089,-25.339722,-33.505005,,,,,,
1478503480.47,-0.846181,1.007963,-1.431908,0.660676,0.167785,-1.093317,-0.399524,-0.845747,-0.353685,0.286838,0.339811,0.186983,-17.291992,-26.241150,-32.823364,,,,,,
1478503480.49,-0.829370,1.034380,-1.442150,0.716039,0.527186,-1.227687,-0.376909,-0.859545,-0.345139,0.252962,0.093890,0.234833,-17.518311,-27.066589,-32.449707,,,,,,
1478503480.51,-0.803998,1.065214,-1.457289,0.827902,0.634700,-1.509328,-0.348774,-0.874892,-0.336035,0.189015,-0.189316,0.231635,-15.497742,-29.093079,-32.133423,,,,,,
1478503480.53,-0.770723,1.101665,-1.481759,0.912500,0.537140,-1.804645,-0.314966,-0.891961,-0.324348,0.147317,-0.432654,0.170280,-15.497742,-29.093079,-32.133423,,,,,,
1478503480.55,-0.732612,1.140596,-1.515273,0.933481,0.294824,-1.888256,-0.278931,-0.908882,-0.310050,0.149857,-0.401283,0.086310,-13.549438,-30.144714,-31.668335,,,,,,
1478503480.57,-0.694722,1.178491,-1.555557,0.903991,-0.119803,-1.833498,-0.244750,-0.924030,-0.293710,0.154220,-0.233761,0.007928,-12.277222,-31.646118,-31.208008,,,,,,
1478503480.59,-0.661818,1.214518,-1.599586,0.907089,-0.565460,-1.726352,-0.214349,-0.937201,-0.275151,0.152474,-0.118386,-0.028484,-11.004517,-33.072754,-30.522827,,,,,,
1478503480.61,-0.634647,1.248721,-1.645687,0.910353,-0.923979,-1.596985,-0.187672,-0.948581,-0.254900,0.122700,-0.017957,-0.052091,-10.028992,-33.374146,-29.915405,,,,,,
1478503480.63,-0.606103,1.281426,-1.694010,0.901559,-0.893227,-1.536403,-0.162554,-0.958424,-0.234521,0.072406,0.052982,-0.026862,-10.028992,-33.374146,-29.915405,,,,,,
1478503480.65,-0.565644,1.312832,-1.753810,0.857088,-0.855832,-1.559059,-0.136730,-0.966911,-0.215377,0.008602,0.069359,-0.028382,-9.430969,-35.476929,-28.259888,,,,,,
1478503480.67,-0.506710,1.342442,-1.830672,0.783137,-0.692917,-1.567164,-0.109861,-0.974040,-0.197930,-0.049975,-0.024526,-0.039100,-8.756165,-36.153381,-27.504517,,,,,,
1478503480.69,-0.427974,1.370088,-1.925745,0.755963,-0.771578,-1.524614,-0.082742,-0.979926,-0.181383,-0.149741,-0.100427,-0.057616,-7.857117,-37.054749,-26.897339,,,,,,
1478503480.71,-0.330552,1.394849,-2.042775,0.731926,-0.829022,-1.460788,-0.056812,-0.984561,-0.165565,-0.182629,-0.148923,-0.056695,-7.407715,-37.580566,-26.518677,,,,,,
1478503480.73,-0.190598,1.415650,-2.193215,0.701533,-0.413203,-1.478620,-0.029274,-0.987989,-0.151726,-0.240105,-0.150576,-0.029060,-7.407715,-37.580566,-26.518677,,,,,,
1478503480.75,-0.010790,1.432134,-2.383857,0.674480,-0.248309,-1.489665,-0.001491,-0.990402,-0.138210,-0.264256,-0.109025,-0.104542,-5.609192,-39.083191,-25.379517,,,,,,
1478503480.77,0.221457,1.441895,-2.616468,0.674594,0.106763,-1.479560,0.028235,-0.991704,-0.125405,-0.314139,-0.069469,-0.079246,-5.157776,-39.309875,-24.400757,,,,,,
1478503480.79,0.479319,1.443653,-2.863892,0.642311,1.041258,-1.416225,0.058478,-0.991928,-0.112512,-0.360586,-0.021927,-0.114630,-3.958557,-40.211609,-23.641357,,,,,,
1478503480.81,0.709272,1.438090,-3.077966,0.515074,0.629906,-1.231075,0.086176,-0.991207,-0.100407,-0.367243,0.014889,-0.251537,-2.459595,-40.812622,-23.404785,,,,,,
1478503480.83,0.889898,1.430032,3.038491,0.513963,1.003752,-1.014492,0.109014,-0.990109,-0.088317,-0.306966,-0.014804,-0.135041,-2.459595,-40.812622,-23.404785,,,,,,
1478503480.85,1.037054,1.419858,2.912850,0.443448,1.144119,-0.903321,0.129452,-0.988630,-0.076500,-0.393169,-0.058809,-0.194755,0.390015,-41.414917,-22.858154,,,,,,
1478503480.87,1.142129,1.408385,2.823105,0.345601,0.792326,-0.785164,0.147068,-0.986840,-0.067211,-0.401691,-0.101096,-0.145801,1.439697,-41.715820,-22.625122,,,,,,
1478503480.89,1.223793,1.398192,2.760421,0.270997,1.114372,-0.599776,0.161511,-0.985141,-0.058408,-0.419995,-0.157971,-0.142214,2.790283,-41.792053,-22.239990,,,,,,
1478503480.91,1.295734,1.390151,2.711444,0.301688,1.233169,-0.500790,0.172910,-0.983728,-0.048798,-0.502439,-0.316687,-0.138061,4.964844,-42.243652,-21.923462,,,,,,
1478503480.93,1.355665,1.381835,2.675865,0.125677,1.270845,-0.442202,0.183509,-0.982200,-0.040099,-0.534583,-0.631936,-0.159715,4.964844,-42.243652,-21.923462,,,,,,
1478503480.95,1.378194,1.378109,2.680875,-0.218651,1.443349,0.032539,0.187956,-0.981493,-0.036655,-0.439116,-0.635343,-0.144543,5.789429,-42.619507,-21.617065,,,,,,
1478503480.97,1.359666,1.383900,2.728402,-0.458766,1.352825,0.560413,0.181684,-0.982586,-0.038939,-0.365323,-0.291660,-0.126527,6.240723,-42.244995,-21.463867,,,,,,
1478503480.99,1.306970,1.397461,2.806673,-0.557862,1.183362,0.980604,0.166501,-0.985015,-0.044976,-0.267866,-0.046433,-0.087089,7.140808,-42.170349,-21.532227,,,,,,
1478503481.01,1.219673,1.415981,2.919527,-0.622194,1.244753,1.251604,0.144790,-0.988040,-0.053037,-0.213378,0.178042,-0.050891,6.540466,-41.794128,-22.136841,,,,,,
1478503481.03,1.098527,1.434706,3.069677,-0.624937,1.476426,1.308720,0.120820,-0.990754,-0.061718,-0.261750,0.321519,-0.016316,6.540466,-41.794128,-22.136841,,,,,,
1478503481.05,0.948172,1.450080,-3.028487,-0.610639,1.806056,1.250814,0.097826,-0.992723,-0.070227,-0.335451,0.313020,-0.014001,4.964294,-41.717224,-22.823608,,,,,,
1478503481.07,0.782114,1.459784,-2.817937,-0.642856,2.374149,1.098613,0.078079,-0.993844,-0.078593,-0.374237,0.209772,0.030208,6.014221,-41.492249,-23.190918,,,,,,
1478503481.09,0.620470,1.461561,-2.601195,-0.734558,2.916992,0.904609,0.063385,-0.994040,-0.088698,-0.400619,0.054266,0.053358,6.463806,-41.417053,-23.487549,,,,,,
1478503481.11,0.477775,1.455251,-2.394793,-0.969589,3.147581,0.798645,0.053010,-0.993332,-0.102378,-0.410554,-0.136703,0.001899,7.888184,-41.041626,-24.227051,,,,,,
1478503481.13,0.346969,1.442369,-2.199655,-1.128170,3.306388,0.863531,0.043552,-0.991765,-0.120442,-0.343371,-0.319530,0.103947,7.888184,-41.041626,-24.227051,,,,,,
1478503481.15,0.238477,1.423322,-2.020573,-1.408462,3.367802,0.916187,0.034711,-0.989145,-0.142782,-0.242642,-0.391806,0.233221,9.013733,-40.516602,-24.593872,,,,,,
1478503481.17,0.144049,1.398025,-1.867267,-1.522492,2.659903,1.037991,0.024678,-0.985112,-0.170132,-0.129934,-0.350123,0.286954,10.140076,-39.841919,-24.810791,,,,,,
1478503481.19,0.052645,1.369817,-1.724197,-1.533144,2.536131,1.309568,0.010505,-0.979871,-0.199353,0.005197,-0.300356,0.282712,11.114868,-39.616821,-25.178589,,,,,,
1478503481.21,-0.025703,1.338804,-1.593541,-1.632850,2.216284,1.402119,-0.005909,-0.973210,-0.229841,0.012775,-0.173579,0.333845,11.639343,-38.564697,-26.750366,,,,,,
1478503481.23,-0.100027,1.303180,-1.488930,-1.704872,0.886453,1.443134,-0.026406,-0.964404,-0.263111,0.090341,-0.075055,0.223469,11.639343,-38.564697,-26.750366,,,,,,
1478503481.25,-0.186554,1.265805,-1.392185,-1.634832,0.156349,1.759722,-0.055695,-0.953850,-0.295075,0.152558,-0.122490,0.357285,11.788940,-37.813110,-27.874634,,,,,,
1478503481.27,-0.267491,1.225980,-1.297894,-1.654967,0.277221,1.980844,-0.089344,-0.941138,-0.326002,0.054187,-0.108102,0.185667,11.640625,-36.612000,-28.551147,,,,,,
1478503481.29,-0.345554,1.183348,-1.221858,-1.593628,-0.556387,1.927096,-0.127977,-0.925876,-0.355493,0.048906,-0.087674,0.361291,11.640625,-36.612000,-28.551147,,,,,,
1478503481.31,-0.407635,1.140234,-1.161344,-1.566121,-0.272650,1.945976,-0.165467,-0.908731,-0.383182,0.041443,-0.105063,0.351703,7.739319,-34.279785,-32.106567,,,,,,
1478503481.33,-0.461903,1.096344,-1.108707,-1.485697,-0.346348,1.991239,-0.203597,-0.889543,-0.408976,0.042510,-0.073271,0.375453,7.739319,-34.279785,-32.106567,,,,,,
1478503481.35,-0.503429,1.052788,-1.065400,-1.450157,-0.118806,1.886790,-0.238876,-0.868807,-0.433719,0.074753,-0.075376,0.377048,6.389709,-33.227356,-33.242310,,,,,,
1478503481.37,-0.534989,1.010703,-1.031814,-1.376862,-0.098622,1.761552,-0.270856,-0.847205,-0.457034,0.109113,-0.078149,0.399371,4.589661,-32.700378,-33.931152,,,,,,
1478503481.39,-0.558218,0.970589,-1.004491,-1.304494,-0.017856,1.647925,-0.299168,-0.825218,-0.479075,0.127675,-0.079948,0.378016,3.766602,-31.424072,-34.537964,,,,,,
1478503481.41,-0.576771,0.933480,-0.982456,-1.186278,-0.024319,1.479329,-0.324487,-0.803696,-0.498780,0.163309,-0.094452,0.392639,1.667847,-29.545410,-36.279541,,,,,,
1478503481.43,-0.591605,0.899936,-0.965682,-1.085299,-0.123182,1.289489,-0.346696,-0.783287,-0.516007,0.204591,-0.110039,0.378724,1.667847,-29.545410,-36.279541,,,,,,
1478503481.45,-0.605498,0.870363,-0.952610,-0.936538,-0.238176,1.115904,-0.366859,-0.764563,-0.529960,0.254524,-0.103174,0.363914,0.694519,-28.569397,-36.662354,,,,,,
1478503481.47,-0.619983,0.846140,-0.943263,-0.748102,-0.468993,0.836263,-0.385146,-0.748728,-0.539508,0.267089,-0.091818,0.331089,0.319397,-27.817688,-37.640503,,,,,,
1478503481.49,-0.636000,0.829721,-0.939737,-0.490968,-0.816716,0.408148,-0.400987,-0.737743,-0.543089,0.242585,-0.149846,0.321882,-1.253540,-26.465881,-38.328003,,,,,,
1478503481.51,-0.655487,0.825631,-0.942930,-0.056174,-1.276301,-0.213624,-0.413329,-0.734976,-0.537560,0.192397,-0.347376,0.319344,-2.077271,-25.865356,-38.409424,,,,,,
1478503481.53,-0.678878,0.837717,-0.952815,0.463246,-1.674427,-0.875476,-0.420179,-0.743118,-0.520793,0.144545,-0.552933,0.281734,-2.077271,-25.865356,-38.409424,,,,,,
1478503481.55,-0.703615,0.862715,-0.965278,0.812580,-1.701532,-1.217348,-0.420780,-0.759611,-0.495918,0.147083,-0.435808,0.203667,-3.277954,-26.164734,-38.418335,,,,,,
1478503481.57,-0.726732,0.891390,-0.976834,0.823682,-1.533630,-1.195188,-0.417483,-0.777946,-0.469583,0.200167,-0.112984,0.102609,-4.028076,-26.389709,-38.198853,,,,,,
1478503481.59,-0.744926,0.915656,-0.987091,0.601930,-1.169725,-0.964900,-0.413035,-0.792963,-0.447898,0.280482,0.164743,0.029105,-5.379639,-28.116150,-36.783081,,,,,,
1478503481.61,-0.755607,0.934606,-0.995665,0.500155,-0.716805,-0.790506,-0.407417,-0.804365,-0.432445,0.333503,0.419004,0.048061,-5.829895,-28.867126,-35.961182,,,,,,
1478503481.63,-0.759286,0.953295,-1.002930,0.568870,-0.346967,-0.839658,-0.398586,-0.815327,-0.419965,0.323223,0.549138,0.116895,-5.829895,-28.867126,-35.961182,,,,,,
1478503481.65,-0.753651,0.975361,-1.012031,0.657761,0.073007,-1.020774,-0.383806,-0.827905,-0.408983,0.273424,0.436959,0.211199,-5.904724,-29.242859,-35.436523,,,,,,
1478503481.67,-0.736484,1.000706,-1.024472,0.731615,0.491934,-1.182809,-0.362515,-0.841852,-0.399834,0.179577,0.019648,0.285210,-5.530823,-29.993652,-35.058350,,,,,,
1478503481.69,-0.707766,1.030267,-1.043216,0.830106,0.697338,-1.485963,-0.334554,-0.857437,-0.390993,0.093420,-0.301072,0.267977,-3.582520,-31.195679,-34.368164,,,,,,
1478503481.71,-0.668432,1.066209,-1.072794,0.987817,0.659209,-1.855484,-0.299619,-0.875374,-0.379406,0.057736,-0.530906,0.207882,-2.234131,-32.171875,-33.982544,,,,,,
1478503481.73,-0.621403,1.107530,-1.113704,1.138771,0.453948,-2.089597,-0.260158,-0.894598,-0.363335,0.059704,-0.410013,0.091744,-2.234131,-32.171875,-33.982544,,,,,,
1478503481.75,-0.569912,1.151203,-1.165840,1.212601,0.057339,-2.192908,-0.219810,-0.913255,-0.343001,0.040779,-0.221282,-0.011461,-0.585144,-32.998535,-33.444824,,,,,,
1478503481.77,-0.513553,1.194597,-1.230864,1.215791,-0.295589,-2.218965,-0.180488,-0.930068,-0.319997,0.017570,-0.127946,-0.063960,0.989624,-33.600281,-32.832642,,,,,,
1478503481.79,-0.445185,1.236235,-1.311425,1.202738,-0.366783,-2.215735,-0.141398,-0.944555,-0.296350,-0.019506,-0.041957,-0.044791,3.763916,-35.254272,-31.085938,,,,,,
1478503481.81,-0.357617,1.274977,-1.410886,1.180056,-0.381667,-2.174321,-0.102046,-0.956564,-0.273080,-0.079930,0.004095,-0.051978,5.038574,-35.930908,-30.401123,,,,,,
1478503481.83,-0.248804,1.309660,-1.530865,1.144488,-0.287142,-2.055436,-0.063575,-0.966097,-0.250229,-0.125740,-0.035307,-0.011291,5.038574,-35.930908,-30.401123,,,,,,
1478503481.85,-0.111361,1.336771,-1.676757,0.921622,-0.011099,-2.036855,-0.025771,-0.972741,-0.230458,-0.154161,-0.092338,-0.008037,5.637268,-36.982178,-29.796143,,,,,,
1478503481.87,0.072564,1.355508,-1.858985,0.869866,0.386718,-2.055841,0.015488,-0.976915,-0.213067,-0.232712,-0.177962,0.018212,7.363953,-37.209717,-28.658081,,,,,,
1478503481.89,0.269487,1.365119,-2.056446,0.831837,0.176035,-1.884345,0.054374,-0.978923,-0.196859,-0.258979,-0.189031,-0.029810,10.515320,-37.588013,-27.509277,,,,,,
1478503481.91,0.456629,1.367913,-2.241138,0.758108,0.318229,-1.598616,0.088844,-0.979490,-0.180850,-0.278877,-0.140429,-0.085630,11.715942,-37.889648,-26.825073,,,,,,
1478503481.93,0.613331,1.365679,-2.395671,0.678362,0.271195,-1.308375,0.117238,-0.979037,-0.166558,-0.295842,-0.076963,-0.112846,11.715942,-37.889648,-26.825073,,,,,,
1478503481.95,0.740764,1.360907,-2.520454,0.596955,0.261472,-1.072488,0.140606,-0.978054,-0.153754,-0.314694,-0.013554,-0.167093,13.291199,-38.191223,-26.288086,,,,,,
1478503481.97,0.845143,1.355169,-2.620747,0.528058,0.380446,-0.891019,0.160057,-0.976842,-0.141989,-0.358863,0.062902,-0.179223,14.492371,-38.117554,-25.829102,,,,,,
1478503481.99,0.934319,1.348624,-2.701497,0.451391,0.607992,-0.769369,0.177204,-0.975421,-0.130968,-0.419239,0.097949,-0.188566,16.444397,-38.195129,-24.689331,,,,,,
1478503482.01,1.012868,1.341452,-2.766082,0.362296,0.895155,-0.671297,0.192864,-0.973816,-0.120360,-0.469140,0.082351,-0.187013,17.495667,-38.046448,-24.231445,,,,,,
1478503482.03,1.080063,1.333690,-2.813701,0.233668,1.133558,-0.581884,0.207171,-0.972022,-0.110697,-0.500460,0.051215,-0.178808,17.495667,-38.046448,-24.231445,,,,,,
1478503482.05,1.134437,1.325998,-2.845219,0.128818,1.201744,-0.471856,0.219650,-0.970186,-0.102432,-0.505203,-0.000502,-0.167237,18.396362,-38.272766,-23.624634,,,,,,
1478503482.07,1.176334,1.319726,-2.865105,0.087121,1.090015,-0.339917,0.229362,-0.968647,-0.095479,-0.493583,-0.126446,-0.142451,20.122925,-38.124573,-23.011841,,,,,,
1478503482.09,1.209114,1.315084,-2.878580,0.047670,0.931580,-0.252604,0.236570,-0.967483,-0.089500,-0.516935,-0.347153,-0.120918,20.950134,-37.976318,-22.105713,,,,,,
1478503482.11,1.225673,1.311543,-2.878888,-0.140406,0.752229,-0.089431,0.241242,-0.966582,-0.086729,-0.526566,-0.680208,-0.106844,21.475952,-37.902100,-21.801880,,,,,,
1478503482.13,1.212460,1.312830,-2.851425,-0.413352,0.623631,0.386161,0.238910,-0.966911,-0.089473,-0.487156,-0.581688,-0.081639,21.475952,-37.902100,-21.801880,,,,,,
1478503482.15,1.159600,1.323017,-2.785500,-0.665928,0.522316,1.026820,0.224808,-0.969459,-0.098029,-0.412568,-0.262184,-0.032922,22.226929,-37.677795,-21.571289,,,,,,
1478503482.17,1.065285,1.340779,-2.676558,-0.813650,0.655813,1.555926,0.199478,-0.973662,-0.110407,-0.311890,0.059280,0.047404,21.775085,-38.051880,-22.024536,,,,,,
1478503482.19,0.938089,1.360984,-2.528348,-0.808498,1.032789,1.794893,0.167960,-0.978070,-0.123160,-0.291099,0.296277,0.124976,21.323486,-38.501282,-22.252686,,,,,,
1478503482.21,0.798179,1.378276,-2.359169,-0.679677,1.468409,1.710842,0.137011,-0.981525,-0.133553,-0.361239,0.335422,0.181282,20.723022,-38.500671,-22.482056,,,,,,
1478503482.23,0.668967,1.390692,-2.191721,-0.527348,1.970124,1.482048,0.111093,-0.983825,-0.140522,-0.420938,0.229736,0.230336,20.723022,-38.500671,-22.482056,,,,,,
1478503482.25,0.562411,1.397782,-2.037997,-0.483700,2.410585,1.221880,0.091797,-0.985070,-0.145636,-0.467605,0.069818,0.234519,19.597778,-38.800415,-22.265381,,,,,,
1478503482.27,0.472118,1.399868,-1.894251,-0.554452,2.664070,1.093365,0.077356,-0.985427,-0.151490,-0.502695,-0.178574,0.210099,19.897705,-39.251343,-21.737915,,,,,,
1478503482.29,0.379006,1.397401,-1.744672,-0.705821,2.756935,1.160520,0.063835,-0.985005,-0.160284,-0.482368,-0.438350,0.198599,20.122803,-39.552124,-21.286133,,,,,,
1478503482.31,0.270722,1.390109,-1.579080,-0.879590,2.756099,1.350112,0.048058,-0.983720,-0.173160,-0.399758,-0.509062,0.232120,20.498962,-39.553223,-20.683350,,,,,,
1478503482.33,0.147652,1.377524,-1.398609,-1.012622,2.683742,1.629455,0.028257,-0.981381,-0.189982,-0.255491,-0.427539,0.278956,20.498962,-39.553223,-20.683350,,,,,,
1478503482.35,0.012954,1.359623,-1.210349,-1.064617,2.370776,1.934112,0.002715,-0.977786,-0.209590,-0.108459,-0.360700,0.309001,21.099731,-39.629211,-20.228760,,,,,,
1478503482.37,-0.122472,1.335985,-1.028994,-1.077154,1.909035,2.147646,-0.028423,-0.972558,-0.230917,0.007458,-0.313163,0.330603,20.573730,-40.079041,-20.157471,,,,,,
1478503482.39,-0.245089,1.306934,-0.869295,-1.069786,1.452746,2.247380,-0.063284,-0.965390,-0.253017,0.069433,-0.247486,0.346325,19.823059,-40.303589,-20.238037,,,,,,
1478503482.41,-0.351403,1.273220,-0.733278,-1.059917,1.111259,2.352275,-0.100925,-0.956050,-0.275286,0.060032,-0.198644,0.366976,18.697632,-40.227539,-20.546509,,,,,,
1478503482.43,-0.443363,1.235215,-0.615831,-1.046402,0.949381,2.485658,-0.141271,-0.944219,-0.297478,0.020467,-0.183177,0.386711,18.697632,-40.227539,-20.546509,,,,,,
1478503482.45,-0.519072,1.193322,-0.514764,-1.047953,0.977925,2.579282,-0.182840,-0.929598,-0.320025,0.006922,-0.187055,0.394198,16.972229,-40.376709,-20.559326,,,,,,
1478503482.47,-0.577446,1.148509,-0.429172,-1.048965,1.057600,2.615349,-0.223730,-0.912154,-0.343395,0.036963,-0.196428,0.396053,14.043274,-40.823120,-21.931030,,,,,,
1478503482.49,-0.621375,1.102019,-0.356949,-1.041400,1.071414,2.605788,-0.263014,-0.892121,-0.367346,0.083006,-0.210051,0.384481,12.766663,-40.821228,-22.765625,,,,,,
1478503482.51,-0.653981,1.055164,-0.295840,-1.021891,1.064010,2.548424,-0.299969,-0.869981,-0.391346,0.138577,-0.208205,0.377537,11.565857,-40.970337,-22.999634,,,,,,
1478503482.53,-0.678389,1.008831,-0.243775,-0.990758,0.986444,2.466747,-0.334384,-0.846210,-0.414869,0.194919,-0.194806,0.367048,11.565857,-40.970337,-22.999634,,,,,,
1478503482.55,-0.697774,0.963470,-0.199218,-0.966198,0.824944,2.367065,-0.366666,-0.821177,-0.437293,0.261380,-0.154440,0.343451,9.541077,-40.443481,-23.539917,,,,,,
1478503482.57,-0.715297,0.919889,-0.160765,-0.899115,0.588934,2.240053,-0.397380,-0.795534,-0.457400,0.303981,-0.169188,0.348101,6.988953,-40.140015,-24.984253,,,,,,
1478503482.60,-0.733073,0.879152,-0.127423,-0.813830,0.316780,2.078068,-0.426791,-0.770198,-0.473967,0.329287,-0.209416,0.348631,5.338135,-39.762817,-25.896973,,,,,,
