timestamp(unix),attitude_roll(radians),attitude_pitch(radians),attitude_yaw(radians),rotation_rate_x(radians/s),rotation_rate_y(radians/s),rotation_rate_z(radians/s),gravity_x(G),gravity_y(G),gravity_z(G),user_acc_x(G),user_acc_y(G),user_acc_z(G),magnetic_field_x(microteslas),magnetic_field_y(microteslas),magnetic_field_z(microteslas),latitude(degree),longitude(degree),altitude(meter),speed(m/s),course(degree),timestamp(unix)
1478503526.00,-0.907332,1.225380,-1.672460,-0.000540,0.031889,-0.021367,-0.266761,-0.940935,-0.208520,-0.012047,-0.001326,-0.004234,-17.277100,-29.408264,-21.421753,,,,,,
,,,,,,,,,,,,,,,,37.392598,-122.003843,10.474915,-1.000000,-1.000000,1478503499.70
1478503526.02,-0.906016,1.225453,-1.672713,0.007079,0.066959,-0.027764,-0.266433,-0.940959,-0.208828,-0.011872,0.000041,-0.001621,-17.426270,-29.183411,-21.272949,,,,,,
,,,,,,,,,,,,,,,,37.391947,-122.011798,10.474915,0.620000,301.640625,1478503124.00
,,,,,,,,,,,,,,,,37.392598,-122.003843,10.474915,-1.000000,-1.000000,1478503499.70
1478503526.04,-0.904770,1.225836,-1.672580,0.017734,0.071173,-0.025582,-0.265889,-0.941089,-0.208937,-0.006541,-0.000333,0.000228,-17.501099,-28.882874,-21.573730,,,,,,
1478503526.06,-0.904352,1.226501,-1.671783,0.028321,0.056251,-0.023372,-0.265309,-0.941314,-0.208661,-0.003062,0.005065,0.004453,-17.575928,-29.108459,-21.199097,,,,,,
1478503526.08,-0.904791,1.227389,-1.670487,0.038886,0.032825,-0.022213,-0.264744,-0.941613,-0.208028,0.000019,0.003899,0.004430,-17.575928,-29.108459,-21.199097,,,,,,
,,,,,,,,,,,,,,,,37.392598,-122.003843,10.474915,-1.000000,-1.000000,1478503526.08
,,,,,,,,,,,,,,,,37.392598,-122.003843,10.474915,-1.000000,-1.000000,1478503526.09
1478503526.10,-0.905896,1.228267,-1.668879,0.043082,0.020048,-0.018977,-0.264323,-0.941908,-0.207226,-0.002141,0.002165,0.004635,-17.125793,-28.883301,-21.420776,,,,,,
1478503526.12,-0.907406,1.229003,-1.666875,0.046263,0.023219,-0.014706,-0.264089,-0.942155,-0.206399,-0.004603,0.003557,0.003503,-17.276367,-29.108276,-21.421875,,,,,,
1478503526.14,-0.908753,1.229674,-1.664833,0.044191,0.035988,-0.016865,-0.263869,-0.942380,-0.205655,-0.006258,0.000378,-0.001254,-17.278137,-29.632935,-21.646606,,,,,,
1478503526.16,-0.909112,1.230271,-1.663575,0.037862,0.044523,-0.022234,-0.263498,-0.942579,-0.205215,-0.005850,-0.005449,-0.006959,-17.052490,-29.558350,-21.419922,,,,,,
1478503526.18,-0.906870,1.230730,-1.664973,0.032434,0.022209,-0.019038,-0.262697,-0.942733,-0.205538,0.011278,-0.000108,-0.021544,-17.052490,-29.558350,-21.419922,,,,,,
1478503526.20,-0.903768,1.231333,-1.668190,0.016183,-0.046849,-0.014767,-0.261611,-0.942933,-0.206000,0.030914,0.001603,-0.032373,-17.126648,-29.408691,-21.195557,,,,,,
1478503526.22,-0.900055,1.231856,-1.673801,-0.006615,-0.152039,-0.006221,-0.260458,-0.943107,-0.206664,0.045584,0.000694,-0.035661,-17.276489,-29.333618,-21.196777,,,,,,
1478503526.24,-0.903453,1.231712,-1.674609,-0.018654,-0.235996,-0.001902,-0.261265,-0.943060,-0.205861,0.031331,-0.001566,-0.030330,-17.277161,-29.783936,-20.971558,,,,,,
1478503526.26,-0.905817,1.231519,-1.677118,-0.023862,-0.238070,-0.022153,-0.261894,-0.942996,-0.205355,0.005180,-0.003263,-0.019971,-17.126709,-29.558838,-21.045532,,,,,,
1478503526.28,-0.907154,1.231931,-1.680036,-0.026633,-0.186960,-0.061632,-0.261863,-0.943132,-0.204766,-0.008080,-0.009153,-0.027213,-17.126709,-29.558838,-21.045532,,,,,,
1478503526.30,-0.903789,1.232282,-1.686834,-0.030622,-0.161378,-0.091500,-0.260912,-0.943249,-0.205441,0.001848,-0.005680,-0.031605,-17.202148,-29.783936,-20.971069,,,,,,
1478503526.32,-0.898014,1.232944,-1.696103,-0.043550,-0.187926,-0.084082,-0.259233,-0.943469,-0.206555,0.023012,-0.003858,-0.038730,-17.501038,-29.333801,-20.973511,,,,,,
1478503526.34,-0.891602,1.233507,-1.706882,-0.066185,-0.241029,-0.072420,-0.257490,-0.943655,-0.207879,0.033781,-0.003977,-0.037986,-17.425781,-29.409241,-20.747803,,,,,,
1478503526.36,-0.886156,1.233773,-1.717697,-0.084491,-0.275009,-0.060765,-0.256159,-0.943743,-0.209120,0.031596,-0.010389,-0.032000,-19.300964,-29.483276,-20.761841,,,,,,
1478503526.38,-0.881293,1.233531,-1.727844,-0.094040,-0.251598,-0.054469,-0.255315,-0.943663,-0.210508,0.019613,-0.006669,-0.032503,-19.300964,-29.483276,-20.761841,,,,,,
1478503526.40,-0.875273,1.233067,-1.738676,-0.097095,-0.229188,-0.066211,-0.254380,-0.943510,-0.212322,0.025666,0.001844,-0.035115,-17.500854,-29.333923,-20.898438,,,,,,
1478503526.42,-0.867464,1.232807,-1.751334,-0.080993,-0.247257,-0.096970,-0.252901,-0.943423,-0.214460,0.027956,0.015094,-0.046968,-17.500671,-29.559448,-20.523315,,,,,,
1478503526.44,-0.859042,1.232902,-1.765222,-0.056373,-0.281286,-0.136173,-0.251018,-0.943455,-0.216524,0.026989,0.039372,-0.058988,-17.950684,-29.559204,-20.526611,,,,,,
1478503526.46,-0.856937,1.234807,-1.773139,-0.024074,-0.250494,-0.173300,-0.249203,-0.944084,-0.215875,0.023572,0.048775,-0.049429,-17.949402,-29.409912,-20.076782,,,,,,
1478503526.48,-0.851351,1.237190,-1.783787,0.017999,-0.226052,-0.244427,-0.246301,-0.944868,-0.215781,0.004525,0.056959,-0.050440,-17.949402,-29.409912,-20.076782,,,,,,
1478503526.50,-0.845325,1.242131,-1.793697,0.057168,-0.127172,-0.319942,-0.241499,-0.946474,-0.214161,-0.018755,0.055208,-0.038815,-18.174438,-29.409790,-20.078491,,,,,,
1478503526.52,-0.835528,1.247186,-1.805143,0.082414,-0.014462,-0.376391,-0.235839,-0.948093,-0.213304,-0.036576,0.055485,-0.034651,-17.724854,-29.710266,-19.924927,,,,,,
1478503526.54,-0.823228,1.254196,-1.817714,0.094413,0.025939,-0.398741,-0.228318,-0.950299,-0.211665,-0.035919,0.052808,-0.039036,-17.725342,-29.785034,-20.074951,,,,,,
1478503526.56,-0.810665,1.260220,-1.830352,0.104751,0.001388,-0.362452,-0.221488,-0.952157,-0.210569,-0.016854,0.064111,-0.028582,-17.425354,-30.010681,-19.772461,,,,,,
1478503526.58,-0.803329,1.266472,-1.838894,0.134910,-0.073264,-0.286593,-0.215649,-0.954050,-0.208051,-0.000034,0.078210,-0.019641,-17.425354,-30.010681,-19.772461,,,,,,
1478503526.60,-0.801803,1.271482,-1.843479,0.168078,-0.194709,-0.207453,-0.211893,-0.955539,-0.205053,0.008814,0.076572,-0.013743,-17.500122,-30.236206,-19.397949,,,,,,
1478503526.62,-0.808295,1.276602,-1.842163,0.206801,-0.301240,-0.155982,-0.209680,-0.957036,-0.200291,0.002969,0.067800,0.003865,-17.349609,-30.386902,-18.946777,,,,,,
1478503526.64,-0.820787,1.281526,-1.836048,0.263979,-0.342946,-0.123668,-0.208714,-0.958452,-0.194441,-0.016536,0.060488,0.009169,-17.123474,-30.162476,-18.645142,,,,,,
1478503526.66,-0.837764,1.287330,-1.825714,0.329916,-0.359122,-0.114765,-0.207848,-0.960092,-0.187145,-0.044716,0.037454,0.006740,-17.274658,-30.762634,-18.495972,,,,,,
1478503526.68,-0.861037,1.293397,-1.808955,0.402625,-0.346538,-0.150573,-0.207725,-0.961771,-0.178458,-0.062783,0.014582,-0.006433,-17.274658,-30.762634,-18.495972,,,,,,
1478503526.70,-0.883553,1.302312,-1.793161,0.482963,-0.381723,-0.240561,-0.205053,-0.964174,-0.168290,-0.086222,-0.001509,-0.020782,-17.423218,-30.913940,-17.597046,,,,,,
1478503526.72,-0.909451,1.312844,-1.773900,0.564470,-0.343598,-0.306168,-0.201318,-0.966914,-0.156678,-0.108894,-0.004277,-0.029998,-17.196716,-30.915161,-16.845337,,,,,,
1478503526.74,-0.936361,1.325706,-1.751811,0.632454,-0.227804,-0.380486,-0.195427,-0.970115,-0.143821,-0.143592,-0.016640,-0.048501,-17.346375,-31.291077,-16.171265,,,,,,
1478503526.76,-0.960002,1.340087,-1.729642,0.628481,-0.018176,-0.479824,-0.187323,-0.973505,-0.131145,-0.163995,-0.016745,-0.058201,-17.421692,-31.741638,-15.796631,,,,,,
1478503526.78,-0.974208,1.355334,-1.711722,0.583965,0.272285,-0.524155,-0.176867,-0.976878,-0.120117,-0.167738,-0.005727,-0.057343,-17.421692,-31.741638,-15.796631,,,,,,
1478503526.80,-0.983120,1.369556,-1.693973,0.537637,0.505187,-0.481119,-0.166350,-0.979819,-0.110822,-0.160615,0.004310,-0.067065,-16.969971,-32.118896,-14.443115,,,,,,
1478503526.82,-0.988697,1.382501,-1.675708,0.493204,0.688098,-0.428417,-0.156357,-0.982325,-0.102910,-0.151504,-0.002889,-0.069652,-16.818726,-32.044800,-13.916992,,,,,,
1478503526.84,-0.990942,1.394397,-1.658394,0.445498,0.780720,-0.413917,-0.146801,-0.984482,-0.096149,-0.162220,-0.046417,-0.078656,-16.218140,-32.195740,-13.462402,,,,,,
1478503526.86,-0.986979,1.405553,-1.645779,0.366783,0.838361,-0.400598,-0.137247,-0.986378,-0.090671,-0.167334,-0.084758,-0.099866,-15.694824,-32.946045,-13.383057,,,,,,
1478503526.88,-0.977657,1.414927,-1.638750,0.272452,0.798142,-0.329734,-0.128723,-0.987877,-0.086774,-0.158219,-0.080528,-0.115726,-15.694824,-32.946045,-13.383057,,,,,,
1478503526.90,-0.967631,1.421499,-1.634194,0.181771,0.682329,-0.203381,-0.122497,-0.988876,-0.084375,-0.129700,-0.047730,-0.136542,-15.170776,-33.246277,-13.454102,,,,,,
1478503526.92,-0.960206,1.424834,-1.630308,0.083360,0.494242,-0.073766,-0.119164,-0.989366,-0.083391,-0.093422,-0.013640,-0.171630,-15.097412,-33.846191,-13.528198,,,,,,
1478503526.94,-0.953116,1.425221,-1.629673,-0.027546,0.322209,0.018498,-0.118258,-0.989423,-0.084012,-0.077467,0.001096,-0.181110,-14.798096,-34.071228,-13.600708,,,,,,
1478503526.96,-0.943818,1.423026,-1.634611,-0.128636,0.188444,0.095855,-0.119230,-0.989102,-0.086382,-0.090075,0.017743,-0.179762,-15.098694,-34.070618,-13.903076,,,,,,
1478503526.98,-0.930963,1.418607,-1.643904,-0.241165,0.134451,0.173027,-0.121615,-0.988442,-0.090516,-0.117735,0.025292,-0.148315,-15.098694,-34.070618,-13.903076,,,,,,
1478503527.00,-0.910146,1.407083,-1.661031,-0.324941,0.286712,0.194704,-0.128691,-0.986629,-0.100012,-0.122652,0.017833,-0.109888,-15.623596,-34.145569,-13.756958,,,,,,
1478503527.02,-0.880547,1.399042,-1.684429,-0.452657,0.320085,0.193952,-0.131787,-0.985286,-0.108824,-0.126117,0.027385,-0.140855,-15.247498,-33.770874,-13.679321,,,,,,
1478503527.04,-0.845314,1.386781,-1.713743,-0.524970,0.349033,0.188196,-0.136901,-0.983117,-0.121406,-0.113816,0.022607,-0.103875,-16.298218,-33.619568,-14.212280,,,,,,
1478503527.06,-0.808413,1.376252,-1.744764,-0.607251,0.287627,0.194225,-0.139807,-0.981136,-0.133516,-0.108942,-0.031498,-0.106917,-17.198975,-33.618530,-14.593994,,,,,,
1478503527.08,-0.770902,1.363772,-1.778433,-0.705624,0.186944,0.195967,-0.143223,-0.978647,-0.147436,-0.087261,-0.051779,-0.085611,-17.198975,-33.618530,-14.593994,,,,,,
1478503527.11,-0.734447,1.349533,-1.814409,-0.850442,-0.039096,0.229580,-0.147079,-0.975621,-0.162885,-0.063050,-0.085033,-0.126177,-17.574097,-33.467957,-14.821899,,,,,,
1478503527.13,-0.707571,1.331998,-1.848053,-0.912660,-0.321834,0.310570,-0.153746,-0.971623,-0.179753,-0.012438,-0.083095,-0.020900,-17.949097,-32.941772,-15.499878,,,,,,
1478503527.15,-0.689729,1.313126,-1.875464,-0.964011,-0.549318,0.388343,-0.162154,-0.966986,-0.196579,-0.022706,-0.093179,-0.053451,-18.399231,-32.640869,-15.953491,,,,,,
1478503527.17,-0.680673,1.292365,-1.898041,-1.026633,-0.675740,0.450997,-0.172966,-0.961488,-0.213598,-0.008568,-0.074386,-0.011836,-20.273987,-31.888672,-16.792847,,,,,,
1478503527.19,-0.675494,1.269536,-1.918043,-1.101818,-0.720278,0.524102,-0.185537,-0.954963,-0.231563,0.009084,-0.074975,0.006755,-20.273987,-31.888672,-16.792847,,,,,,
1478503527.21,-0.673107,1.244466,-1.937342,-1.223029,-0.880496,0.567324,-0.199849,-0.947225,-0.250649,0.027653,-0.073832,0.020318,-21.173035,-31.212769,-17.099976,,,,,,
1478503527.23,-0.682663,1.216347,-1.957183,-1.328103,-1.791463,0.676713,-0.218956,-0.937838,-0.269293,0.078743,-0.128904,-0.018518,-22.447510,-30.611328,-17.634888,,,,,,
1478503527.25,-0.698772,1.188444,-1.968022,-1.129546,-0.875865,0.782860,-0.240009,-0.927790,-0.285661,0.064594,-0.312475,0.316178,-23.496948,-29.859863,-18.318115,,,,,,
1478503527.27,-0.716983,1.163592,-1.973852,-0.952108,-1.561922,0.644366,-0.260246,-0.918232,-0.298534,-0.060921,-0.396877,0.067272,-26.043823,-28.433228,-18.488037,,,,,,
1478503527.29,-0.735114,1.145905,-1.983600,-0.725793,-1.032696,0.354196,-0.276465,-0.911084,-0.305767,-0.016092,-0.507328,0.242153,-26.043823,-28.433228,-18.488037,,,,,,
1478503527.31,-0.746430,1.131015,-1.994519,-0.710663,-1.253901,0.366325,-0.289088,-0.904845,-0.312545,0.014339,-0.433900,0.026137,-27.166809,-27.757935,-18.346680,,,,,,
1478503527.33,-0.762798,1.114045,-2.002243,-0.767321,-1.056224,0.508356,-0.304732,-0.897490,-0.318826,0.138167,-0.132783,0.066705,-28.066162,-27.307068,-18.578613,,,,,,
1478503527.35,-0.778038,1.094517,-2.010299,-0.854531,-1.192150,0.579405,-0.321796,-0.888707,-0.326568,0.197437,0.105016,0.016098,-28.963928,-26.406677,-18.585815,,,,,,
1478503527.37,-0.790128,1.073840,-2.018396,-0.888445,-0.800839,0.599913,-0.338705,-0.879038,-0.335516,0.237280,0.262537,0.136282,-31.210815,-25.130493,-18.603394,,,,,,
1478503527.39,-0.792551,1.053042,-2.029233,-0.942188,-0.455018,0.528834,-0.352462,-0.868933,-0.347456,0.232147,0.322028,0.189131,-31.210815,-25.130493,-18.603394,,,,,,
1478503527.41,-0.783664,1.033007,-2.043081,-0.964538,-0.020958,0.426941,-0.361579,-0.858843,-0.362835,0.254401,0.250094,0.284161,-31.659180,-24.304932,-18.832275,,,,,,
1478503527.43,-0.769877,1.015117,-2.058925,-0.898488,0.006745,0.271845,-0.367179,-0.849542,-0.378758,0.292884,0.115518,0.315312,-32.482971,-23.478821,-19.288696,,,,,,
1478503527.45,-0.758002,1.001552,-2.075638,-0.734016,-0.235827,0.069799,-0.370544,-0.842309,-0.391424,0.333679,-0.016914,0.328085,-32.932312,-22.126526,-20.642700,,,,,,
1478503527.47,-0.755191,0.993854,-2.091620,-0.488424,-0.720013,-0.121853,-0.373876,-0.838134,-0.397175,0.343832,-0.101914,0.289264,-33.756531,-21.976562,-20.424072,,,,,,
1478503527.49,-0.763604,0.991903,-2.106389,-0.275031,-1.230715,-0.290223,-0.378334,-0.837069,-0.395195,0.322441,-0.103712,0.226662,-33.756531,-21.976562,-20.424072,,,,,,
1478503527.51,-0.779829,0.994931,-2.120972,-0.113071,-1.523305,-0.459207,-0.382912,-0.838722,-0.387201,0.275002,-0.028512,0.169580,-34.130981,-21.751282,-20.427002,,,,,,
1478503527.53,-0.798192,1.002436,-2.136870,-0.002468,-1.608382,-0.646886,-0.385439,-0.842784,-0.375701,0.230898,0.005733,0.136611,-34.953491,-21.452271,-19.533325,,,,,,
1478503527.55,-0.812588,1.014577,-2.155168,0.113593,-1.410622,-0.867965,-0.383349,-0.849257,-0.363050,0.184756,0.040999,0.114439,-35.476685,-22.204651,-17.736816,,,,,,
1478503527.57,-0.818023,1.032179,-2.176600,0.248591,-1.058686,-1.134948,-0.374349,-0.858419,-0.350686,0.154073,0.083348,0.111047,-36.001465,-22.880859,-16.765259,,,,,,
1478503527.59,-0.812680,1.055490,-2.202544,0.369563,-0.755611,-1.400870,-0.357839,-0.870142,-0.338828,0.134359,0.082590,0.094901,-36.001465,-22.880859,-16.765259,,,,,,
1478503527.61,-0.797882,1.083585,-2.233481,0.483524,-0.539780,-1.616665,-0.335148,-0.883642,-0.326883,0.122334,0.047842,0.096552,-35.627014,-23.632080,-16.087158,,,,,,
1478503527.63,-0.775408,1.116248,-2.269395,0.642710,-0.470829,-1.821344,-0.307343,-0.898460,-0.313546,0.109558,0.042243,0.048668,-35.328552,-24.908447,-15.259277,,,,,,
1478503527.65,-0.747050,1.154057,-2.311483,0.829302,-0.513569,-2.041669,-0.275040,-0.914414,-0.296986,0.086624,0.070114,-0.006358,-34.357483,-27.460815,-14.050781,,,,,,
1478503527.67,-0.710054,1.196118,-2.363539,0.938874,-0.584826,-2.227246,-0.238568,-0.930626,-0.277527,0.043164,0.075935,-0.063705,-33.384399,-29.188049,-12.842651,,,,,,
1478503527.69,-0.659642,1.239603,-2.431673,0.937809,-0.770688,-2.331290,-0.199276,-0.945655,-0.256954,-0.007267,0.071693,-0.127934,-33.384399,-29.188049,-12.842651,,,,,,
1478503527.71,-0.591399,1.281040,-2.521281,0.863840,-0.908651,-2.334680,-0.159295,-0.958313,-0.237193,-0.048866,0.066727,-0.136754,-32.487793,-31.214722,-12.009888,,,,,,
1478503527.73,-0.500272,1.318828,-2.636108,0.802376,-1.027616,-2.282676,-0.119585,-0.968424,-0.218758,-0.112180,0.053339,-0.126564,-31.588135,-32.492371,-10.577637,,,,,,
1478503527.75,-0.383029,1.351614,-2.778112,0.781424,-1.052177,-2.182690,-0.081261,-0.976076,-0.201676,-0.180198,0.015962,-0.095245,-29.341492,-35.421448,-8.609131,,,,,,
1478503527.77,-0.237905,1.378822,-2.949354,0.753476,-1.144861,-2.024092,-0.044965,-0.981629,-0.185423,-0.238162,-0.041533,-0.077867,-28.368225,-36.848328,-7.701050,,,,,,
1478503527.79,-0.068940,1.398627,3.141579,0.684960,-0.840977,-1.800322,-0.011801,-0.985215,-0.170913,-0.293603,-0.084166,-0.039673,-28.368225,-36.848328,-7.701050,,,,,,
1478503527.81,0.119298,1.411142,2.937989,0.649579,-0.526548,-1.588095,0.018921,-0.987282,-0.157847,-0.389343,-0.095100,-0.031804,-27.093689,-38.351379,-6.040894,,,,,,
1478503527.83,0.317203,1.417632,2.736994,0.688169,0.221408,-1.378250,0.047587,-0.988293,-0.144955,-0.446238,-0.109714,0.046657,-26.868469,-39.178223,-4.913818,,,,,,
1478503527.85,0.497210,1.420677,2.559481,0.692365,0.205904,-1.035435,0.071335,-0.988753,-0.131448,-0.463348,-0.093965,-0.122230,-25.071411,-40.905090,-4.224487,,,,,,
1478503527.87,0.650106,1.423799,2.412622,0.731911,0.474219,-0.735437,0.088653,-0.989215,-0.116592,-0.439667,-0.157712,-0.051056,-24.322205,-41.581177,-3.768555,,,,,,
1478503527.89,0.786909,1.426423,2.282704,0.708070,0.362361,-0.562949,0.101887,-0.989596,-0.101580,-0.473133,-0.384000,-0.093443,-24.322205,-41.581177,-3.768555,,,,,,
1478503527.91,0.899063,1.428877,2.177252,0.603436,0.446237,-0.308172,0.110714,-0.989946,-0.088026,-0.499218,-0.560591,-0.071260,-24.399170,-42.180847,-3.993774,,,,,,
1478503527.93,0.976654,1.433541,2.108615,0.482007,0.483204,0.050906,0.113377,-0.990595,-0.076594,-0.533574,-0.575124,-0.076589,-24.399170,-42.255981,-3.918701,,,,,,
1478503527.95,1.007946,1.443840,2.087831,0.342907,0.590150,0.549229,0.107084,-0.991952,-0.067562,-0.415708,-0.122214,-0.086094,-25.152161,-42.478760,-5.124268,,,,,,
1478503527.97,0.981968,1.460251,2.128213,0.194983,0.789742,0.977105,0.091742,-0.993896,-0.061271,-0.293020,0.200454,-0.087808,-26.278503,-42.326904,-5.957764,,,,,,
1478503527.99,0.881308,1.480977,2.247366,0.115736,0.962700,1.310659,0.069208,-0.995969,-0.057061,-0.227442,0.402982,-0.066673,-26.278503,-42.326904,-5.957764,,,,,,
1478503528.01,0.663538,1.502583,2.487820,0.111268,1.226054,1.491199,0.041981,-0.997674,-0.053698,-0.230290,0.426217,-0.013166,-27.179626,-42.100281,-6.789673,,,,,,
1478503528.03,0.260519,1.518182,2.921386,0.097763,1.652395,1.504314,0.013546,-0.998616,-0.050816,-0.287945,0.294576,0.003941,-28.531006,-41.572510,-8.150024,,,,,,
1478503528.05,-0.258294,1.519269,-2.803226,0.022503,2.179084,1.397714,-0.013156,-0.998673,-0.049796,-0.332486,0.126297,0.025961,-31.233032,-39.014832,-12.371582,,,,,,
1478503528.07,-0.615839,1.507704,-2.393444,-0.050891,2.843002,1.239818,-0.036421,-0.998010,-0.051467,-0.360994,-0.074728,0.060058,-31.310120,-37.360229,-15.447998,,,,,,
1478503528.09,-0.767860,1.491891,-2.177102,-0.166877,3.406167,1.022231,-0.054751,-0.996889,-0.056706,-0.330762,-0.290160,0.072392,-31.310120,-37.360229,-15.447998,,,,,,
1478503528.11,-0.805389,1.474291,-2.069041,-0.338249,3.633289,0.956009,-0.069482,-0.995347,-0.066758,-0.238150,-0.408248,0.106553,-30.789490,-36.154846,-19.194702,,,,,,
1478503528.13,-0.798359,1.451478,-2.013229,-0.717498,2.665746,1.095912,-0.085254,-0.992890,-0.083073,-0.069485,-0.324523,-0.096096,-26.372864,-32.619141,-27.788452,,,,,,
1478503528.15,-0.793038,1.423150,-1.969602,-0.880354,2.150293,1.296992,-0.104814,-0.989120,-0.103225,0.125093,-0.266617,-0.179169,-22.698059,-29.990967,-31.137085,,,,,,
1478503528.17,-0.793117,1.392555,-1.924678,-0.861428,2.153347,1.338607,-0.126333,-0.984157,-0.124398,0.194143,-0.150242,0.082314,-18.270203,-26.989624,-33.505371,,,,,,
1478503528.19,-0.792437,1.361962,-1.889587,-0.826469,1.793891,1.339346,-0.147625,-0.978273,-0.145562,0.149990,-0.077742,0.127907,-18.270203,-26.989624,-33.505371,,,,,,
1478503528.21,-0.787257,1.328984,-1.868634,-1.101206,0.656107,1.366181,-0.169640,-0.970906,-0.169011,0.084145,0.028080,-0.100475,-13.916382,-24.815613,-34.298828,,,,,,
1478503528.23,-0.783660,1.292146,-1.856588,-1.276791,0.894638,1.469174,-0.194157,-0.961428,-0.194833,0.138722,-0.010832,0.035089,-6.029175,-21.522583,-32.291138,,,,,,
1478503528.25,-0.780240,1.253298,-1.846255,-1.241956,0.217280,1.482106,-0.219611,-0.950019,-0.221888,0.124747,-0.069985,0.031291,-3.996155,-20.327332,-29.801636,,,,,,
1478503528.27,-0.797241,1.216707,-1.833447,-1.095199,-0.226461,1.445266,-0.248066,-0.937962,-0.242259,0.219792,-0.078029,0.139522,-3.390686,-19.955994,-27.547241,,,,,,
1478503528.29,-0.811697,1.180144,-1.824697,-1.200887,-0.590781,1.447369,-0.276248,-0.924661,-0.262087,0.193500,-0.066993,0.026705,-3.390686,-19.955994,-27.547241,,,,,,
1478503528.31,-0.829094,1.142868,-1.820682,-1.230275,-0.554449,1.397121,-0.305978,-0.909827,-0.280342,0.148996,-0.088387,0.124703,-3.986389,-19.958984,-25.376831,,,,,,
1478503528.33,-0.835178,1.106847,-1.825343,-1.323858,-0.580351,1.185875,-0.331772,-0.894292,-0.300282,0.060348,-0.119426,0.091786,-7.054993,-19.736755,-22.474854,,,,,,
1478503528.35,-0.831837,1.073378,-1.837244,-1.347823,-0.144060,1.003050,-0.352701,-0.878817,-0.321375,0.068003,-0.155500,0.187220,-8.477356,-19.362427,-21.585693,,,,,,
1478503528.37,-0.820458,1.041540,-1.852161,-1.345976,-0.127914,0.887005,-0.369307,-0.863183,-0.344279,0.072310,-0.199088,0.171473,-9.824768,-18.687378,-21.146240,,,,,,
1478503528.39,-0.810032,1.011647,-1.866651,-1.289924,-0.067370,0.815900,-0.384221,-0.847706,-0.365743,0.146840,-0.273433,0.200185,-9.824768,-18.687378,-21.146240,,,,,,
1478503528.41,-0.803182,0.982400,-1.878679,-1.227918,-0.228147,0.861209,-0.399381,-0.831832,-0.385423,0.221998,-0.214250,0.205400,-11.098267,-18.462402,-20.705811,,,,,,
1478503528.43,-0.802237,0.953501,-1.886413,-1.137920,-0.326308,0.894853,-0.416130,-0.815447,-0.402346,0.260948,-0.151197,0.197542,-13.795166,-17.411499,-20.426636,,,,,,
1478503528.45,-0.807892,0.927643,-1.892684,-0.957005,-0.672126,0.731376,-0.433498,-0.800209,-0.414422,0.244335,-0.258934,0.220986,-15.443665,-16.885742,-20.364136,,,,,,
1478503528.47,-0.819962,0.909433,-1.899573,-0.668344,-1.008390,0.378996,-0.449049,-0.789156,-0.419032,0.190443,-0.429930,0.235256,-16.717957,-16.509949,-20.448975,,,,,,
1478503528.49,-0.836096,0.901282,-1.907665,-0.343703,-1.171417,-0.008578,-0.460509,-0.784123,-0.416032,0.137999,-0.441417,0.247926,-16.717957,-16.509949,-20.448975,,,,,,
1478503528.51,-0.852703,0.901795,-1.916545,-0.123512,-1.188612,-0.306466,-0.467051,-0.784441,-0.408063,0.112254,-0.272657,0.193280,-18.665100,-15.684509,-20.088989,,,,,,
1478503528.53,-0.865852,0.906130,-1.928006,-0.168085,-1.041550,-0.421901,-0.469781,-0.787123,-0.399679,0.166132,-0.076525,0.135321,-20.988403,-15.534363,-19.431519,,,,,,
1478503528.55,-0.870801,0.907699,-1.943097,-0.391396,-0.715713,-0.304400,-0.470809,-0.788089,-0.396553,0.262557,0.119968,0.133736,-21.437378,-15.459839,-18.984985,,,,,,
1478503528.57,-0.867945,0.904695,-1.958946,-0.496538,-0.355232,-0.154368,-0.471479,-0.786236,-0.399425,0.344052,0.334180,0.181316,-21.886841,-15.460022,-18.688232,,,,,,
1478503528.59,-0.860248,0.901361,-1.973858,-0.430404,-0.131019,-0.212893,-0.470375,-0.784172,-0.404749,0.371055,0.455513,0.245859,-21.886841,-15.460022,-18.688232,,,,,,
1478503528.61,-0.849351,0.901317,-1.989362,-0.329962,-0.030059,-0.375363,-0.465962,-0.784145,-0.409874,0.371678,0.323054,0.314064,-23.012329,-15.609375,-18.771729,,,,,,
1478503528.63,-0.836392,0.904582,-2.005301,-0.218132,0.041033,-0.501532,-0.458709,-0.786167,-0.414159,0.356887,0.071964,0.362127,-23.311523,-15.459534,-18.548950,,,,,,
1478503528.65,-0.824313,0.912115,-2.021890,-0.060821,-0.149389,-0.721793,-0.449313,-0.790800,-0.415636,0.321307,-0.145357,0.336153,-23.011475,-15.083984,-18.996948,,,,,,
1478503528.67,-0.817444,0.926399,-2.040967,0.140977,-0.600240,-1.046799,-0.438163,-0.799462,-0.410943,0.288169,-0.302879,0.290917,-23.010925,-14.934082,-18.921997,,,,,,
1478503528.69,-0.818379,0.947689,-2.062643,0.324073,-1.113861,-1.312200,-0.426023,-0.812069,-0.398809,0.274442,-0.290119,0.218710,-23.010925,-14.934082,-18.921997,,,,,,
1478503528.71,-0.827033,0.973349,-2.085492,0.429909,-1.523305,-1.430219,-0.413983,-0.826774,-0.380871,0.246472,-0.149865,0.138088,-22.861267,-15.685303,-18.170410,,,,,,
1478503528.73,-0.841621,1.001062,-2.108469,0.482651,-1.759408,-1.478537,-0.402250,-0.842044,-0.359384,0.211149,-0.037076,0.079461,-23.238037,-16.810913,-17.647705,,,,,,
1478503528.75,-0.855598,1.030246,-2.131547,0.528261,-1.608493,-1.532806,-0.388510,-0.857425,-0.337463,0.183981,0.045978,0.060913,-23.237854,-17.562500,-16.597290,,,,,,
1478503528.77,-0.860790,1.061893,-2.156675,0.581818,-1.198014,-1.690682,-0.369487,-0.873279,-0.317589,0.152263,0.119648,0.068199,-23.162231,-17.938599,-15.846558,,,,,,
1478503528.79,-0.853273,1.097563,-2.187610,0.645117,-0.884173,-1.927131,-0.343391,-0.890099,-0.299676,0.109657,0.155907,0.043252,-23.162231,-17.938599,-15.846558,,,,,,
1478503528.81,-0.833070,1.137400,-2.226295,0.726101,-0.658662,-2.145251,-0.310767,-0.907544,-0.282465,0.077613,0.100202,0.034785,-22.938110,-19.516113,-14.269165,,,,,,
1478503528.83,-0.800173,1.180916,-2.275677,0.800965,-0.642589,-2.353506,-0.272697,-0.924955,-0.264756,0.029930,-0.054660,-0.002517,-22.265381,-20.717041,-13.888550,,,,,,
1478503528.85,-0.754814,1.227330,-2.340181,0.876978,-0.838153,-2.523110,-0.230727,-0.941593,-0.245290,-0.021333,-0.138989,-0.039897,-21.742737,-21.917786,-13.583984,,,,,,
1478503528.87,-0.692887,1.274526,-2.426083,0.884078,-1.106986,-2.616338,-0.186490,-0.956432,-0.224632,-0.064701,-0.177937,-0.089974,-20.618774,-22.969421,-12.824951,,,,,,
1478503528.89,-0.613050,1.319669,-2.538348,0.867131,-1.574826,-2.552913,-0.142976,-0.968633,-0.203244,-0.093032,-0.200022,-0.117160,-20.618774,-22.969421,-12.824951,,,,,,
1478503528.91,-0.505817,1.359962,-2.680352,0.836614,-1.503762,-2.403095,-0.101399,-0.977857,-0.183070,-0.138561,-0.195193,-0.097784,-19.121338,-24.997192,-11.537720,,,,,,
1478503528.93,-0.360412,1.393808,-2.858314,0.803478,-1.467878,-2.194690,-0.062091,-0.984378,-0.164754,-0.230450,-0.148266,-0.121409,-18.447449,-26.424316,-10.332031,,,,,,
1478503528.95,-0.161954,1.418340,-3.080297,0.655884,-0.488474,-2.064993,-0.024488,-0.988401,-0.149880,-0.273119,-0.062685,-0.009102,-17.697083,-26.800720,-9.651123,,,,,,
1478503528.97,0.110345,1.433739,2.928651,0.730340,0.291429,-1.950805,0.015046,-0.990622,-0.135798,-0.400803,-0.054101,-0.082967,-16.422180,-27.552612,-8.816162,,,,,,
1478503528.99,0.400832,1.437873,2.644574,0.664673,0.530419,-1.707760,0.051712,-0.991179,-0.122028,-0.371399,-0.055544,-0.172513,-16.422180,-27.552612,-8.816162,,,,,,
1478503529.01,0.663957,1.433352,2.396279,0.643682,1.012765,-1.488258,0.084432,-0.990569,-0.107906,-0.339071,-0.095536,-0.143712,-14.174988,-28.904175,-8.498657,,,,,,
1478503529.03,0.876782,1.423285,2.198969,0.611625,0.739280,-1.284698,0.112979,-0.989140,-0.094010,-0.397601,-0.253704,-0.212356,-13.501404,-29.279175,-8.718384,,,,,,
1478503529.05,1.035520,1.410843,2.049957,0.542544,0.504225,-1.101626,0.136995,-0.987235,-0.081241,-0.455186,-0.501031,-0.180935,-12.526489,-29.805603,-8.110840,,,,,,
1478503529.07,1.136906,1.398417,1.953957,0.328759,0.238587,-0.793692,0.155633,-0.985179,-0.072111,-0.474084,-0.639683,-0.205401,-11.552063,-30.106201,-8.028442,,,,,,
1478503529.09,1.179791,1.390473,1.913679,0.067535,0.113138,-0.316976,0.165812,-0.983786,-0.068353,-0.455622,-0.532328,-0.185279,-11.552063,-30.106201,-8.028442,,,,,,
1478503529.11,1.171648,1.390540,1.921738,-0.130480,-0.070070,0.241077,0.165189,-0.983798,-0.069675,-0.377499,-0.259732,-0.172986,-10.953308,-31.082397,-7.423462,,,,,,
1478503529.13,1.120733,1.398848,1.971642,-0.286001,-0.087461,0.740564,0.154064,-0.985253,-0.074433,-0.286678,0.007348,-0.159637,-10.577881,-31.158081,-7.120605,,,,,,
1478503529.15,1.029950,1.412202,2.063624,-0.376849,0.079195,1.051709,0.135390,-0.987450,-0.081312,-0.256743,0.264489,-0.118654,-11.778198,-31.457764,-6.904419,,,,,,
1478503529.17,0.912554,1.426462,2.187894,-0.362428,0.407497,1.143900,0.113782,-0.989602,-0.087987,-0.317426,0.409600,-0.069682,-12.378845,-31.457031,-7.208862,,,,,,
1478503529.19,0.783650,1.438987,2.332182,-0.316854,0.904944,1.118910,0.092771,-0.991326,-0.093096,-0.404020,0.383904,-0.017317,-12.378845,-31.457031,-7.208862,,,,,,
1478503529.21,0.650262,1.448466,2.492100,-0.310114,1.496147,1.053113,0.073874,-0.992527,-0.097123,-0.464453,0.278904,0.012712,-14.030212,-31.530273,-7.821289,,,,,,
1478503529.23,0.523221,1.454141,2.657076,-0.310612,2.049199,0.930915,0.058157,-0.993204,-0.100819,-0.491720,0.147470,0.040455,-15.456909,-32.129456,-7.906616,,,,,,
1478503529.25,0.416574,1.455804,2.810762,-0.348720,2.459961,0.781051,0.046427,-0.993396,-0.104927,-0.514338,-0.055738,0.068901,-15.685425,-32.352051,-9.408203,,,,,,
1478503529.27,0.325405,1.453667,2.955551,-0.444391,2.753768,0.741756,0.037360,-0.993148,-0.110729,-0.509436,-0.276353,0.101787,-15.389038,-32.650024,-10.831055,,,,,,
1478503529.29,0.235909,1.447952,3.104014,-0.566485,2.998562,0.812034,0.028640,-0.992464,-0.119141,-0.381896,-0.235273,0.158250,-15.389038,-32.650024,-10.831055,,,,,,
1478503529.31,0.141988,1.439286,-3.023061,-0.636319,3.089962,0.957348,0.018557,-0.991365,-0.129812,-0.305086,-0.145216,0.198446,-15.621521,-33.320557,-13.757324,,,,,,
1478503529.33,0.038095,1.428318,-2.855662,-0.655681,3.138526,1.184970,0.005408,-0.989867,-0.141893,-0.246665,-0.110108,0.251314,-15.401001,-33.843323,-15.330444,,,,,,
1478503529.35,-0.068265,1.415093,-2.680858,-0.668476,3.461439,1.367503,-0.010578,-0.987903,-0.154714,-0.210064,-0.074140,0.288350,-14.504944,-33.991089,-17.123535,,,,,,
1478503529.37,-0.164578,1.398187,-2.513549,-0.728868,3.468860,1.489578,-0.028139,-0.985140,-0.169432,-0.177213,-0.043058,0.305083,-13.534790,-33.386841,-20.266724,,,,,,
1478503529.39,-0.243284,1.378332,-2.361318,-0.753193,3.669722,1.574299,-0.046077,-0.981536,-0.185646,-0.125859,-0.032762,0.367683,-13.534790,-33.386841,-20.266724,,,,,,
1478503529.41,-0.314764,1.353893,-2.222107,-0.946736,2.815349,1.723581,-0.066626,-0.976569,-0.204633,-0.121118,-0.008905,0.107649,-13.013245,-33.159119,-22.287842,,,,,,
1478503529.43,-0.380484,1.322678,-2.100199,-1.044418,2.671772,1.931905,-0.091201,-0.969376,-0.228018,-0.019196,-0.049972,0.332358,-12.715759,-32.931824,-23.860718,,,,,,
1478503529.45,-0.436555,1.287902,-1.992477,-1.003359,2.111176,2.037305,-0.118024,-0.960252,-0.252957,-0.032824,-0.091903,0.188687,-11.891113,-32.105530,-25.054932,,,,,,
1478503529.47,-0.489728,1.253955,-1.896858,-0.887852,1.862100,1.995739,-0.146557,-0.950224,-0.274945,0.022198,-0.084322,0.275220,-11.591614,-30.226746,-27.678711,,,,,,
1478503529.49,-0.541065,1.220966,-1.819551,-0.747973,0.539291,1.885685,-0.176527,-0.939431,-0.293782,0.039656,-0.025703,0.140324,-11.591614,-30.226746,-27.678711,,,,,,
1478503529.51,-0.590209,1.188830,-1.754431,-0.757025,0.637185,1.854615,-0.207446,-0.927933,-0.309687,0.074557,-0.055053,0.269907,-11.817444,-29.700012,-28.730591,,,,,,
1478503529.53,-0.632581,1.155202,-1.701233,-0.795290,0.232375,1.784765,-0.238699,-0.914877,-0.325613,-0.008585,-0.099116,0.219762,-12.567139,-29.173889,-29.186523,,,,,,
1478503529.55,-0.660750,1.122562,-1.662071,-0.829462,0.410435,1.556503,-0.265966,-0.901214,-0.342163,-0.023859,-0.165055,0.284592,-13.242004,-28.422241,-30.091919,,,,,,
1478503529.57,-0.678152,1.092037,-1.634270,-0.794321,0.429737,1.399121,-0.289009,-0.887567,-0.358746,-0.003044,-0.168005,0.323986,-14.440369,-26.694641,-31.451782,,,,,,
1478503529.59,-0.687884,1.063729,-1.610899,-0.737824,0.529702,1.278991,-0.308320,-0.874172,-0.375182,0.053864,-0.177738,0.320403,-14.440369,-26.694641,-31.451782,,,,,,
1478503529.61,-0.695051,1.037660,-1.593789,-0.729943,0.320565,1.094130,-0.325488,-0.861217,-0.390336,0.110705,-0.222233,0.304613,-14.964478,-25.793274,-32.131104,,,,,,
1478503529.63,-0.703380,1.016135,-1.581489,-0.525147,-0.070875,0.833984,-0.340640,-0.850079,-0.401660,0.129398,-0.451801,0.313372,-14.514343,-25.267700,-32.727905,,,,,,
1478503529.65,-0.719919,1.003683,-1.571348,-0.154992,-0.562620,0.480160,-0.354189,-0.843455,-0.403898,0.101686,-0.682256,0.292570,-15.637817,-24.592041,-32.811768,,,,,,
1478503529.67,-0.742603,1.000653,-1.561362,0.176056,-0.791813,0.223655,-0.364985,-0.841823,-0.397642,0.109462,-0.599888,0.232282,-16.912476,-24.441345,-32.821411,,,,,,
1478503529.69,-0.768964,1.001058,-1.549617,0.231173,-0.819685,0.252741,-0.375102,-0.842042,-0.387639,0.156505,-0.347136,0.111439,-16.912476,-24.441345,-32.821411,,,,,,
1478503529.71,-0.793979,0.997191,-1.535176,0.065412,-0.489019,0.539807,-0.387000,-0.839950,-0.380415,0.266623,-0.068955,0.044325,-16.986694,-24.291565,-32.597046,,,,,,
1478503529.73,-0.810680,0.985542,-1.517895,-0.135839,0.115988,0.863517,-0.400363,-0.833572,-0.380614,0.367389,0.346633,0.067046,-17.812073,-24.591553,-32.378052,,,,,,
1478503529.75,-0.815826,0.969541,-1.500461,-0.219416,0.672198,0.911178,-0.411979,-0.824626,-0.387641,0.364203,0.458400,0.182120,-18.410217,-24.066528,-32.157837,,,,,,
1478503529.77,-0.807513,0.954913,-1.487925,-0.259279,1.067141,0.692135,-0.417414,-0.816263,-0.399349,0.346659,0.309977,0.294201,-18.634766,-23.240173,-32.984985,,,,,,
1478503529.79,-0.789199,0.943370,-1.481645,-0.273285,1.206880,0.454462,-0.416691,-0.809541,-0.413536,0.332432,0.077150,0.363014,-18.634766,-23.240173,-32.984985,,,,,,
1478503529.81,-0.768755,0.936225,-1.480265,-0.181842,0.957245,0.172188,-0.412161,-0.805326,-0.426114,0.323919,-0.111223,0.375745,-18.184998,-22.939758,-33.431763,,,,,,
1478503529.83,-0.755729,0.935672,-1.482017,0.029849,0.327716,-0.131201,-0.406881,-0.804998,-0.431771,0.306082,-0.241648,0.311105,-17.361023,-22.939392,-33.950684,,,,,,
1478503529.85,-0.756013,0.942300,-1.485386,0.257898,-0.427388,-0.394924,-0.403335,-0.808912,-0.427764,0.282409,-0.227358,0.244750,-16.912537,-23.013672,-34.622192,,,,,,
1478503529.87,-0.768029,0.954793,-1.489426,0.434157,-0.938989,-0.587979,-0.401393,-0.816194,-0.415585,0.241969,-0.116805,0.190365,-16.913147,-23.914856,-33.796753,,,,,,
1478503529.89,-0.785573,0.972089,-1.494607,0.557279,-1.158005,-0.808385,-0.398577,-0.826065,-0.398438,0.177172,-0.040787,0.144349,-16.913147,-23.914856,-33.796753,,,,,,
1478503529.91,-0.799382,0.994979,-1.505491,0.604546,-1.105400,-1.182909,-0.390381,-0.838748,-0.379612,0.104141,-0.061994,0.129109,-17.438171,-24.215210,-33.425537,,,,,,
1478503529.93,-0.800628,1.023189,-1.524035,0.654554,-0.662845,-1.436659,-0.373717,-0.853773,-0.362503,0.107145,-0.008349,0.145584,-17.513794,-24.966064,-32.825684,,,,,,
1478503529.95,-0.790463,1.054644,-1.543529,0.829341,-0.155107,-1.505664,-0.350747,-0.869724,-0.347212,0.127831,0.133610,0.154631,-17.439819,-25.942200,-32.074585,,,,,,
1478503529.97,-0.774659,1.091182,-1.562597,1.062285,-0.038529,-1.723848,-0.322763,-0.887173,-0.329770,0.106500,0.206021,0.124540,-16.767944,-28.119202,-30.943481,,,,,,
1478503529.99,-0.749719,1.134451,-1.590614,1.176708,0.041483,-2.089528,-0.287994,-0.906302,-0.309315,0.102508,0.070563,0.143970,-16.767944,-28.119202,-30.943481,,,,,,
1478503530.01,-0.708049,1.182255,-1.634125,1.227356,0.053468,-2.345813,-0.246379,-0.925463,-0.287778,0.027797,-0.109694,0.093091,-15.570007,-29.245361,-30.558960,,,,,,
1478503530.03,-0.648305,1.232316,-1.697063,1.265745,0.061091,-2.518062,-0.200506,-0.943260,-0.264683,-0.079661,-0.179374,0.041187,-14.222717,-30.897156,-29.873047,,,,,,
1478503530.05,-0.561088,1.281811,-1.787320,1.228798,0.054934,-2.575738,-0.151640,-0.958533,-0.241286,-0.152315,-0.140923,-0.024461,-11.376526,-33.826111,-28.125244,,,,,,
1478503530.07,-0.440453,1.326338,-1.910786,1.147154,0.070937,-2.458052,-0.103190,-0.970269,-0.218931,-0.139166,-0.067283,-0.044619,-9.804199,-35.478149,-27.362671,,,,,,
1478503530.09,-0.287957,1.363647,-2.069037,1.096187,-0.134437,-2.258957,-0.058409,-0.978621,-0.197203,-0.122926,-0.000703,-0.090913,-9.804199,-35.478149,-27.362671,,,,,,
1478503530.11,-0.102274,1.392938,-2.261450,1.070953,-0.173100,-1.992913,-0.018063,-0.984225,-0.175998,-0.134586,0.031237,-0.090298,-7.778503,-36.155823,-26.222168,,,,,,
1478503530.13,0.102757,1.413560,-2.470734,1.046578,0.029571,-1.729354,0.016062,-0.987664,-0.155763,-0.233958,-0.010841,-0.070463,-6.280640,-37.206909,-25.985352,,,,,,
1478503530.15,0.349883,1.425857,-2.712685,0.966235,0.946132,-1.656675,0.049510,-0.989515,-0.135681,-0.346446,-0.090228,-0.072632,-3.507324,-39.235901,-24.238525,,,,,,
1478503530.17,0.640898,1.427099,-2.975251,0.916334,1.699967,-1.602743,0.085623,-0.989693,-0.114786,-0.466391,-0.109077,-0.135337,-1.857727,-40.138062,-23.325684,,,,,,
1478503530.19,0.895521,1.419805,3.081145,0.913023,1.497544,-1.356554,0.117407,-0.988622,-0.094028,-0.426657,-0.194498,-0.073574,-1.857727,-40.138062,-23.325684,,,,,,
1478503530.21,1.106052,1.408422,2.902995,0.806357,1.782491,-1.175544,0.144515,-0.986846,-0.072456,-0.419387,-0.477921,-0.148781,0.617432,-40.440002,-22.856934,,,,,,
1478503530.23,1.251429,1.393947,2.783879,0.561152,1.176937,-0.973715,0.167033,-0.984403,-0.055236,-0.422511,-0.685702,-0.184709,2.417053,-40.966614,-22.393188,,,,,,
1478503530.25,1.331781,1.381927,2.722828,0.246521,0.915673,-0.550311,0.182411,-0.982217,-0.044449,-0.393730,-0.633307,-0.161759,5.193359,-41.570190,-20.947021,,,,,,
1478503530.27,1.354913,1.379033,2.712174,-0.019716,0.507210,0.058806,0.186166,-0.981670,-0.040826,-0.342019,-0.271458,-0.124213,5.867615,-42.020752,-20.791870,,,,,,
1478503530.29,1.343951,1.386178,2.731196,-0.128053,0.303586,0.574803,0.178868,-0.983006,-0.041286,-0.260747,0.065679,-0.119175,5.867615,-42.020752,-20.791870,,,,,,
1478503530.31,1.309020,1.401319,2.770371,-0.169305,0.145709,0.950585,0.162921,-0.985673,-0.043651,-0.199436,0.293794,-0.119863,6.093994,-41.495911,-20.790405,,,,,,
1478503530.33,1.249092,1.420117,2.833156,-0.231078,0.071265,1.077035,0.142409,-0.988669,-0.047462,-0.226104,0.341224,-0.135719,5.718018,-41.945801,-20.718018,,,,,,
1478503530.35,1.169083,1.437620,2.916024,-0.239808,0.156503,0.987439,0.122213,-0.991145,-0.051918,-0.334478,0.237910,-0.105645,4.366516,-42.094299,-21.253052,,,,,,
1478503530.37,1.084468,1.451432,3.009703,-0.241303,0.634170,0.812126,0.105274,-0.992885,-0.055657,-0.486210,0.138896,-0.041649,3.841309,-41.943604,-21.557129,,,,,,
1478503530.39,1.006783,1.460194,3.110011,-0.311756,1.417263,0.591260,0.093282,-0.993890,-0.059006,-0.608983,0.065667,0.009598,3.841309,-41.943604,-21.557129,,,,,,
1478503530.41,0.935925,1.464111,-3.062148,-0.432440,2.346009,0.477421,0.085734,-0.994315,-0.063152,-0.618571,-0.038812,0.069317,2.866760,-41.793274,-21.489380,,,,,,
1478503530.43,0.856605,1.464631,-2.927384,-0.594422,2.907904,0.459708,0.080071,-0.994370,-0.069409,-0.514107,-0.093963,0.060696,3.691101,-41.718018,-21.933350,,,,,,
1478503530.45,0.768448,1.464192,-2.772805,-0.637603,3.605218,0.599988,0.073952,-0.994323,-0.076503,-0.381127,-0.152360,0.159617,5.640076,-41.793274,-22.368652,,,,,,
1478503530.47,0.661681,1.460914,-2.593552,-0.901233,3.215842,0.632132,0.067381,-0.993969,-0.086519,-0.290769,-0.098713,-0.020415,6.764526,-41.718262,-22.735229,,,,,,
1478503530.49,0.500962,1.451865,-2.379223,-1.146617,2.363530,0.895012,0.056984,-0.992936,-0.104071,-0.106194,-0.120940,0.040793,6.764526,-41.718262,-22.735229,,,,,,
1478503530.51,0.302152,1.437960,-2.131527,-1.337328,2.144446,1.287098,0.039413,-0.991190,-0.126446,0.057603,-0.171255,0.120709,7.590576,-41.193481,-22.879272,,,,,,
1478503530.53,0.091867,1.418026,-1.900503,-1.295316,0.241949,1.511641,0.013960,-0.988353,-0.151536,0.026475,-0.058262,-0.027984,8.265808,-40.442566,-23.699585,,,,,,
1478503530.55,-0.094592,1.393631,-1.701704,-1.231393,0.586922,1.704142,-0.016646,-0.984347,-0.175452,0.050673,-0.087461,0.261389,7.064209,-39.539185,-25.584106,,,,,,
1478503530.57,-0.245748,1.362523,-1.546785,-1.315532,-0.252756,1.742215,-0.050304,-0.978389,-0.200558,-0.083440,-0.124363,0.075726,6.464478,-38.787659,-26.414062,,,,,,
1478503530.59,-0.353911,1.326593,-1.433988,-1.387265,0.293893,1.764408,-0.083795,-0.970330,-0.226799,-0.063483,-0.173453,0.257744,6.464478,-38.787659,-26.414062,,,,,,
1478503530.61,-0.433553,1.286106,-1.348843,-1.468663,0.025023,1.853788,-0.117989,-0.959749,-0.254874,-0.049583,-0.161986,0.182563,5.113586,-38.335510,-27.399414,,,,,,
1478503530.63,-0.494484,1.243004,-1.281357,-1.495998,0.198335,1.892761,-0.152792,-0.946755,-0.283388,-0.005701,-0.178428,0.177172,3.238464,-36.831604,-29.364136,,,,,,
1478503530.65,-0.543906,1.198496,-1.229178,-1.490697,-0.108935,1.895387,-0.188239,-0.931493,-0.311267,0.023581,-0.213099,0.208178,1.888672,-35.779114,-30.574829,,,,,,
1478503530.67,-0.584432,1.153483,-1.187483,-1.484374,-0.139776,1.889081,-0.223617,-0.914181,-0.338035,0.043869,-0.277057,0.210655,0.464233,-34.952271,-31.335938,,,,,,
1478503530.69,-0.619639,1.108015,-1.154390,-1.480610,-0.302428,1.877640,-0.259265,-0.894814,-0.363440,0.097369,-0.315543,0.246268,0.464233,-34.952271,-31.335938,,,,,,
1478503530.71,-0.651319,1.062853,-1.126439,-1.398970,-0.406888,1.881441,-0.294862,-0.873746,-0.386812,0.163072,-0.272921,0.266512,-0.809143,-33.374878,-32.471191,,,,,,
1478503530.73,-0.683849,1.019614,-1.099695,-1.220229,-0.495685,1.868720,-0.330860,-0.851906,-0.405940,0.202046,-0.235466,0.270564,-3.357117,-31.120911,-34.291504,,,,,,
1478503530.75,-0.714204,0.979295,-1.076668,-1.123776,-0.594609,1.721436,-0.365242,-0.830105,-0.421337,0.194023,-0.230671,0.249630,-4.705261,-29.994507,-34.752197,,,,,,
1478503530.77,-0.740785,0.943177,-1.059417,-0.945601,-0.648975,1.477663,-0.396295,-0.809428,-0.433332,0.173303,-0.345678,0.296232,-6.354309,-29.017578,-35.515015,,,,,,
1478503530.79,-0.766302,0.915667,-1.046478,-0.614531,-0.837502,1.069937,-0.422508,-0.792969,-0.438961,0.115959,-0.576125,0.306728,-6.354309,-29.017578,-35.515015,,,,,,
1478503530.81,-0.791322,0.898247,-1.035923,-0.276779,-0.793370,0.745989,-0.443117,-0.782236,-0.437898,0.135011,-0.515890,0.289308,-7.403076,-28.041138,-36.123413,,,,,,
1478503530.83,-0.812912,0.886252,-1.024938,-0.142324,-0.592705,0.651682,-0.459249,-0.774707,-0.434648,0.190877,-0.211377,0.195497,-9.650269,-26.764771,-36.290894,,,,,,
1478503530.85,-0.830373,0.873918,-1.015825,-0.266666,-0.474325,0.669980,-0.473785,-0.766850,-0.432977,0.284973,0.012928,0.117059,-10.249329,-26.464600,-36.220459,,,,,,
1478503530.87,-0.842459,0.858145,-1.008734,-0.403024,-0.247658,0.796625,-0.487951,-0.756631,-0.435217,0.397421,0.192697,0.128713,-11.148315,-26.314514,-35.927368,,,,,,
1478503530.89,-0.850979,0.839903,-1.001196,-0.413598,-0.099971,0.866600,-0.501937,-0.744578,-0.440071,0.432388,0.331065,0.173317,-11.148315,-26.314514,-35.927368,,,,,,
1478503530.91,-0.857706,0.823448,-0.993981,-0.317649,-0.057476,0.708452,-0.514084,-0.733494,-0.444640,0.401703,0.362171,0.240187,-12.272949,-25.788269,-36.385986,,,,,,
1478503530.93,-0.861803,0.812588,-0.989063,-0.172803,0.004249,0.407901,-0.521917,-0.726069,-0.447690,0.353445,0.229731,0.304853,-12.495361,-24.588013,-36.538330,,,,,,
1478503530.95,-0.861820,0.808597,-0.987092,-0.020097,0.103237,0.063691,-0.524120,-0.723319,-0.449564,0.304820,0.064689,0.345331,-12.870239,-24.437561,-36.691162,,,,,,
1478503530.97,-0.858751,0.812718,-0.988792,0.162458,0.064061,-0.361045,-0.520477,-0.726159,-0.449219,0.253540,-0.065910,0.333984,-12.645630,-24.362183,-36.989502,,,,,,
1478503530.99,-0.855292,0.826351,-0.994270,0.399069,-0.089011,-0.805537,-0.511400,-0.735464,-0.444481,0.240831,-0.114085,0.291405,-12.645630,-24.362183,-36.989502,,,,,,
1478503531.01,-0.853404,0.849228,-1.002291,0.640438,-0.275184,-1.177567,-0.497749,-0.750771,-0.434269,0.242210,-0.041923,0.226871,-12.420654,-24.437439,-36.912842,,,,,,
1478503531.03,-0.853919,0.879918,-1.012098,0.851576,-0.471994,-1.491199,-0.480371,-0.770687,-0.418671,0.223352,0.063670,0.142716,-12.271729,-25.714111,-35.860962,,,,,,
1478503531.05,-0.855446,0.918075,-1.024069,1.051402,-0.588995,-1.825239,-0.458467,-0.794434,-0.398350,0.179933,0.095490,0.081791,-11.523499,-26.689941,-35.554932,,,,,,
1478503531.07,-0.854365,0.964149,-1.039982,1.230634,-0.577215,-2.201105,-0.429956,-0.821564,-0.374394,0.141702,0.051819,0.069859,-10.924866,-27.816345,-34.799927,,,,,,
1478503531.09,-0.845825,1.017457,-1.062123,1.348302,-0.445157,-2.545557,-0.393370,-0.850775,-0.348487,0.098829,-0.003260,0.066672,-10.924866,-27.816345,-34.799927,,,,,,
1478503531.11,-0.824346,1.076817,-1.094169,1.383855,-0.234261,-2.832036,-0.348063,-0.880453,-0.321954,0.039729,-0.044504,0.059213,-10.253235,-29.392151,-34.494019,,,,,,
1478503531.13,-0.784872,1.138045,-1.140730,1.373922,-0.021306,-2.998477,-0.296383,-0.907816,-0.296695,-0.009479,-0.084845,0.050174,-7.781250,-32.321594,-32.374023,,,,,,
1478503531.15,-0.714473,1.198712,-1.205003,1.339484,0.758124,-3.017949,-0.238210,-0.931572,-0.274646,-0.108469,-0.095650,0.040103,-5.608582,-33.974060,-31.456909,,,,,,
1478503531.17,-0.612058,1.256237,-1.298577,1.290582,0.786988,-3.018261,-0.177765,-0.950933,-0.253232,-0.097000,-0.127604,0.065137,-3.285706,-35.326111,-30.838867,,,,,,
1478503531.19,-0.468909,1.307756,-1.427294,1.252932,1.025977,-2.826157,-0.117506,-0.965604,-0.231952,-0.075060,-0.166049,-0.004544,-3.285706,-35.326111,-30.838867,,,,,,
1478503531.21,-0.300727,1.349143,-1.586934,1.167872,0.355674,-2.375321,-0.065121,-0.975535,-0.209976,-0.055332,-0.127538,-0.122894,-0.736694,-36.453796,-29.919067,,,,,,
1478503531.23,-0.136253,1.378963,-1.756611,1.029879,-0.355025,-1.829974,-0.025898,-0.981656,-0.188892,-0.029202,-0.075930,-0.184674,3.537659,-38.033447,-28.236328,,,,,,
1478503531.25,0.016777,1.399206,-1.924140,0.880665,-0.658163,-1.476918,0.002864,-0.985314,-0.170726,-0.062709,-0.039451,-0.143285,5.187195,-38.785278,-27.548584,,,,,,
1478503531.27,0.168426,1.411862,-2.097161,0.684116,-0.874645,-1.342477,0.026530,-0.987397,-0.156026,-0.180385,-0.064163,-0.161418,5.714478,-38.486755,-26.794800,,,,,,
1478503531.29,0.361684,1.415565,-2.295432,0.565132,0.145585,-1.506488,0.054708,-0.987976,-0.144605,-0.360815,-0.131195,-0.060824,5.714478,-38.486755,-26.794800,,,,,,
1478503531.31,0.554229,1.410142,-2.492081,0.410064,-0.250544,-1.462028,0.084187,-0.987123,-0.136019,-0.449407,-0.122710,-0.240415,7.213074,-39.838928,-25.807861,,,,,,
1478503531.33,0.710310,1.401475,-2.649595,0.401851,0.253001,-1.229715,0.109883,-0.985699,-0.127760,-0.427769,-0.174472,-0.074937,8.864563,-39.465210,-25.495728,,,,,,
1478503531.35,0.837279,1.391011,-2.775116,0.393965,0.041248,-1.109147,0.132831,-0.983882,-0.119717,-0.495730,-0.347859,-0.168858,9.839905,-39.616150,-25.188110,,,,,,
1478503531.37,0.935147,1.379753,-2.875475,0.328921,-0.030020,-0.968882,0.152796,-0.981807,-0.112734,-0.572383,-0.610433,-0.115568,10.664978,-39.691772,-25.031860,,,,,,
1478503531.39,0.996343,1.369569,-2.938072,0.139391,0.015687,-0.617644,0.167790,-0.979822,-0.108606,-0.619939,-0.793860,-0.104743,10.664978,-39.691772,-25.031860,,,,,,
1478503531.41,1.017129,1.365109,-2.953330,-0.070257,0.489541,-0.046808,0.173727,-0.978921,-0.107391,-0.640050,-0.710120,-0.052444,11.640381,-39.767700,-24.724609,,,,,,
1478503531.43,1.000514,1.368346,-2.922150,-0.237616,0.827194,0.499976,0.169251,-0.979577,-0.108552,-0.536774,-0.248481,-0.061583,11.941223,-39.543152,-24.572388,,,,,,
1478503531.45,0.958753,1.377401,-2.857059,-0.294681,1.278596,0.849196,0.157305,-0.981357,-0.110422,-0.381731,0.100864,-0.023352,12.091614,-39.468323,-24.496460,,,,,,
1478503531.47,0.906727,1.388856,-2.774172,-0.265404,1.584529,0.938309,0.142487,-0.983495,-0.111517,-0.316407,0.329091,-0.012263,12.167236,-39.544067,-24.045776,,,,,,
1478503531.49,0.861385,1.399511,-2.693883,-0.160661,1.748151,0.804508,0.129327,-0.985367,-0.111028,-0.403024,0.412384,0.054159,12.167236,-39.544067,-24.045776,,,,,,
1478503531.51,0.837978,1.408509,-2.632721,-0.051076,1.948032,0.598294,0.120098,-0.986860,-0.108089,-0.520748,0.278349,0.123729,12.766174,-39.768921,-24.341187,,,,,,
1478503531.53,0.834723,1.414999,-2.585595,-0.083967,2.337505,0.453813,0.114997,-0.987888,-0.104177,-0.613989,0.099720,0.142294,12.841248,-39.919250,-24.115601,,,,,,
1478503531.55,0.827622,1.419817,-2.525397,-0.245868,2.814154,0.545873,0.110748,-0.988624,-0.101769,-0.626617,-0.027733,0.125924,14.042114,-39.920532,-23.656494,,,,,,
1478503531.57,0.787958,1.424958,-2.421969,-0.455403,3.422442,0.833340,0.103021,-0.989384,-0.102495,-0.570810,-0.103954,0.194856,15.317993,-40.072083,-23.046875,,,,,,
1478503531.59,0.703991,1.429560,-2.261442,-0.675771,3.941498,1.099593,0.091114,-0.990043,-0.107302,-0.492069,-0.167886,0.226137,15.317993,-40.072083,-23.046875,,,,,,
1478503531.61,0.581086,1.431444,-2.053484,-0.901979,4.175788,1.288539,0.076248,-0.990306,-0.116104,-0.373611,-0.223988,0.196441,17.345093,-40.224976,-21.831665,,,,,,
1478503531.63,0.405781,1.427987,-1.803133,-1.054091,3.310295,1.620080,0.056181,-0.989820,-0.130767,-0.236112,-0.269106,0.172026,17.720642,-40.300720,-21.453857,,,,,,
1478503531.65,0.208198,1.419303,-1.523017,-1.082510,4.248611,1.919748,0.031194,-0.988547,-0.147656,-0.128545,-0.311304,0.332425,18.697205,-40.227173,-20.771484,,,,,,
1478503531.67,0.029551,1.399905,-1.265151,-1.308234,3.396676,1.934708,0.005025,-0.985434,-0.169987,-0.144475,-0.202280,0.146870,19.598694,-40.228821,-20.014771,,,,,,
1478503531.69,-0.114023,1.370707,-1.058039,-1.492286,2.711388,2.023093,-0.022614,-0.980049,-0.197466,-0.027237,-0.218972,0.181749,19.598694,-40.228821,-20.014771,,,,,,
1478503531.71,-0.239759,1.333201,-0.888631,-1.535543,1.710712,2.247924,-0.055892,-0.971907,-0.228633,0.065993,-0.226610,0.244503,19.447388,-40.678650,-20.090576,,,,,,
1478503531.73,-0.343423,1.289595,-0.750548,-1.637371,1.110181,2.352600,-0.093441,-0.960723,-0.261306,0.082317,-0.204881,0.197722,18.695923,-40.977661,-20.471069,,,,,,
1478503531.75,-0.439354,1.241423,-0.646335,-1.626165,-0.173150,2.398259,-0.137581,-0.946245,-0.292731,0.087166,-0.159620,0.239631,17.045898,-40.751465,-20.708618,,,,,,
1478503531.77,-0.521783,1.190912,-0.564691,-1.581764,-0.458333,2.463872,-0.184823,-0.928707,-0.321470,0.097482,-0.160175,0.303052,15.918945,-40.824524,-21.616943,,,,,,
1478503531.79,-0.598171,1.139005,-0.499155,-1.476841,-0.870156,2.490623,-0.235670,-0.908217,-0.345833,0.069487,-0.132859,0.319832,15.918945,-40.824524,-21.616943,,,,,,
1478503531.81,-0.658965,1.087449,-0.447958,-1.408744,-0.729903,2.412011,-0.284563,-0.885444,-0.367440,0.082750,-0.155358,0.334207,10.964172,-40.217346,-24.804443,,,,,,
1478503531.83,-0.706363,1.036755,-0.409038,-1.362842,-0.571472,2.315153,-0.330388,-0.860757,-0.387223,0.103200,-0.166785,0.338486,8.863098,-39.764648,-25.870605,,,,,,
1478503531.85,-0.740312,0.986939,-0.379115,-1.336148,-0.395994,2.233067,-0.371826,-0.834342,-0.406962,0.163314,-0.204964,0.335170,7.138794,-39.012878,-26.483765,,,,,,
1478503531.87,-0.767965,0.938209,-0.353085,-1.231197,-0.247485,2.228095,-0.410714,-0.806501,-0.425289,0.247338,-0.207263,0.358959,5.187317,-38.484863,-27.848633,,,,,,
1478503531.89,-0.792507,0.891434,-0.327469,-1.046568,-0.218251,2.191807,-0.447420,-0.777974,-0.441104,0.311739,-0.184368,0.344805,5.187317,-38.484863,-27.848633,,,,,,
1478503531.91,-0.815125,0.849790,-0.304124,-0.822269,-0.269491,1.899316,-0.480458,-0.751142,-0.452710,0.321736,-0.234988,0.330685,1.737122,-37.130371,-29.675293,,,,,,
1478503531.93,-0.835982,0.818877,-0.286844,-0.492203,-0.496992,1.289389,-0.506786,-0.730379,-0.457945,0.267467,-0.412733,0.315382,-0.213135,-36.528137,-30.515137,,,,,,
1478503531.95,-0.855890,0.803546,-0.276404,-0.088635,-0.675575,0.537149,-0.524197,-0.719822,-0.455053,0.184124,-0.647686,0.278463,-1.937744,-36.151855,-30.828247,,,,,,
1478503531.97,-0.874055,0.802394,-0.269887,0.255411,-0.660929,0.041896,-0.533012,-0.719022,-0.445989,0.213920,-0.386889,0.186452,-3.361694,-35.851379,-30.689087,,,,,,
1478503531.99,-0.891126,0.808035,-0.262855,0.409015,-0.556983,-0.102190,-0.537384,-0.722931,-0.434269,0.272171,-0.037552,0.096515,-3.361694,-35.851379,-30.689087,,,,,,
1478503532.01,-0.903975,0.814484,-0.256074,0.349235,-0.279317,-0.097618,-0.539245,-0.727371,-0.424436,0.345336,0.219971,0.040235,-3.361450,-35.926636,-30.464111,,,,,,
1478503532.03,-0.908517,0.818788,-0.251284,0.220264,0.073997,-0.059478,-0.538693,-0.730318,-0.420053,0.409283,0.404620,0.042551,-3.961792,-36.452148,-29.943359,,,,,,
1478503532.05,-0.905731,0.822832,-0.248690,0.194010,0.318772,-0.153671,-0.535192,-0.733075,-0.419726,0.424490,0.465909,0.109301,-3.735718,-35.926941,-30.091919,,,,,,
1478503532.07,-0.897583,0.830116,-0.248785,0.251285,0.452942,-0.379234,-0.527566,-0.738010,-0.420733,0.399300,0.328937,0.218798,-3.286804,-36.677795,-29.713135,,,,,,
1478503532.09,-0.885030,0.842118,-0.251575,0.342659,0.571072,-0.615231,-0.515350,-0.746055,-0.421682,0.353287,0.094200,0.308447,-3.286804,-36.677795,-29.713135,,,,,,
1478503532.11,-0.868912,0.859288,-0.256848,0.468090,0.621110,-0.883936,-0.498631,-0.757378,-0.421599,0.311024,-0.123130,0.352737,-2.986694,-37.053711,-29.185669,,,,,,
1478503532.13,-0.850869,0.883085,-0.265654,0.631770,0.521240,-1.220331,-0.477254,-0.772701,-0.418523,0.275503,-0.282917,0.320867,-2.237610,-37.354065,-29.254883,,,,,,
1478503532.15,-0.833401,0.914586,-0.277478,0.843955,0.340354,-1.522273,-0.451624,-0.792310,-0.410221,0.247278,-0.264102,0.259906,-1.413879,-38.104919,-28.948364,,,,,,
1478503532.17,-0.817667,0.952820,-0.291636,1.087938,0.145510,-1.805921,-0.422693,-0.815053,-0.396257,0.213556,-0.133906,0.186754,1.586975,-38.933533,-27.500488,,,,,,
1478503532.19,-0.803001,0.998303,-0.307971,1.304138,0.019770,-2.037668,-0.389744,-0.840553,-0.376259,0.155994,-0.050988,0.105308,1.586975,-38.933533,-27.500488,,,,,,
1478503532.21,-0.785142,1.048186,-0.328062,1.417378,0.069713,-2.230861,-0.352858,-0.866519,-0.353039,0.094709,-0.012937,0.042034,3.311523,-39.460144,-27.037354,,,,,,
1478503532.23,-0.755676,1.101160,-0.356802,1.433180,0.310248,-2.408912,-0.310358,-0.891733,-0.329378,0.040201,0.015299,0.008745,4.736755,-40.212402,-25.976196,,,,,,
1478503532.25,-0.707850,1.155911,-0.398857,1.454422,0.594342,-2.580612,-0.262087,-0.915163,-0.306248,-0.004805,0.020708,0.001774,6.613159,-40.740417,-24.611816,,,,,,
1478503532.27,-0.636956,1.212078,-0.460030,1.501705,0.776224,-2.714756,-0.208802,-0.936348,-0.282232,-0.053039,-0.041100,0.008367,11.415649,-41.571167,-22.325439,,,,,,
1478503532.29,-0.536532,1.267615,-0.548506,1.536433,0.872943,-2.762615,-0.152610,-0.954391,-0.256607,-0.099343,-0.148941,0.022262,11.415649,-41.571167,-22.325439,,,,,,
1478503532.31,-0.395423,1.319497,-0.676290,1.534227,0.929219,-2.719068,-0.095785,-0.968590,-0.229475,-0.136637,-0.214378,0.017149,13.967773,-41.949768,-20.806152,,,,,,
1478503532.33,-0.208811,1.363296,-0.854060,1.465250,0.494219,-2.494175,-0.042706,-0.978549,-0.201539,-0.173480,-0.200513,-0.090010,16.445435,-42.028137,-19.362427,,,,,,
1478503532.35,0.015323,1.395400,-1.075638,1.353419,0.268520,-2.113356,0.002674,-0.984657,-0.174478,-0.185581,-0.152550,-0.111884,18.923462,-41.806274,-18.144043,,,,,,
1478503532.37,0.281153,1.415452,-1.333350,1.272030,0.586228,-1.867323,0.042929,-0.987958,-0.148645,-0.202490,-0.109042,-0.047690,22.531006,-40.911987,-15.492310,,,,,,
1478503532.39,0.573227,1.423817,-1.610283,1.220079,1.068656,-1.637346,0.079427,-0.989218,-0.123042,-0.297170,-0.018915,-0.193044,22.531006,-40.911987,-15.492310,,,,,,
1478503532.41,0.833085,1.422343,-1.862268,1.133658,0.295573,-1.367318,0.109454,-0.989001,-0.099483,-0.263400,0.021273,-0.224842,24.183594,-40.839661,-14.280029,,,,,,
1478503532.43,1.048654,1.415391,-2.071006,1.053432,0.618616,-1.134061,0.134156,-0.987949,-0.077195,-0.268953,-0.048382,-0.213805,25.386108,-40.616760,-13.296021,,,,,,
1478503532.45,1.221635,1.404887,-2.235433,0.916460,0.400855,-0.987581,0.155184,-0.986269,-0.056499,-0.390154,-0.088393,-0.312428,26.513245,-40.318420,-12.612915,,,,,,
1478503532.47,1.348348,1.391662,-2.358902,0.795897,0.184226,-0.909141,0.173788,-0.983998,-0.039309,-0.446859,-0.217799,-0.290006,28.619690,-39.497681,-10.422485,,,,,,
1478503532.49,1.440925,1.377629,-2.452293,0.679510,-0.028193,-0.814717,0.190351,-0.981401,-0.024861,-0.549101,-0.546202,-0.262981,28.619690,-39.497681,-10.422485,,,,,,
1478503532.51,1.496486,1.364245,-2.511399,0.407415,-0.160500,-0.647819,0.204520,-0.978744,-0.015226,-0.615454,-0.848877,-0.266070,29.596191,-39.273865,-9.965332,,,,,,
1478503532.53,1.515893,1.356979,-2.531711,0.051559,0.066262,-0.173224,0.211872,-0.977228,-0.011644,-0.620777,-0.803213,-0.265242,29.747620,-39.049622,-9.514038,,,,,,
1478503532.55,1.505174,1.361640,-2.516887,-0.234223,0.248883,0.484917,0.207188,-0.978206,-0.013616,-0.513554,-0.244145,-0.248179,30.422546,-38.899658,-9.734375,,,,,,
1478503532.57,1.476908,1.377294,-2.479775,-0.335420,0.541746,0.988488,0.191450,-0.981337,-0.018028,-0.404783,0.147810,-0.182671,29.822876,-39.125000,-9.288574,,,,,,
1478503532.59,1.443223,1.399481,-2.428445,-0.352251,1.027236,1.226104,0.169093,-0.985361,-0.021690,-0.369685,0.354182,-0.133111,29.822876,-39.125000,-9.288574,,,,,,
1478503532.61,1.395807,1.422432,-2.354800,-0.439233,1.419837,1.215448,0.145563,-0.989014,-0.025735,-0.362955,0.352234,-0.112006,29.147217,-39.499878,-9.143433,,,,,,
1478503532.63,1.328406,1.443459,-2.253242,-0.474779,1.818728,1.160356,0.123281,-0.991904,-0.030481,-0.355382,0.268668,-0.067083,28.021118,-40.174744,-8.851562,,,,,,
1478503532.65,1.237989,1.462346,-2.121896,-0.477633,2.127142,1.107711,0.102299,-0.994125,-0.035361,-0.392979,0.209259,-0.051873,27.345276,-41.225769,-7.956055,,,,,,
1478503532.67,1.116842,1.477635,-1.952392,-0.519011,2.571881,0.988647,0.083604,-0.995664,-0.040794,-0.445055,0.096158,-0.018486,26.971313,-41.226318,-7.433838,,,,,,
1478503532.69,0.948927,1.486677,-1.728678,-0.681260,2.858621,0.859579,0.068291,-0.996464,-0.048946,-0.475655,-0.108516,-0.050388,26.971313,-41.226318,-7.433838,,,,,,
1478503532.71,0.724676,1.489347,-1.443825,-0.867253,3.095131,0.922067,0.053932,-0.996685,-0.060915,-0.449455,-0.323979,0.008485,26.371765,-41.827515,-6.463135,,,,,,
1478503532.73,0.479693,1.483908,-1.129880,-1.047742,3.600683,0.936273,0.040049,-0.996228,-0.076985,-0.327067,-0.324680,0.106618,26.222900,-42.279114,-5.338989,,,,,,
1478503532.75,0.278090,1.468620,-0.856729,-1.230996,3.580029,0.927846,0.028001,-0.994785,-0.098080,-0.239579,-0.221082,0.064953,25.473206,-43.406128,-3.769165,,,,,,
1478503532.77,0.102215,1.443873,-0.625747,-1.533420,2.254807,1.189004,0.012916,-0.991956,-0.125922,-0.155937,-0.206713,-0.024850,25.473877,-43.331482,-3.544067,,,,,,
1478503532.79,-0.069741,1.412769,-0.416343,-1.599941,1.689712,1.630202,-0.010966,-0.987540,-0.156988,0.033961,-0.278925,0.097937,25.473877,-43.331482,-3.544067,,,,,,
1478503532.81,-0.204765,1.375481,-0.244998,-1.690363,1.395239,1.785570,-0.039463,-0.980987,-0.190021,0.087772,-0.241761,0.187839,24.198059,-43.405334,-3.853638,,,,,,
1478503532.83,-0.314273,1.333429,-0.121570,-1.693824,0.254346,1.871383,-0.072689,-0.971960,-0.223627,0.065762,-0.161203,0.254587,22.769592,-44.228577,-4.539062,,,,,,
1478503532.85,-0.402416,1.288056,-0.024099,-1.724831,0.234995,2.049014,-0.109264,-0.960294,-0.256702,0.066265,-0.180498,0.208927,20.212830,-45.123901,-6.807739,,,,,,
1478503532.87,-0.479752,1.238153,0.053584,-1.776674,-0.326425,2.189033,-0.150719,-0.945183,-0.289679,0.128334,-0.119576,0.254950,18.859497,-45.346069,-8.242676,,,,,,
1478503532.89,-0.546087,1.185334,0.116148,-1.767423,-0.494662,2.319209,-0.195268,-0.926625,-0.321305,0.153123,-0.076885,0.246095,18.859497,-45.346069,-8.242676,,,,,,
1478503532.91,-0.610141,1.130495,0.169968,-1.678967,-0.816293,2.474537,-0.244212,-0.904623,-0.349310,0.162334,-0.067652,0.290441,16.306213,-45.643005,-9.461670,,,,,,
1478503532.93,-0.667334,1.074785,0.215882,-1.604659,-0.837850,2.504785,-0.294545,-0.879488,-0.373824,0.155324,-0.075575,0.288008,13.677368,-45.713928,-11.281372,,,,,,
1478503532.95,-0.713796,1.020040,0.250934,-1.535360,-0.740045,2.380470,-0.342629,-0.852129,-0.395577,0.153268,-0.094679,0.327813,9.696411,-45.557190,-14.461304,,,,,,
1478503532.97,-0.747132,0.968117,0.276351,-1.441866,-0.543330,2.190139,-0.385197,-0.823820,-0.415866,0.151921,-0.119982,0.334094,7.368774,-45.403687,-15.978882,,,,,,
1478503532.99,-0.770976,0.920189,0.295408,-1.315350,-0.350970,1.997867,-0.422052,-0.795716,-0.434405,0.189203,-0.134658,0.348346,7.368774,-45.403687,-15.978882,,,,,,
1478503533.01,-0.788701,0.876678,0.310213,-1.174318,-0.311711,1.783554,-0.453833,-0.768618,-0.450845,0.248786,-0.137510,0.337122,5.193237,-44.801147,-16.970459,,,,,,
1478503533.03,-0.805001,0.840745,0.320988,-0.879360,-0.509649,1.353289,-0.480728,-0.745140,-0.462241,0.265777,-0.216652,0.333823,2.942749,-44.423889,-17.737549,,,,,,
