timestamp(unix),attitude_roll(radians),attitude_pitch(radians),attitude_yaw(radians),rotation_rate_x(radians/s),rotation_rate_y(radians/s),rotation_rate_z(radians/s),gravity_x(G),gravity_y(G),gravity_z(G),user_acc_x(G),user_acc_y(G),user_acc_z(G),magnetic_field_x(microteslas),magnetic_field_y(microteslas),magnetic_field_z(microteslas),latitude(degree),longitude(degree),altitude(meter),speed(m/s),course(degree),timestamp(unix)
,,,,,,,,,,,,,,,,37.392598,-122.003842,10.474915,-1.000000,-1.000000,1478503272.67
1478503419.57,-0.812509,1.380103,-1.998266,-0.007221,0.077594,0.000590,-0.137609,-0.981873,-0.130343,-0.003962,-0.000289,0.005938,-15.476929,-33.016052,-16.831421,,,,,,
,,,,,,,,,,,,,,,,37.391947,-122.011798,10.474915,0.620000,301.640625,1478503124.00
,,,,,,,,,,,,,,,,37.392598,-122.003842,10.474915,-1.000000,-1.000000,1478503272.67
1478503419.59,-0.810566,1.380169,-1.999140,-0.003052,0.036133,-0.007841,-0.137308,-0.981886,-0.130565,0.004801,-0.000231,-0.001759,-15.252136,-33.166260,-16.754517,,,,,,
1478503419.61,-0.808193,1.380402,-2.001538,0.006275,-0.024510,-0.000248,-0.136832,-0.981930,-0.130732,0.013206,0.003689,-0.008367,-15.326355,-32.791138,-16.830322,,,,,,
1478503419.63,-0.807811,1.380550,-2.002723,0.012587,-0.048980,-0.001241,-0.136677,-0.981958,-0.130684,0.007252,0.008661,-0.006905,-15.475647,-32.866760,-16.381348,,,,,,
,,,,,,,,,,,,,,,,37.392598,-122.003842,10.474915,-1.000000,-1.000000,1478503419.63
1478503419.65,-0.809533,1.380644,-2.001953,0.019012,-0.044743,-0.004405,-0.136835,-0.981975,-0.130385,-0.005224,0.001888,-0.004030,-15.701111,-32.941345,-16.533081,,,,,,
,,,,,,,,,,,,,,,,37.392598,-122.003842,10.474915,-1.000000,-1.000000,1478503419.64
1478503419.67,-0.811572,1.380450,-2.000573,0.014789,-0.027725,-0.001259,-0.137239,-0.981939,-0.130237,-0.012098,-0.003550,-0.007703,-15.701111,-32.941345,-16.533081,,,,,,
1478503419.69,-0.813315,1.380187,-1.999138,0.008414,-0.009644,0.006132,-0.137654,-0.981889,-0.130175,-0.010647,-0.003005,-0.005766,-15.775879,-32.716064,-16.683716,,,,,,
1478503419.71,-0.815142,1.379848,-1.997232,0.002077,0.013758,0.010321,-0.138133,-0.981825,-0.130151,-0.008412,-0.006121,-0.000968,-15.252441,-33.166077,-16.904541,,,,,,
1478503419.73,-0.816147,1.379439,-1.995596,-0.006304,0.042502,0.003846,-0.138557,-0.981747,-0.130288,-0.013039,-0.007236,0.001733,-15.626709,-32.940979,-16.832520,,,,,,
1478503419.75,-0.815400,1.379050,-1.995236,-0.006267,0.062692,0.009139,-0.138738,-0.981673,-0.130653,-0.002284,-0.005708,-0.003060,-15.552490,-33.165894,-16.906860,,,,,,
1478503419.77,-0.813821,1.378967,-1.995538,-0.004119,0.065876,0.008081,-0.138590,-0.981657,-0.130928,0.004786,-0.003832,0.000892,-15.552490,-33.165894,-16.906860,,,,,,
1478503419.79,-0.811627,1.379181,-1.996450,0.004418,0.060542,0.002812,-0.138150,-0.981698,-0.131087,0.013990,-0.001075,-0.000184,-15.402039,-33.015930,-16.905762,,,,,,
1478503419.81,-0.808965,1.379811,-1.998043,0.011897,0.047780,-0.007776,-0.137353,-0.981818,-0.131027,0.008798,-0.014169,0.000641,-15.327454,-33.166016,-16.905151,,,,,,
1478503419.83,-0.807455,1.380623,-1.998518,0.019527,0.055238,-0.031165,-0.136579,-0.981971,-0.130683,0.001097,-0.020989,0.003837,-15.402771,-33.466248,-16.680542,,,,,,
1478503419.85,-0.804588,1.381780,-1.999949,0.018714,0.087175,-0.053573,-0.135385,-0.982190,-0.130286,0.001260,-0.021854,0.004676,-15.401855,-33.091248,-16.680786,,,,,,
1478503419.87,-0.798117,1.383491,-2.004465,0.017843,0.104226,-0.074896,-0.133336,-0.982510,-0.129986,0.015385,-0.023808,0.002560,-15.401855,-33.091248,-16.680786,,,,,,
1478503419.89,-0.789144,1.385633,-2.011599,0.022107,0.084034,-0.086556,-0.130670,-0.982906,-0.129695,0.022134,-0.022907,0.001201,-15.703552,-33.240173,-17.357910,,,,,,
1478503419.91,-0.779099,1.388071,-2.020500,0.024223,0.041539,-0.107775,-0.127677,-0.983352,-0.129295,0.027457,-0.016709,0.001595,-15.253662,-33.465698,-17.129395,,,,,,
1478503419.93,-0.766766,1.390786,-2.033075,0.014467,-0.051940,-0.133240,-0.124219,-0.983842,-0.128937,0.034727,-0.011184,-0.005539,-15.028320,-33.390930,-17.052856,,,,,,
1478503419.95,-0.749982,1.393725,-2.053086,0.004308,-0.234746,-0.144737,-0.120067,-0.984364,-0.128888,0.060039,0.009434,-0.017551,-15.253296,-33.390808,-17.054565,,,,,,
1478503419.97,-0.746114,1.395669,-2.064239,0.006745,-0.430393,-0.132716,-0.118268,-0.984704,-0.127945,0.066968,0.009866,-0.025955,-15.253296,-33.390808,-17.054565,,,,,,
1478503419.99,-0.740836,1.397582,-2.080161,-0.024766,-0.590840,-0.124133,-0.116320,-0.985036,-0.127178,0.054949,0.009145,-0.020527,-14.878296,-33.691528,-16.676514,,,,,,
1478503420.01,-0.740721,1.398059,-2.094638,-0.092793,-0.792663,-0.091200,-0.115988,-0.985118,-0.126844,0.068182,0.014888,-0.018160,-14.953979,-33.916382,-16.751953,,,,,,
1478503420.03,-0.744332,1.397011,-2.109674,-0.142922,-1.002051,-0.028352,-0.117145,-0.984937,-0.127184,0.080066,0.000166,-0.004759,-14.727356,-33.542114,-16.375488,,,,,,
1478503420.05,-0.753588,1.394652,-2.122412,-0.173597,-1.156195,0.020681,-0.119906,-0.984527,-0.127788,0.050646,-0.017243,-0.008306,-15.626099,-33.467468,-15.857178,,,,,,
1478503420.07,-0.766713,1.391487,-2.133103,-0.183444,-1.192347,0.041972,-0.123734,-0.983967,-0.128447,0.016755,-0.020336,0.012923,-15.626099,-33.467468,-15.857178,,,,,,
1478503420.09,-0.778187,1.388581,-2.145618,-0.185460,-1.216737,0.010063,-0.127206,-0.983445,-0.129054,-0.007864,-0.020431,-0.001363,-16.525391,-33.467529,-15.489014,,,,,,
1478503420.11,-0.790013,1.385848,-2.159276,-0.184740,-1.309238,0.013401,-0.130633,-0.982946,-0.129433,0.013277,-0.030772,-0.026009,-16.674805,-33.092224,-15.640259,,,,,,
1478503420.13,-0.804021,1.383093,-2.172792,-0.185091,-1.403863,0.016737,-0.134382,-0.982435,-0.129468,0.030531,-0.037721,-0.040774,-17.048096,-33.168518,-14.668091,,,,,,
1478503420.15,-0.819148,1.380544,-2.186203,-0.167924,-1.438932,-0.022502,-0.138155,-0.981956,-0.129131,0.032137,-0.029350,-0.039235,-17.497192,-32.718018,-14.821655,,,,,,
1478503420.17,-0.830192,1.380207,-2.203372,-0.107244,-1.359195,-0.142575,-0.139817,-0.981893,-0.127820,-0.010589,-0.007197,-0.029712,-17.497192,-32.718018,-14.821655,,,,,,
1478503420.19,-0.833936,1.382394,-2.222752,-0.040398,-1.002021,-0.240685,-0.138703,-0.982305,-0.125852,-0.060912,-0.012217,0.010419,-18.620300,-32.568542,-14.080200,,,,,,
1478503420.21,-0.829107,1.386631,-2.244156,0.017593,-0.717136,-0.325960,-0.135024,-0.983089,-0.123708,-0.082032,-0.014225,0.000920,-18.469421,-32.494263,-13.704102,,,,,,
1478503420.23,-0.817850,1.392994,-2.267340,0.091283,-0.504603,-0.406780,-0.129056,-0.984235,-0.120940,-0.065524,0.003232,-0.007050,-18.319153,-32.719849,-13.327881,,,,,,
1478503420.25,-0.803353,1.400755,-2.291643,0.130984,-0.468539,-0.432165,-0.121788,-0.985578,-0.117491,-0.048287,0.019071,-0.013643,-18.467957,-32.645569,-12.804077,,,,,,
1478503420.27,-0.790823,1.408582,-2.313686,0.158849,-0.467520,-0.458622,-0.114819,-0.986872,-0.113580,-0.051426,0.015620,-0.016990,-18.467957,-32.645569,-12.804077,,,,,,
1478503420.29,-0.771925,1.417716,-2.342870,0.165386,-0.505735,-0.503237,-0.106360,-0.988306,-0.109265,-0.059290,0.006647,-0.000522,-18.543579,-33.171082,-12.429321,,,,,,
1478503420.31,-0.750845,1.427701,-2.373321,0.194650,-0.484447,-0.571232,-0.097295,-0.989779,-0.104262,-0.082286,0.012454,-0.008638,-18.318787,-33.396423,-12.277466,,,,,,
1478503420.33,-0.719183,1.438390,-2.415226,0.219257,-0.460069,-0.574327,-0.086971,-0.991247,-0.099325,-0.096226,0.026800,0.021993,-17.869141,-33.847229,-11.898926,,,,,,
1478503420.35,-0.685587,1.449092,-2.456671,0.238985,-0.298539,-0.572333,-0.076864,-0.992603,-0.093972,-0.105982,0.037830,0.023843,-17.268005,-34.148987,-10.919312,,,,,,
1478503420.37,-0.637139,1.459807,-2.509451,0.219501,-0.109210,-0.587631,-0.065892,-0.993847,-0.089030,-0.101894,0.043896,-0.001424,-17.268005,-34.148987,-10.919312,,,,,,
1478503420.39,-0.567165,1.470695,-2.579877,0.207445,-0.027184,-0.658076,-0.053689,-0.994994,-0.084287,-0.094077,0.038588,-0.036013,-17.043274,-34.374390,-10.767456,,,,,,
1478503420.41,-0.473011,1.479982,-2.676634,0.147953,-0.197181,-0.609177,-0.041315,-0.995879,-0.080732,-0.062246,0.012816,-0.049593,-16.518555,-34.524597,-10.763428,,,,,,
1478503420.43,-0.377384,1.485805,-2.779294,0.124532,-0.398135,-0.554708,-0.031281,-0.996390,-0.078915,-0.055298,0.035606,-0.056888,-16.068542,-34.900513,-10.309937,,,,,,
1478503420.45,-0.260970,1.491500,-2.904775,0.111870,-0.456475,-0.606849,-0.020438,-0.996858,-0.076531,-0.079827,0.085801,-0.051994,-15.920105,-35.726013,-10.008423,,,,,,
1478503420.47,-0.127683,1.496225,-3.048917,0.140138,-0.538487,-0.573569,-0.009487,-0.997221,-0.073895,-0.139531,0.039656,-0.067691,-15.920105,-35.726013,-10.008423,,,,,,
1478503420.49,0.004584,1.499438,3.093586,0.121361,-0.296157,-0.501655,0.000327,-0.997455,-0.071297,-0.180396,-0.006253,-0.047310,-15.243469,-35.652405,-9.328369,,,,,,
1478503420.51,0.108433,1.500317,2.987087,0.076407,-0.003694,-0.475724,0.007621,-0.997517,-0.070007,-0.201469,-0.004146,-0.056900,-14.793396,-35.652771,-9.249878,,,,,,
1478503420.53,0.237758,1.499806,2.860853,0.037620,0.273815,-0.421006,0.016706,-0.997481,-0.068935,-0.205594,0.005675,-0.055683,-14.344543,-36.178101,-9.171265,,,,,,
1478503420.55,0.267494,1.498357,2.839270,0.025075,0.522456,-0.322430,0.019130,-0.997377,-0.069802,-0.182491,0.022814,-0.055884,-14.044128,-36.253723,-8.869019,,,,,,
1478503420.57,0.352917,1.497201,2.766321,0.025182,0.693482,-0.243916,0.025414,-0.997293,-0.068998,-0.170190,0.027689,-0.073062,-14.044128,-36.253723,-8.869019,,,,,,
1478503420.59,0.371047,1.495639,2.762563,0.006916,0.752977,-0.187674,0.027226,-0.997177,-0.069977,-0.162068,0.006317,-0.091965,-14.045105,-36.628723,-8.868774,,,,,,
1478503420.61,0.424015,1.494074,2.724178,-0.021070,0.737055,-0.150546,0.031534,-0.997058,-0.069859,-0.146280,-0.001690,-0.124232,-13.970764,-36.853577,-8.943237,,,,,,
1478503420.63,0.451331,1.492425,2.710514,-0.035634,0.647685,-0.086617,0.034148,-0.996931,-0.070452,-0.139403,-0.010241,-0.136824,-13.070496,-36.553772,-9.161499,,,,,,
1478503420.65,0.472368,1.491180,2.700701,-0.040548,0.522190,-0.052389,0.036187,-0.996832,-0.070823,-0.149239,0.017966,-0.151635,-13.145752,-36.854004,-8.937012,,,,,,
1478503420.67,0.484581,1.489945,2.697945,-0.057942,0.458422,-0.032162,0.037623,-0.996733,-0.071465,-0.163813,0.052687,-0.157264,-13.145752,-36.854004,-8.937012,,,,,,
1478503420.69,0.489937,1.488434,2.701877,-0.084624,0.474425,-0.015301,0.038713,-0.996610,-0.072591,-0.186861,0.106321,-0.157191,-13.221985,-37.153687,-9.162354,,,,,,
1478503420.71,0.440564,1.485680,2.761152,-0.092996,0.522294,-0.015403,0.036254,-0.996380,-0.076895,-0.203597,0.115795,-0.157037,-13.222839,-37.378479,-9.312256,,,,,,
1478503420.73,0.446141,1.483909,2.766911,-0.088481,0.604132,-0.010180,0.037444,-0.996228,-0.078284,-0.201933,0.115231,-0.159814,-13.146729,-37.304138,-8.861694,,,,,,
1478503420.75,0.448212,1.482307,2.777657,-0.098066,0.656207,0.018429,0.038297,-0.996087,-0.079645,-0.199598,0.120004,-0.177237,-13.221985,-37.228821,-9.087280,,,,,,
1478503420.77,0.445809,1.480941,2.794158,-0.092677,0.732677,0.051342,0.038692,-0.995966,-0.080964,-0.203014,0.091150,-0.182433,-13.221985,-37.228821,-9.087280,,,,,,
1478503420.79,0.435693,1.480238,2.819754,-0.073611,0.815427,0.115191,0.038167,-0.995902,-0.081986,-0.207387,0.050971,-0.168914,-13.146973,-37.228821,-9.086670,,,,,,
1478503420.81,0.414320,1.479678,2.856393,-0.113693,0.680483,0.146047,0.036630,-0.995852,-0.083293,-0.207376,0.058855,-0.217564,-13.521118,-37.003845,-8.939697,,,,,,
1478503420.83,0.384395,1.479111,2.901660,-0.104004,0.827049,0.211876,0.034334,-0.995800,-0.084876,-0.192659,-0.012318,-0.152170,-14.122375,-37.378357,-9.093994,,,,,,
1478503420.85,0.339221,1.479270,2.962766,-0.078068,0.772601,0.293003,0.030413,-0.995814,-0.086190,-0.213244,-0.060414,-0.166190,-14.121887,-37.078064,-9.244141,,,,,,
1478503420.87,0.281212,1.479620,3.035560,-0.090359,0.702381,0.345203,0.025268,-0.995846,-0.087473,-0.214920,-0.116397,-0.176351,-14.121887,-37.078064,-9.244141,,,,,,
1478503420.89,0.202934,1.479498,3.128131,-0.118687,0.723536,0.457853,0.018375,-0.995835,-0.089301,-0.205555,-0.161956,-0.162790,-15.097351,-37.302734,-9.176392,,,,,,
1478503420.91,0.094995,1.478410,-3.031449,-0.149341,0.772258,0.617285,0.008751,-0.995735,-0.091839,-0.192543,-0.195686,-0.166294,-15.697388,-37.227173,-9.330933,,,,,,
1478503420.93,-0.039604,1.475595,-2.880604,-0.169282,0.796533,0.753394,-0.003764,-0.995472,-0.094983,-0.170721,-0.252316,-0.150440,-17.049011,-37.225403,-10.091187,,,,,,
1478503420.95,-0.180974,1.469968,-2.723045,-0.212454,0.756155,0.820282,-0.018117,-0.994921,-0.099013,-0.161708,-0.403410,-0.129762,-18.173523,-36.473755,-10.774902,,,,,,
1478503420.97,-0.309428,1.460577,-2.582350,-0.344267,0.297237,0.858579,-0.033495,-0.993932,-0.104773,-0.170286,-0.593165,-0.152750,-18.173523,-36.473755,-10.774902,,,,,,
1478503420.99,-0.426788,1.446502,-2.459471,-0.428962,0.367457,0.983617,-0.051319,-0.992285,-0.112854,-0.153255,-0.648187,-0.036774,-19.524963,-36.772522,-11.159912,,,,,,
1478503421.01,-0.524244,1.427115,-2.346606,-0.589615,0.844915,1.217262,-0.071673,-0.989696,-0.123957,-0.117124,-0.572087,-0.014852,-21.100159,-36.395935,-11.696899,,,,,,
1478503421.03,-0.605388,1.400152,-2.246242,-0.795217,1.014152,1.482000,-0.096640,-0.985476,-0.139637,-0.020914,-0.078520,-0.019603,-23.052490,-35.266052,-14.262085,,,,,,
1478503421.05,-0.673325,1.364449,-2.167483,-1.036922,0.385004,1.792463,-0.127765,-0.978786,-0.160170,0.087039,0.186031,-0.206086,-24.177063,-33.913269,-15.771240,,,,,,
1478503421.07,-0.729641,1.323121,-2.095753,-1.081868,0.770631,2.040722,-0.163418,-0.969485,-0.182739,0.201031,0.285296,0.039108,-24.177063,-33.913269,-15.771240,,,,,,
1478503421.09,-0.774794,1.278796,-2.037806,-1.085537,0.432463,2.097635,-0.201384,-0.957670,-0.205701,0.172728,0.287122,0.011563,-25.601501,-32.635620,-17.057373,,,,,,
1478503421.11,-0.809071,1.235306,-1.993164,-1.019926,0.443049,2.003239,-0.238248,-0.944249,-0.227227,0.117657,0.214055,0.112007,-27.251709,-30.981506,-19.245728,,,,,,
1478503421.13,-0.828392,1.194765,-1.960348,-0.941115,0.677051,1.796803,-0.270593,-0.930130,-0.248271,0.009271,0.081085,0.165279,-29.799194,-27.450500,-22.416626,,,,,,
1478503421.15,-0.830327,1.159330,-1.939658,-0.899516,0.972035,1.442105,-0.295227,-0.916535,-0.269823,-0.037827,-0.041412,0.183275,-30.248840,-25.797424,-24.295776,,,,,,
1478503421.17,-0.815324,1.129574,-1.931828,-0.899719,1.186364,1.083041,-0.310867,-0.904230,-0.292796,-0.028962,-0.172979,0.200480,-30.248840,-25.797424,-24.295776,,,,,,
1478503421.19,-0.790686,1.103586,-1.931910,-0.915248,1.241010,0.871037,-0.320158,-0.892828,-0.316790,0.030638,-0.217813,0.213229,-30.623352,-24.219666,-26.024414,,,,,,
1478503421.21,-0.764976,1.079718,-1.935350,-0.903381,1.051961,0.741522,-0.326576,-0.881825,-0.340195,0.107781,-0.163951,0.224335,-30.323486,-22.716919,-27.972900,,,,,,
1478503421.23,-0.744255,1.058049,-1.939444,-0.829238,0.744656,0.638076,-0.332326,-0.871400,-0.360862,0.170552,-0.101348,0.255851,-29.275024,-20.386902,-31.641113,,,,,,
1478503421.25,-0.730955,1.039141,-1.942282,-0.703106,0.428626,0.563671,-0.338437,-0.861969,-0.377452,0.214551,-0.067291,0.283656,-28.676025,-19.184143,-33.662354,,,,,,
1478503421.27,-0.725510,1.023014,-1.942185,-0.544972,0.204906,0.534010,-0.345557,-0.853682,-0.389639,0.222037,-0.038286,0.307257,-28.676025,-19.184143,-33.662354,,,,,,
1478503421.29,-0.725543,1.009333,-1.938823,-0.404530,0.125758,0.516807,-0.353287,-0.846477,-0.398329,0.212662,-0.001424,0.316282,-28.000732,-18.132751,-34.857788,,,,,,
1478503421.31,-0.727433,0.998010,-1.933167,-0.278418,0.164762,0.473796,-0.360389,-0.840394,-0.404793,0.202613,0.026918,0.312584,-27.550354,-17.231628,-35.754883,,,,,,
1478503421.33,-0.728842,0.989226,-1.926606,-0.171202,0.226210,0.398713,-0.365862,-0.835601,-0.409776,0.201784,0.035400,0.302186,-26.725342,-16.029785,-37.249268,,,,,,
1478503421.35,-0.729829,0.983062,-1.919600,-0.058805,0.248303,0.324782,-0.369693,-0.832199,-0.413245,0.195636,0.031220,0.296439,-25.675781,-15.428833,-38.216675,,,,,,
1478503421.37,-0.731435,0.979579,-1.911964,0.053505,0.234260,0.244518,-0.372290,-0.830263,-0.414805,0.187628,0.036226,0.288279,-25.675781,-15.428833,-38.216675,,,,,,
1478503421.39,-0.732810,0.979148,-1.904538,0.165139,0.245820,0.116310,-0.373100,-0.830023,-0.414559,0.195838,0.065923,0.270470,-24.924988,-14.903748,-38.511353,,,,,,
1478503421.41,-0.733035,0.982418,-1.898885,0.265168,0.202221,-0.060845,-0.371375,-0.831842,-0.412456,0.195517,0.088418,0.241878,-24.025940,-14.678101,-39.254639,,,,,,
1478503421.43,-0.732535,0.989536,-1.896216,0.346985,0.091741,-0.259289,-0.367199,-0.835771,-0.408229,0.199459,0.071428,0.214122,-22.452087,-14.602844,-39.917847,,,,,,
1478503421.45,-0.732132,1.000682,-1.896674,0.451042,-0.056022,-0.457553,-0.360785,-0.841839,-0.401423,0.208594,0.050763,0.189738,-21.477722,-14.678101,-40.135620,,,,,,
1478503421.47,-0.733188,1.016282,-1.899189,0.595445,-0.225196,-0.645983,-0.352376,-0.850156,-0.391236,0.196050,0.043333,0.169922,-21.477722,-14.678101,-40.135620,,,,,,
1478503421.49,-0.736343,1.036704,-1.903249,0.745239,-0.391183,-0.842904,-0.341876,-0.860731,-0.377177,0.160281,-0.004717,0.159450,-20.277893,-14.903931,-39.976440,,,,,,
1478503421.51,-0.739126,1.061287,-1.910162,0.818566,-0.462329,-1.024422,-0.328569,-0.872984,-0.360475,0.139329,-0.072008,0.160066,-19.528503,-15.429871,-39.595581,,,,,,
1478503421.53,-0.739870,1.088211,-1.920744,0.834985,-0.547225,-1.142362,-0.312873,-0.885798,-0.342742,0.142813,-0.101232,0.138229,-18.180847,-16.480713,-39.434937,,,,,,
1478503421.55,-0.740175,1.117262,-1.935658,0.874564,-0.792650,-1.305704,-0.295492,-0.898904,-0.323505,0.137244,-0.110388,0.117343,-16.831909,-17.156921,-39.124390,,,,,,
1478503421.57,-0.742206,1.151022,-1.956728,1.003635,-1.251843,-1.589581,-0.275472,-0.913181,-0.300359,0.070318,-0.434200,0.120046,-16.831909,-17.156921,-39.124390,,,,,,
1478503421.59,-0.747627,1.191309,-1.985052,1.185774,-1.795169,-1.889006,-0.251865,-0.928855,-0.271648,0.044148,-0.623315,0.076534,-15.933411,-17.832520,-39.042358,,,,,,
1478503421.61,-0.762044,1.237133,-2.019691,1.288457,-2.632915,-2.083035,-0.226111,-0.944849,-0.236927,0.062659,-0.543798,0.009738,-16.235046,-19.935059,-37.243530,,,,,,
1478503421.63,-0.781622,1.282962,-2.059758,1.165908,-3.085582,-1.989343,-0.199972,-0.958861,-0.201488,0.078420,-0.371187,-0.078389,-16.836304,-21.436646,-35.972412,,,,,,
1478503421.65,-0.796415,1.322201,-2.100891,0.887657,-2.571750,-1.669111,-0.175884,-0.969259,-0.172051,0.021175,-0.031016,-0.072975,-17.286255,-22.789001,-34.250122,,,,,,
1478503421.67,-0.803237,1.353915,-2.145329,0.668221,-2.417333,-1.415072,-0.154849,-0.976573,-0.149420,-0.021329,0.275508,-0.061761,-17.286255,-22.789001,-34.250122,,,,,,
1478503421.69,-0.796518,1.380784,-2.194000,0.546902,-1.818646,-1.270813,-0.135029,-0.982002,-0.132059,-0.066860,0.349845,-0.003836,-17.960571,-23.841125,-32.604614,,,,,,
1478503421.71,-0.765400,1.404934,-2.253195,0.456526,-1.054058,-1.211797,-0.114387,-0.986276,-0.119056,-0.125527,0.194605,0.067893,-18.408997,-24.818909,-30.582520,,,,,,
1478503421.73,-0.699984,1.427031,-2.333781,0.382675,-0.541385,-1.210854,-0.092295,-0.989684,-0.109581,-0.186544,-0.038591,0.056831,-17.958618,-25.044800,-30.128906,,,,,,
1478503421.75,-0.602748,1.447159,-2.441867,0.363429,-0.493549,-1.172711,-0.069913,-0.992367,-0.101591,-0.216998,-0.163304,0.003523,-16.833313,-25.045654,-29.970581,,,,,,
1478503421.77,-0.477452,1.464866,-2.575870,0.359128,-0.324674,-1.071864,-0.048586,-0.994395,-0.093908,-0.232512,-0.180837,-0.002299,-16.833313,-25.045654,-29.970581,,,,,,
1478503421.79,-0.339534,1.478844,-2.723079,0.347534,-0.534436,-0.868289,-0.030581,-0.995775,-0.086581,-0.238492,-0.134504,-0.123411,-15.857605,-25.272095,-29.363037,,,,,,
1478503421.81,-0.224421,1.489026,-2.855887,0.329351,-0.996250,-0.603690,-0.018177,-0.996659,-0.079631,-0.194012,-0.033020,-0.173482,-13.079651,-25.050232,-28.142456,,,,,,
1478503421.83,-0.141222,1.496490,-2.959923,0.259883,-1.011259,-0.406052,-0.010449,-0.997241,-0.073499,-0.175891,0.047152,-0.186633,-11.877014,-24.977722,-26.933472,,,,,,
1478503421.85,-0.073924,1.501395,-3.047173,0.192121,-1.016534,-0.305288,-0.005122,-0.997593,-0.069156,-0.221624,0.137073,-0.182218,-10.973755,-24.454651,-25.951904,,,,,,
1478503421.87,-0.013224,1.504551,-3.127038,0.125309,-0.873912,-0.273938,-0.000875,-0.997807,-0.066192,-0.245798,0.183231,-0.156343,-10.973755,-24.454651,-25.951904,,,,,,
1478503421.89,0.051114,1.506705,3.076086,0.105399,-0.737806,-0.250835,0.003272,-0.997947,-0.063964,-0.284614,0.176688,-0.146287,-9.995605,-24.232056,-24.669678,,,,,,
1478503421.91,0.116151,1.508585,2.997947,0.119687,-0.587973,-0.237146,0.007205,-0.998065,-0.061752,-0.341022,0.107090,-0.135086,-7.738342,-23.261780,-22.253296,,,,,,
1478503421.93,-0.020562,1.506714,3.126069,0.124956,-0.304118,-0.246007,-0.001317,-0.997947,-0.064025,-0.353877,0.045067,-0.118882,-6.909851,-22.738892,-21.122314,,,,,,
1478503421.95,0.040414,1.508893,3.060622,0.104734,-0.168100,-0.172875,0.002499,-0.998085,-0.061813,-0.352368,0.021217,-0.164841,-5.931213,-22.742126,-19.314941,,,,,,
1478503421.97,-0.200768,1.499512,-2.983246,0.090684,-0.001343,-0.059224,-0.014204,-0.997460,-0.069793,-0.294131,0.033746,-0.180772,-5.931213,-22.742126,-19.314941,,,,,,
1478503421.99,-0.358867,1.485671,-2.824004,0.079628,0.121807,0.061944,-0.029861,-0.996379,-0.079606,-0.240830,0.074931,-0.206526,-4.653625,-22.819824,-17.880371,,,,,,
1478503422.01,-0.466034,1.468760,-2.712864,0.075957,0.276780,0.211834,-0.045770,-0.994799,-0.090997,-0.201361,0.161944,-0.210914,-4.199036,-23.349487,-14.951660,,,,,,
1478503422.03,-0.515187,1.467102,-2.654646,0.062207,0.555120,0.351849,-0.050998,-0.994629,-0.090073,-0.202938,0.194671,-0.205017,-4.122620,-23.726318,-13.750977,,,,,,
1478503422.05,-0.568195,1.463599,-2.585922,0.012875,0.899606,0.426633,-0.057574,-0.994260,-0.090181,-0.225232,0.155362,-0.188032,-4.271423,-24.628845,-12.026489,,,,,,
1478503422.07,-0.612400,1.457490,-2.519898,-0.084742,1.162369,0.510857,-0.064993,-0.993588,-0.092517,-0.244227,0.061642,-0.158811,-4.271423,-24.628845,-12.026489,,,,,,
1478503422.09,-0.650374,1.449300,-2.455908,-0.121533,1.375046,0.550782,-0.073383,-0.992628,-0.096456,-0.268566,-0.149233,-0.117670,-3.746155,-25.080078,-11.347412,,,,,,
1478503422.11,-0.669380,1.440780,-2.405307,-0.159441,1.691037,0.486223,-0.080448,-0.991560,-0.101672,-0.283886,-0.393526,-0.077252,-4.418945,-26.433960,-8.576660,,,,,,
1478503422.13,-0.665853,1.431916,-2.373101,-0.255504,1.827545,0.421617,-0.085515,-0.990372,-0.108863,-0.273311,-0.662705,-0.049721,-5.916809,-27.111145,-6.637695,,,,,,
1478503422.15,-0.638438,1.421483,-2.361769,-0.459091,2.007967,0.370192,-0.088652,-0.988873,-0.119458,-0.254244,-0.877246,-0.018512,-8.843323,-28.611267,-5.533936,,,,,,
1478503422.17,-0.604694,1.405109,-2.358175,-0.772704,1.744864,0.629672,-0.093764,-0.986305,-0.135684,-0.188630,-0.842155,-0.051724,-8.843323,-28.611267,-5.533936,,,,,,
1478503422.19,-0.598278,1.379122,-2.331741,-1.031001,1.557728,1.115014,-0.107295,-0.981687,-0.157414,0.019328,-0.393664,-0.017437,-14.700012,-29.204468,-8.127441,,,,,,
1478503422.21,-0.620388,1.345948,-2.281141,-1.069591,1.334904,1.539876,-0.129617,-0.974828,-0.181411,0.153619,-0.083064,0.060348,-16.204285,-28.073425,-11.664307,,,,,,
1478503422.23,-0.655444,1.309208,-2.221225,-1.058944,1.044313,1.719213,-0.157629,-0.965980,-0.205024,0.194006,0.115547,0.058830,-16.355164,-26.118958,-14.591431,,,,,,
1478503422.25,-0.682249,1.271152,-2.174420,-1.121151,0.852158,1.678713,-0.186123,-0.955442,-0.229106,0.143185,0.184857,0.105663,-15.828430,-23.716064,-16.688721,,,,,,
1478503422.27,-0.698748,1.232878,-2.138350,-1.109953,0.975478,1.660490,-0.213256,-0.943447,-0.253830,0.069213,0.097851,0.190110,-15.828430,-23.716064,-16.688721,,,,,,
1478503422.29,-0.704303,1.195452,-2.108273,-1.090398,1.250859,1.584586,-0.237370,-0.930382,-0.279367,0.009739,0.033867,0.229730,-14.170959,-19.664917,-18.028320,,,,,,
1478503422.31,-0.696688,1.159658,-2.086129,-1.075615,1.549825,1.431989,-0.256450,-0.916666,-0.306523,-0.023991,-0.017004,0.261021,-13.869080,-18.915039,-18.026489,,,,,,
1478503422.33,-0.676153,1.125310,-2.070137,-1.151509,1.859669,1.305489,-0.269654,-0.902401,-0.336093,-0.029128,-0.068515,0.301776,-14.542236,-17.939209,-18.332031,,,,,,
1478503422.35,-0.645668,1.092601,-2.057641,-1.151718,2.172469,1.173014,-0.276903,-0.887827,-0.367543,0.011156,-0.165121,0.412953,-14.993103,-17.562683,-19.235474,,,,,,
1478503422.37,-0.614998,1.061105,-2.049588,-1.169656,1.680526,1.040602,-0.281502,-0.872895,-0.398511,0.058342,-0.194137,0.339795,-14.993103,-17.562683,-19.235474,,,,,,
1478503422.39,-0.603339,1.030564,-2.042601,-1.126385,0.611965,1.019048,-0.291831,-0.857589,-0.423527,0.173988,-0.178559,0.317127,-15.899475,-17.707703,-22.242188,,,,,,
1478503422.41,-0.595346,1.001662,-2.033232,-1.025124,0.959259,1.033979,-0.302214,-0.842368,-0.446187,0.277556,-0.208017,0.464376,-16.275513,-17.105591,-23.520264,,,,,,
1478503422.43,-0.593408,0.973935,-2.023962,-0.998102,0.022675,0.958909,-0.314292,-0.827104,-0.465961,0.192878,-0.087508,0.309024,-16.802551,-16.953552,-24.724365,,,,,,
1478503422.45,-0.604898,0.948307,-2.016683,-0.906874,-0.229446,0.879957,-0.331573,-0.812430,-0.479601,0.267471,-0.088007,0.482180,-17.478699,-16.426331,-25.929810,,,,,,
1478503422.47,-0.615374,0.924176,-2.007993,-0.817793,-0.260649,0.927332,-0.347797,-0.798125,-0.491970,0.214862,-0.093477,0.401546,-17.478699,-16.426331,-25.929810,,,,,,
1478503422.49,-0.631615,0.901362,-1.997863,-0.707295,-0.394914,0.899402,-0.366399,-0.784173,-0.500824,0.235479,-0.087303,0.462693,-18.154846,-15.748840,-27.360229,,,,,,
1478503422.51,-0.644397,0.881049,-1.988633,-0.614723,-0.267492,0.817750,-0.382261,-0.771407,-0.508731,0.218748,-0.062059,0.417133,-18.904358,-15.298035,-27.666016,,,,,,
1478503422.53,-0.656400,0.862714,-1.979264,-0.509764,-0.162527,0.787297,-0.396905,-0.759611,-0.515226,0.219995,-0.014895,0.422651,-19.730530,-15.071289,-28.572266,,,,,,
1478503422.55,-0.662295,0.846749,-1.970252,-0.418551,0.139300,0.679824,-0.407342,-0.749131,-0.522375,0.214135,0.031403,0.392370,-19.879883,-14.620850,-28.798584,,,,,,
1478503422.57,-0.662694,0.834302,-1.963563,-0.317682,0.303044,0.484262,-0.413256,-0.740828,-0.529522,0.215166,0.052168,0.381741,-19.879883,-14.620850,-28.798584,,,,,,
1478503422.59,-0.656812,0.826429,-1.960437,-0.204817,0.438151,0.228132,-0.413683,-0.735516,-0.536547,0.223558,0.030530,0.361498,-20.031616,-14.469299,-29.849854,,,,,,
1478503422.61,-0.648659,0.823594,-1.961513,-0.091687,0.320253,-0.041450,-0.410552,-0.733593,-0.541561,0.232879,-0.009968,0.340068,-19.881897,-14.168518,-30.373901,,,,,,
1478503422.63,-0.641468,0.825882,-1.965745,0.074133,0.120241,-0.264843,-0.405642,-0.735146,-0.543153,0.251146,-0.026893,0.305513,-19.657654,-14.093018,-30.822144,,,,,,
1478503422.65,-0.638059,0.834236,-1.972005,0.288912,-0.168096,-0.530413,-0.400116,-0.740783,-0.539581,0.242340,-0.015671,0.257400,-19.883240,-14.468079,-30.673706,,,,,,
1478503422.67,-0.636674,0.849564,-1.983142,0.468129,-0.469939,-0.908995,-0.392571,-0.750993,-0.530941,0.202736,-0.059676,0.240734,-19.883240,-14.468079,-30.673706,,,,,,
1478503422.69,-0.636697,0.873919,-2.001856,0.725683,-0.878083,-1.438144,-0.381593,-0.766850,-0.516069,0.145982,-0.298015,0.235704,-19.737061,-15.892944,-30.821899,,,,,,
1478503422.71,-0.636932,0.910797,-2.031409,1.072282,-1.335195,-2.094468,-0.364640,-0.789993,-0.492899,0.085358,-0.608735,0.233316,-19.438538,-16.643433,-30.594360,,,,,,
1478503422.73,-0.636680,0.958112,-2.069202,1.305540,-1.595873,-2.403623,-0.341893,-0.818107,-0.462395,0.068944,-0.636040,0.172783,-19.516357,-18.294373,-29.919067,,,,,,
1478503422.75,-0.635968,1.006918,-2.110077,1.268428,-1.711773,-2.325942,-0.317451,-0.845189,-0.429978,0.153968,-0.286601,0.096344,-19.668091,-20.021240,-28.644287,,,,,,
1478503422.77,-0.635256,1.051185,-2.149719,1.136922,-1.622567,-2.029805,-0.294640,-0.868012,-0.399677,0.256081,-0.025192,0.053486,-19.668091,-20.021240,-28.644287,,,,,,
1478503422.79,-0.634924,1.090615,-2.184245,1.095322,-1.467684,-1.764145,-0.273984,-0.886911,-0.371916,0.266385,0.173365,0.038801,-19.748413,-23.774231,-26.618164,,,,,,
1478503422.81,-0.632026,1.128759,-2.218356,1.088593,-1.282652,-1.777237,-0.252725,-0.903882,-0.345148,0.169092,0.199765,0.064539,-20.350220,-25.275391,-25.646851,,,,,,
1478503422.83,-0.610239,1.167300,-2.261251,1.035155,-0.622065,-1.891373,-0.225005,-0.919694,-0.321770,0.042800,-0.014114,0.161599,-19.826599,-26.852539,-24.367065,,,,,,
1478503422.85,-0.560529,1.205234,-2.317997,0.963868,0.161856,-1.978118,-0.190046,-0.933923,-0.302772,-0.074648,-0.204917,0.198905,-18.405212,-29.630737,-22.705078,,,,,,
1478503422.87,-0.480159,1.241145,-2.389995,0.934786,0.746613,-1.940846,-0.149529,-0.946155,-0.287108,-0.164329,-0.310406,0.201323,-18.405212,-29.630737,-22.705078,,,,,,
1478503422.89,-0.390245,1.273921,-2.473340,0.954129,0.414622,-1.812494,-0.111284,-0.956255,-0.270539,-0.115065,-0.252775,0.033921,-17.282593,-30.756653,-22.471069,,,,,,
1478503422.91,-0.295713,1.303495,-2.564821,0.979181,0.277084,-1.636505,-0.076973,-0.964487,-0.252665,-0.082726,-0.174475,-0.031408,-15.259338,-31.808289,-22.080444,,,,,,
1478503422.93,-0.197441,1.329400,-2.662542,0.945693,0.155681,-1.459797,-0.046894,-0.971005,-0.234414,-0.131314,-0.089862,-0.069739,-13.911743,-32.934265,-21.844604,,,,,,
1478503422.95,-0.089013,1.351232,-2.770580,0.889797,0.209887,-1.349479,-0.019362,-0.975993,-0.216942,-0.203630,-0.012975,-0.060127,-12.339294,-35.037109,-20.481812,,,,,,
1478503422.97,0.031671,1.368868,-2.887193,0.834674,0.452298,-1.257536,0.006351,-0.979682,-0.200458,-0.278995,0.025458,-0.036160,-12.339294,-35.037109,-20.481812,,,,,,
1478503422.99,0.176729,1.382470,-3.021651,0.808957,0.770206,-1.226226,0.032914,-0.982319,-0.184299,-0.331346,0.021381,-0.032040,-11.141357,-36.012939,-20.322388,,,,,,
1478503423.01,0.339090,1.391560,3.114486,0.768817,0.939305,-1.186252,0.059301,-0.983980,-0.168127,-0.368245,-0.008970,-0.060328,-9.867432,-36.839417,-19.787476,,,,,,
1478503423.03,0.500745,1.395732,2.967556,0.695744,0.739388,-1.026674,0.083616,-0.984715,-0.152788,-0.399122,-0.058116,-0.118712,-8.517883,-37.215393,-19.552124,,,,,,
1478503423.05,0.644691,1.396266,2.839843,0.593450,1.017980,-0.866921,0.104353,-0.984808,-0.138793,-0.408033,-0.057840,-0.068925,-6.869446,-38.342163,-18.939209,,,,,,
1478503423.07,0.765016,1.393899,2.738037,0.421455,1.154348,-0.713721,0.121872,-0.984394,-0.126944,-0.420182,-0.021602,-0.108453,-6.869446,-38.342163,-18.939209,,,,,,
1478503423.09,0.884615,1.388414,2.653230,0.337449,1.890233,-0.667400,0.140323,-0.983414,-0.114916,-0.459369,0.038789,-0.063368,-5.145935,-39.018188,-18.850952,,,,,,
1478503423.11,0.967851,1.383461,2.600342,0.204049,1.434057,-0.373637,0.153401,-0.982504,-0.105612,-0.407582,0.084295,-0.142374,-4.097229,-39.694031,-18.617798,,,,,,
1478503423.13,1.018694,1.382301,2.578230,0.101006,1.498657,-0.043242,0.159541,-0.982287,-0.098277,-0.290400,0.114642,-0.093480,-2.523071,-40.069885,-18.605835,,,,,,
1478503423.15,1.040468,1.385169,2.583016,-0.003084,1.196543,0.249383,0.159211,-0.982821,-0.093355,-0.284074,0.136812,-0.151579,-1.024658,-40.520264,-18.819336,,,,,,
1478503423.17,1.034406,1.390908,2.610113,-0.106295,0.964773,0.440779,0.153792,-0.983864,-0.091434,-0.304335,0.106026,-0.119671,-1.024658,-40.520264,-18.819336,,,,,,
1478503423.19,1.004695,1.398266,2.658910,-0.211852,0.924428,0.603128,0.144894,-0.985153,-0.092078,-0.334729,0.087616,-0.088388,-1.023987,-40.445618,-18.594360,,,,,,
1478503423.21,0.953293,1.406893,2.730566,-0.281764,0.991377,0.747414,0.133037,-0.986598,-0.094476,-0.366649,0.054149,-0.054801,-0.574951,-40.670654,-18.740845,,,,,,
1478503423.23,0.881614,1.416099,2.823235,-0.316465,1.010434,0.855774,0.118915,-0.988058,-0.097981,-0.361072,-0.049860,-0.038173,-0.800842,-40.669861,-19.192505,,,,,,
1478503423.25,0.794123,1.425315,2.933276,-0.297276,1.101716,0.904707,0.103399,-0.989436,-0.101610,-0.364858,-0.223943,-0.006926,-1.252197,-40.743713,-19.795898,,,,,,
1478503423.27,0.693843,1.432135,3.057070,-0.405616,1.129772,0.868941,0.088390,-0.990402,-0.106261,-0.425334,-0.529847,0.000182,-1.252197,-40.743713,-19.795898,,,,,,
1478503423.29,0.558465,1.433291,-3.066666,-0.735552,1.119964,0.985290,0.072633,-0.990561,-0.116247,-0.386231,-0.704462,0.008032,-1.476685,-40.668823,-19.647583,,,,,,
1478503423.31,0.371161,1.427115,-2.856804,-1.032224,0.969359,1.324529,0.051934,-0.989696,-0.133438,-0.181832,-0.427434,0.053985,-2.003662,-40.667114,-20.626465,,,,,,
1478503423.33,0.153922,1.413719,-2.620548,-1.125716,0.735169,1.663947,0.023983,-0.987689,-0.154583,-0.084698,-0.112256,0.101101,-1.703674,-40.366699,-20.999390,,,,,,
1478503423.35,-0.054797,1.393932,-2.393801,-1.045121,0.808848,1.934661,-0.009636,-0.984400,-0.175680,-0.073204,-0.001730,0.169927,-3.130310,-39.688477,-22.660400,,,,,,
1478503423.37,-0.226027,1.368925,-2.200188,-1.000642,1.076576,1.956852,-0.044934,-0.979693,-0.195403,-0.121845,-0.029371,0.191008,-3.130310,-39.688477,-22.660400,,,,,,
1478503423.39,-0.337003,1.339683,-2.060182,-0.973716,1.487142,1.798829,-0.075742,-0.973412,-0.216177,-0.167010,-0.102790,0.248983,-4.255859,-39.011169,-23.794189,,,,,,
1478503423.41,-0.397083,1.310112,-1.959286,-0.918100,2.143239,1.619300,-0.099676,-0.966214,-0.237688,-0.208948,-0.156452,0.268617,-5.380920,-38.409546,-24.552856,,,,,,
1478503423.43,-0.422531,1.281454,-1.884674,-0.948736,2.231866,1.457193,-0.117002,-0.958432,-0.260229,-0.232974,-0.191715,0.139273,-5.455688,-37.733337,-25.303833,,,,,,
1478503423.45,-0.439802,1.252495,-1.823025,-0.984457,2.087378,1.466798,-0.133243,-0.949768,-0.283172,-0.119809,-0.250366,0.230651,-4.932007,-36.455200,-27.550537,,,,,,
1478503423.47,-0.441588,1.219991,-1.766139,-1.152158,2.825488,1.610589,-0.146869,-0.939096,-0.310689,-0.044415,-0.349692,0.351171,-4.932007,-36.455200,-27.550537,,,,,,
1478503423.49,-0.442813,1.183697,-1.714405,-1.281941,1.984942,1.621800,-0.161754,-0.926008,-0.341094,0.031627,-0.230181,0.285033,-4.707764,-35.853638,-28.674194,,,,,,
1478503423.51,-0.447573,1.147034,-1.669169,-1.271620,1.880729,1.616693,-0.177956,-0.911548,-0.370690,0.169411,-0.179669,0.442529,-4.031982,-35.028015,-29.344604,,,,,,
1478503423.53,-0.455234,1.109724,-1.625120,-1.278350,1.343697,1.711150,-0.195614,-0.895576,-0.399598,0.158504,-0.081993,0.366136,-3.881592,-33.149902,-31.444336,,,,,,
1478503423.55,-0.471763,1.071820,-1.582552,-1.254224,0.982100,1.739510,-0.217470,-0.878073,-0.426257,0.203707,-0.046717,0.432086,-3.806152,-32.323730,-32.269165,,,,,,
1478503423.57,-0.490600,1.034070,-1.544466,-1.239761,0.500497,1.712646,-0.240914,-0.859387,-0.451015,0.187401,-0.052356,0.397990,-3.806152,-32.323730,-32.269165,,,,,,
1478503423.59,-0.514666,0.996667,-1.510021,-1.190692,0.190986,1.699548,-0.267340,-0.839666,-0.472748,0.179342,-0.093974,0.445649,-4.031128,-31.497009,-33.321411,,,,,,
1478503423.61,-0.538702,0.960463,-1.479857,-1.121764,-0.067415,1.605580,-0.294034,-0.819457,-0.491970,0.155195,-0.119310,0.448986,-5.154419,-30.145264,-34.155396,,,,,,
1478503423.63,-0.562406,0.926631,-1.455215,-1.044621,-0.214108,1.452939,-0.320217,-0.799602,-0.508034,0.149852,-0.136571,0.471581,-6.277649,-28.417664,-35.439697,,,,,,
1478503423.65,-0.582471,0.895000,-1.435833,-0.994958,-0.262938,1.320224,-0.344091,-0.780209,-0.522375,0.165212,-0.135990,0.467977,-7.400757,-27.066040,-36.198730,,,,,,
1478503423.67,-0.600260,0.865502,-1.419576,-0.903759,-0.248181,1.224898,-0.366173,-0.761421,-0.534935,0.200157,-0.102486,0.468636,-7.400757,-27.066040,-36.198730,,,,,,
1478503423.69,-0.615695,0.839149,-1.405456,-0.767602,-0.249439,1.086199,-0.385843,-0.744075,-0.545415,0.224374,-0.067037,0.452871,-8.299194,-26.240173,-36.430908,,,,,,
1478503423.71,-0.629088,0.816872,-1.393839,-0.631098,-0.231483,0.902764,-0.402768,-0.729008,-0.553466,0.240826,-0.043895,0.440124,-9.122559,-25.339355,-36.737549,,,,,,
1478503423.73,-0.639923,0.798906,-1.384999,-0.489288,-0.223109,0.717243,-0.416496,-0.716594,-0.559486,0.258430,-0.034184,0.428688,-10.470703,-24.062622,-37.423340,,,,,,
1478503423.75,-0.649454,0.785948,-1.377531,-0.278178,-0.211757,0.524647,-0.427389,-0.707496,-0.562840,0.253103,-0.021676,0.381550,-10.545044,-23.311707,-38.024292,,,,,,
1478503423.77,-0.657885,0.779879,-1.372950,-0.074924,-0.304276,0.167168,-0.434737,-0.703193,-0.562604,0.221663,-0.050988,0.357083,-10.545044,-23.311707,-38.024292,,,,,,
1478503423.79,-0.664753,0.782609,-1.374538,0.193862,-0.473322,-0.320767,-0.437404,-0.705132,-0.558092,0.183635,-0.168907,0.342287,-11.143616,-22.786499,-37.953979,,,,,,
1478503423.81,-0.672394,0.798785,-1.382768,0.620941,-0.831755,-1.015121,-0.434494,-0.716509,-0.545738,0.104660,-0.402860,0.301979,-11.817810,-22.561401,-37.809204,,,,,,
1478503423.83,-0.680807,0.830387,-1.400487,0.985174,-1.181486,-1.705576,-0.424601,-0.738193,-0.524200,0.093103,-0.487347,0.255722,-11.819336,-23.912720,-36.908569,,,,,,
1478503423.85,-0.688708,0.871803,-1.423866,1.178288,-1.346351,-2.015098,-0.408937,-0.765490,-0.496785,0.127168,-0.327451,0.168141,-11.520569,-24.888794,-36.305908,,,,,,
1478503423.87,-0.696618,0.916520,-1.451625,1.157045,-1.559744,-2.144758,-0.390485,-0.793488,-0.466795,0.202070,-0.142150,0.103987,-11.520569,-24.888794,-36.305908,,,,,,
1478503423.89,-0.704011,0.960803,-1.481201,1.136365,-1.552367,-2.070368,-0.370802,-0.819652,-0.436665,0.272353,0.033672,0.071767,-11.897888,-26.389648,-35.632935,,,,,,
1478503423.91,-0.710152,1.004453,-1.509481,1.170544,-1.452616,-2.028817,-0.349803,-0.843869,-0.406846,0.243495,0.172924,0.063019,-11.973999,-27.816467,-34.357788,,,,,,
1478503423.93,-0.707742,1.049039,-1.541827,1.124562,-1.105672,-2.147757,-0.324022,-0.866945,-0.378703,0.160006,0.139528,0.103359,-11.975830,-30.294739,-32.181519,,,,,,
1478503423.95,-0.685146,1.092312,-1.582707,0.971429,-0.389709,-2.131592,-0.291356,-0.887694,-0.356527,0.098958,-0.042467,0.178304,-11.377258,-31.646545,-31.201294,,,,,,
1478503423.97,-0.643070,1.131028,-1.630508,0.823133,0.112318,-1.986270,-0.255291,-0.904850,-0.340694,0.082104,-0.215282,0.186184,-11.377258,-31.646545,-31.201294,,,,,,
1478503423.99,-0.591070,1.165335,-1.683783,0.750995,0.155881,-1.839832,-0.219803,-0.918921,-0.327523,0.115341,-0.275431,0.153161,-10.478638,-32.998413,-30.218872,,,,,,
1478503424.01,-0.538923,1.195955,-1.740091,0.707408,-0.120699,-1.668266,-0.187900,-0.930566,-0.314231,0.143771,-0.220924,0.090186,-9.131409,-34.274475,-29.983154,,,,,,
1478503424.03,-0.492996,1.222603,-1.797694,0.632173,-0.591752,-1.484868,-0.161479,-0.939991,-0.300569,0.110499,-0.127270,0.030443,-6.883545,-35.927063,-28.990479,,,,,,
1478503424.05,-0.455251,1.245822,-1.855623,0.591531,-0.977808,-1.334409,-0.140386,-0.947659,-0.286766,0.049611,-0.095813,0.016533,-6.058960,-36.453186,-28.534058,,,,,,
1478503424.07,-0.423309,1.266893,-1.914647,0.560069,-1.324410,-1.266991,-0.122925,-0.954176,-0.272834,-0.041641,-0.049685,-0.009927,-6.058960,-36.453186,-28.534058,,,,,,
1478503424.09,-0.390588,1.286723,-1.978447,0.545490,-1.479635,-1.237029,-0.106707,-0.959922,-0.259159,-0.124265,-0.047387,-0.003292,-5.533752,-36.678955,-28.154907,,,,,,
1478503424.11,-0.361587,1.305102,-2.044761,0.518378,-1.783742,-1.160071,-0.092890,-0.964910,-0.245600,-0.222006,-0.059122,-0.046590,-5.909058,-37.580261,-27.182373,,,,,,
1478503424.13,-0.318672,1.322075,-2.118979,0.467349,-1.260396,-1.225017,-0.077125,-0.969228,-0.233771,-0.303231,-0.080882,0.036215,-5.308472,-37.956726,-26.427734,,,,,,
1478503424.15,-0.244868,1.337185,-2.214060,0.382383,-0.828235,-1.365591,-0.056120,-0.972837,-0.224587,-0.408494,-0.092028,0.024407,-5.233398,-38.182190,-26.127075,,,,,,
1478503424.17,-0.140171,1.349385,-2.329222,0.347609,-0.144487,-1.384919,-0.030682,-0.975589,-0.217453,-0.448826,-0.079389,0.064361,-5.233398,-38.182190,-26.127075,,,,,,
1478503424.19,-0.029012,1.358633,-2.443574,0.364950,-0.020497,-1.192338,-0.006108,-0.977578,-0.210486,-0.385737,-0.036643,-0.041879,-4.557800,-38.633911,-25.221680,,,,,,
1478503424.21,0.068414,1.365189,-2.544710,0.334408,-0.114366,-0.960302,0.013957,-0.978937,-0.203684,-0.333277,0.017328,-0.075155,-3.584473,-39.384521,-25.138916,,,,,,
1478503424.23,0.144034,1.368976,-2.625945,0.246928,-0.297401,-0.701831,0.028772,-0.979703,-0.198377,-0.334650,0.082532,-0.112032,-1.784546,-39.610840,-24.900391,,,,,,
1478503424.25,0.190507,1.371194,-2.682515,0.179635,-0.514503,-0.453842,0.037546,-0.980146,-0.194692,-0.366311,0.145932,-0.103251,-1.783752,-39.761658,-24.300293,,,,,,
1478503424.27,0.217626,1.372534,-2.719826,0.121377,-0.436989,-0.293541,0.042527,-0.980410,-0.192320,-0.439210,0.163958,-0.062334,-1.783752,-39.761658,-24.300293,,,,,,
1478503424.29,0.231368,1.373292,-2.742329,0.068584,-0.377546,-0.164063,0.044996,-0.980559,-0.190994,-0.499982,0.135924,-0.033554,-1.633850,-39.686523,-24.449219,,,,,,
1478503424.31,0.243704,1.373185,-2.753474,-0.001704,0.400742,-0.073023,0.047374,-0.980538,-0.190526,-0.528498,0.091805,0.081487,-2.384033,-39.986633,-24.154663,,,,,,
1478503424.33,0.275113,1.371125,-2.760304,-0.141460,1.737693,-0.145018,0.053882,-0.980132,-0.190888,-0.546222,0.008483,0.119080,-1.408752,-39.836975,-24.222534,,,,,,
1478503424.35,0.329572,1.367885,-2.775139,-0.075942,1.890573,-0.144891,0.065220,-0.979484,-0.190676,-0.586552,-0.144036,0.007128,-0.285583,-40.286987,-24.588867,,,,,,
1478503424.37,0.366121,1.366381,-2.773389,-0.058197,1.913477,0.096813,0.072671,-0.979180,-0.189541,-0.513482,-0.431007,0.073284,-0.285583,-40.286987,-24.588867,,,,,,
1478503424.39,0.365422,1.366359,-2.736817,-0.213711,1.738898,0.507121,0.072547,-0.979175,-0.189612,-0.421652,-0.703243,0.039236,-0.961182,-40.436523,-24.668823,,,,,,
1478503424.41,0.313116,1.364748,-2.651223,-0.481976,1.426360,0.983018,0.063020,-0.978847,-0.194646,-0.342301,-0.752598,0.019597,1.813599,-40.437683,-24.797974,,,,,,
1478503424.43,0.200002,1.359147,-2.512848,-0.722383,0.973280,1.525282,0.041735,-0.977686,-0.205885,-0.219775,-0.516394,0.045134,1.813599,-40.137146,-25.173096,,,,,,
1478503424.45,0.048752,1.347802,-2.339273,-0.817770,0.938835,1.938900,0.010777,-0.975240,-0.220888,-0.127156,-0.149577,0.127977,1.812866,-40.136597,-25.548218,,,,,,
1478503424.47,-0.099108,1.331395,-2.163751,-0.727723,1.327428,2.066544,-0.023462,-0.971480,-0.235958,-0.152319,0.050185,0.221264,1.812866,-40.136597,-25.548218,,,,,,
1478503424.49,-0.212055,1.312090,-2.012022,-0.633129,1.994957,1.963855,-0.053844,-0.966722,-0.250100,-0.222034,0.072282,0.275918,0.388550,-39.535339,-25.934204,,,,,,
1478503424.51,-0.282182,1.290954,-1.887858,-0.625139,2.785120,1.809409,-0.076910,-0.961099,-0.265280,-0.248865,0.027932,0.325705,-0.737305,-38.482178,-27.668091,,,,,,
1478503424.53,-0.314090,1.268795,-1.788764,-0.652768,3.401085,1.631612,-0.091892,-0.954743,-0.282881,-0.243832,-0.062576,0.349165,-0.287048,-38.106812,-28.039917,,,,,,
1478503424.55,-0.320377,1.245949,-1.707381,-0.725931,3.625822,1.531870,-0.100513,-0.947699,-0.302924,-0.220380,-0.180307,0.322883,0.388855,-37.431580,-28.410156,,,,,,
1478503424.57,-0.318844,1.221423,-1.632964,-0.824522,3.568623,1.593156,-0.107303,-0.939587,-0.325056,-0.163662,-0.242130,0.324705,0.388855,-37.431580,-28.410156,,,,,,
1478503424.59,-0.315639,1.194876,-1.560746,-0.898411,3.580437,1.660860,-0.113966,-0.930170,-0.348992,-0.074252,-0.255789,0.376244,1.438477,-37.056091,-29.077515,,,,,,
1478503424.61,-0.306768,1.166979,-1.493885,-0.955461,3.638109,1.616815,-0.118657,-0.919568,-0.374587,0.008458,-0.197894,0.445586,4.138672,-36.155884,-30.107666,,,,,,
1478503424.63,-0.291256,1.138779,-1.437565,-1.126120,2.690615,1.460838,-0.120233,-0.908123,-0.401070,-0.001868,-0.079945,0.008690,5.413025,-36.005798,-30.623169,,,,,,
1478503424.65,-0.309392,1.107581,-1.386031,-1.152272,1.211658,1.578976,-0.136050,-0.894621,-0.425611,0.191851,-0.127611,0.407788,6.613647,-35.255493,-31.214600,,,,,,
1478503424.67,-0.324562,1.075553,-1.333348,-1.152401,1.727038,1.717640,-0.151553,-0.879853,-0.450434,0.141543,-0.175918,0.421213,6.613647,-35.255493,-31.214600,,,,,,
1478503424.69,-0.347186,1.042427,-1.283979,-1.185231,0.468478,1.664022,-0.171530,-0.863630,-0.474046,0.027747,-0.090456,0.341920,6.764282,-34.128845,-32.338989,,,,,,
1478503424.71,-0.378028,1.009213,-1.242567,-1.166097,0.326084,1.590894,-0.196550,-0.846413,-0.494927,0.125398,-0.144157,0.556817,6.240173,-33.152527,-33.093506,,,,,,
1478503424.73,-0.403681,0.975362,-1.203478,-1.166942,0.238756,1.677247,-0.220313,-0.827905,-0.515786,0.093177,-0.171149,0.477838,4.965027,-32.550537,-33.928467,,,,,,
1478503424.75,-0.432367,0.940963,-1.166111,-1.126938,0.106792,1.679796,-0.246808,-0.808126,-0.534807,0.145230,-0.160579,0.531542,4.590637,-31.724304,-34.681641,,,,,,
1478503424.77,-0.457889,0.907281,-1.132398,-1.064335,-0.023057,1.647339,-0.272258,-0.787832,-0.552446,0.170482,-0.118189,0.472063,4.590637,-31.724304,-34.681641,,,,,,
1478503424.79,-0.485669,0.874545,-1.100133,-0.963587,-0.135032,1.657643,-0.299381,-0.767252,-0.567183,0.192340,-0.087210,0.480391,3.242065,-30.146790,-35.892456,,,,,,
1478503424.81,-0.511347,0.843793,-1.070226,-0.842826,-0.207537,1.556225,-0.325240,-0.747169,-0.579618,0.190337,-0.057473,0.438871,0.992676,-29.319519,-36.659790,,,,,,
1478503424.83,-0.536155,0.816392,-1.044297,-0.701427,-0.291679,1.384682,-0.349847,-0.728680,-0.588755,0.193338,-0.058277,0.438136,0.993591,-28.643982,-37.035034,,,,,,
1478503424.85,-0.557172,0.793048,-1.022728,-0.560527,-0.284320,1.173609,-0.371038,-0.712495,-0.595551,0.186697,-0.072509,0.424989,-0.130432,-28.043030,-37.268799,,,,,,
1478503424.87,-0.575292,0.774321,-1.005006,-0.385482,-0.261124,0.962701,-0.388961,-0.699231,-0.599822,0.190184,-0.069385,0.424910,-0.130432,-28.043030,-37.268799,,,,,,
1478503424.89,-0.590487,0.761494,-0.989513,-0.128169,-0.214762,0.726661,-0.402990,-0.690004,-0.601244,0.195562,-0.057143,0.391222,-2.679199,-27.065796,-37.888306,,,,,,
1478503424.91,-0.602219,0.756443,-0.978513,0.079091,-0.207228,0.295602,-0.411985,-0.686339,-0.599339,0.166212,-0.063615,0.333393,-2.003052,-26.841675,-37.583496,,,,,,
1478503424.93,-0.607257,0.758679,-0.977992,0.107902,-0.260569,-0.253440,-0.414122,-0.687963,-0.595994,0.160750,-0.086527,0.284806,-2.453125,-26.540710,-38.036865,,,,,,
1478503424.95,-0.607193,0.768367,-0.987938,0.287415,-0.420769,-0.770621,-0.410262,-0.694962,-0.590519,0.165313,-0.163497,0.286091,-2.677734,-26.691162,-37.663574,,,,,,
1478503424.97,-0.608523,0.790734,-1.005356,0.758558,-0.874063,-1.409235,-0.402059,-0.710870,-0.577072,0.105505,-0.340323,0.280533,-2.677734,-26.691162,-37.663574,,,,,,
1478503424.99,-0.613265,0.828703,-1.031309,1.192433,-1.345287,-2.060800,-0.388969,-0.737055,-0.552678,0.060020,-0.532537,0.249730,-2.454651,-27.741821,-37.286377,,,,,,
1478503425.01,-0.618048,0.875136,-1.064204,1.287981,-1.538688,-2.286719,-0.371362,-0.767631,-0.522335,0.116281,-0.455193,0.170681,-2.755066,-28.643066,-36.388184,,,,,,
,,,,,,,,,,,,,,,,37.391947,-122.011798,10.474915,0.620000,301.640625,1478503124.00
1478503425.03,-0.621747,0.920872,-1.099405,1.195556,-1.582164,-2.181775,-0.352459,-0.796130,-0.491884,0.223904,-0.144849,0.071535,-2.531677,-29.769104,-35.785889,,,,,,
1478503425.05,-0.625587,0.963509,-1.133015,1.148777,-1.531307,-1.997951,-0.334153,-0.821199,-0.462574,0.263657,0.236467,0.023883,-2.232544,-30.895691,-34.808105,,,,,,
1478503425.07,-0.625265,1.004922,-1.166416,1.140136,-1.253805,-1.994163,-0.313818,-0.844120,-0.434718,0.178869,0.367069,0.077510,-2.232544,-30.895691,-34.808105,,,,,,
1478503425.09,-0.607645,1.047020,-1.207123,1.092350,-0.585709,-2.156182,-0.285556,-0.865936,-0.410624,0.071902,0.287674,0.152750,-2.534790,-32.997803,-33.309448,,,,,,
1478503425.11,-0.562872,1.088944,-1.258852,1.047985,0.307602,-2.228042,-0.247290,-0.886138,-0.391928,-0.004023,0.028151,0.212820,-1.260010,-33.900024,-32.249268,,,,,,
1478503425.13,-0.492291,1.129030,-1.321062,1.038461,0.956129,-2.216308,-0.202074,-0.903998,-0.376768,-0.043822,-0.204996,0.225797,0.013489,-34.951477,-31.714233,,,,,,
1478503425.15,-0.402492,1.166870,-1.395417,1.066746,1.148442,-2.202607,-0.153955,-0.919525,-0.361623,-0.052710,-0.369171,0.196920,1.588684,-35.553467,-30.877075,,,,,,
1478503425.17,-0.299107,1.201946,-1.482901,1.086300,1.085521,-2.127888,-0.106240,-0.932742,-0.344535,-0.084235,-0.388806,0.123390,1.588684,-35.553467,-30.877075,,,,,,
1478503425.19,-0.186988,1.231917,-1.582235,1.015349,0.852670,-1.985281,-0.061799,-0.943128,-0.326636,-0.112380,-0.273288,0.034659,6.538208,-36.833069,-29.489380,,,,,,
1478503425.21,-0.073605,1.255734,-1.688548,0.940394,0.504897,-1.777586,-0.022788,-0.950777,-0.309037,-0.122201,-0.204802,-0.010177,8.488525,-37.360352,-28.649536,,,,,,
1478503425.23,0.032662,1.274590,-1.795258,0.903274,0.048523,-1.548228,0.009532,-0.956451,-0.291738,-0.137782,-0.141755,-0.047923,9.764832,-37.587341,-27.739868,,,,,,
1478503425.25,0.128595,1.290146,-1.898757,0.886014,-0.262216,-1.346659,0.035520,-0.960876,-0.274693,-0.193769,-0.112779,-0.053615,11.564941,-37.964050,-27.201172,,,,,,
1478503425.27,0.225285,1.302430,-2.004371,0.829548,-0.191937,-1.306625,0.059232,-0.964205,-0.258456,-0.281247,-0.108625,-0.044110,11.564941,-37.964050,-27.201172,,,,,,
1478503425.29,0.331525,1.309785,-2.116079,0.711033,0.023183,-1.312937,0.083994,-0.966130,-0.244005,-0.380487,-0.110531,-0.045576,13.741882,-38.041687,-26.134766,,,,,,
1478503425.31,0.439316,1.311943,-2.226193,0.595733,0.071281,-1.246580,0.108870,-0.966684,-0.231666,-0.448653,-0.093237,-0.086617,14.868408,-38.118530,-25.301270,,,,,,
1478503425.33,0.547117,1.310163,-2.327783,0.531794,0.816611,-1.167164,0.134059,-0.966227,-0.220076,-0.466456,-0.071493,0.004805,14.567749,-38.493591,-25.153198,,,,,,
1478503425.35,0.652220,1.306010,-2.414741,0.417304,0.981463,-0.994531,0.158842,-0.965148,-0.207986,-0.546628,-0.017151,-0.141395,17.945251,-38.497253,-23.852905,,,,,,
1478503425.37,0.730696,1.300559,-2.481238,0.317791,0.678362,-0.752975,0.178166,-0.963708,-0.198808,-0.461689,0.050057,-0.127898,17.945251,-38.497253,-23.852905,,,,,,
1478503425.39,0.794714,1.296780,-2.526433,0.261204,1.154326,-0.466595,0.193118,-0.962692,-0.189552,-0.402911,0.075714,-0.059761,18.996643,-38.348450,-23.395142,,,,,,
1478503425.41,0.841526,1.294337,-2.555144,0.169691,0.859849,-0.306975,0.203529,-0.962028,-0.181875,-0.466835,0.151649,-0.148387,19.972778,-38.500061,-22.637817,,,,,,
1478503425.43,0.880509,1.292554,-2.573663,0.119043,1.212765,-0.187502,0.211784,-0.961540,-0.174896,-0.444450,0.147560,-0.045823,20.575256,-37.976257,-22.033569,,,,,,
1478503425.45,0.916415,1.291517,-2.584388,0.061360,1.311682,-0.107067,0.218718,-0.961254,-0.167787,-0.520521,0.104428,-0.079619,22.076172,-38.278259,-21.197021,,,,,,
1478503425.47,0.951341,1.290912,-2.589464,0.025902,1.654005,-0.037526,0.224917,-0.961087,-0.160385,-0.535936,0.038602,-0.017151,22.076172,-38.278259,-21.197021,,,,,,
1478503425.49,0.985800,1.291423,-2.589470,0.008573,1.747445,0.060170,0.229899,-0.961228,-0.152270,-0.567393,-0.111693,-0.021070,22.827576,-38.204529,-20.591553,,,,,,
1478503425.51,1.016846,1.293537,-2.584441,-0.007723,1.850431,0.168503,0.232787,-0.961809,-0.143991,-0.570342,-0.313093,0.002939,23.653381,-38.431030,-19.910278,,,,,,
1478503425.53,1.042132,1.296994,-2.572866,-0.085246,1.801593,0.272472,0.233480,-0.962750,-0.136381,-0.596899,-0.555240,-0.003023,24.479675,-38.582642,-19.078979,,,,,,
1478503425.55,1.050521,1.301583,-2.544544,-0.318812,1.811532,0.490461,0.230780,-0.963980,-0.132220,-0.580710,-0.762811,0.028140,25.382629,-38.585327,-17.572144,,,,,,
1478503425.57,1.024566,1.309185,-2.480567,-0.666900,1.785278,0.944194,0.221003,-0.965975,-0.134354,-0.522928,-0.736052,0.057572,25.382629,-38.585327,-17.572144,,,,,,
1478503425.59,0.950560,1.321863,-2.367577,-0.935929,1.778710,1.543103,0.200482,-0.969176,-0.143197,-0.376324,-0.404146,0.113977,25.833740,-38.736694,-16.818604,,,,,,
1478503425.61,0.831436,1.337667,-2.207941,-1.004321,1.844117,1.954589,0.170703,-0.972948,-0.155667,-0.273212,-0.094114,0.166699,25.608032,-39.036560,-16.820190,,,,,,
1478503425.63,0.682758,1.351694,-2.015066,-0.963939,2.077618,2.101357,0.137136,-0.976093,-0.168631,-0.264303,0.069873,0.208609,24.707092,-39.636658,-16.526733,,,,,,
1478503425.65,0.521428,1.359875,-1.803154,-0.942332,2.463474,2.098759,0.104287,-0.977838,-0.181539,-0.290810,0.101877,0.232137,23.279663,-40.685974,-16.461792,,,,,,
1478503425.67,0.365230,1.360525,-1.587185,-0.942271,2.972835,2.033050,0.074549,-0.977974,-0.194958,-0.294001,0.066216,0.272534,23.279663,-40.685974,-16.461792,,,,,,
1478503425.69,0.227429,1.353182,-1.384155,-1.006408,3.005146,1.915553,0.048680,-0.976415,-0.210341,-0.300892,-0.038676,0.219084,22.529236,-41.136169,-16.092285,,,,,,
1478503425.71,0.109855,1.338746,-1.201433,-1.087695,3.181926,1.895676,0.025213,-0.973197,-0.228587,-0.261434,-0.231347,0.279597,22.003723,-41.511230,-15.870972,,,,,,
1478503425.73,0.015604,1.317975,-1.038770,-1.210573,3.076011,1.895162,0.003903,-0.968211,-0.250106,-0.255856,-0.343694,0.223586,21.554443,-41.812134,-15.124268,,,,,,
1478503425.75,-0.063230,1.291570,-0.898360,-1.321172,2.797854,1.879011,-0.017415,-0.961269,-0.275061,-0.184641,-0.376194,0.268836,20.878723,-42.036682,-15.204102,,,,,,
1478503425.77,-0.124045,1.260751,-0.779789,-1.412716,2.493049,1.867262,-0.037749,-0.952320,-0.302757,-0.113770,-0.348660,0.288094,20.878723,-42.036682,-15.204102,,,,,,
1478503425.79,-0.175762,1.227128,-0.678915,-1.433296,2.067883,1.853958,-0.058918,-0.941525,-0.331752,-0.048077,-0.279483,0.339168,20.052917,-42.486511,-15.060181,,,,,,
1478503425.81,-0.219507,1.192035,-0.593816,-1.434653,1.618238,1.819507,-0.080517,-0.929124,-0.360897,-0.002094,-0.221572,0.368160,19.151978,-42.861023,-15.066772,,,,,,
1478503425.83,-0.261332,1.155986,-0.519779,-1.406453,1.193912,1.842662,-0.104126,-0.915193,-0.389332,0.030380,-0.168044,0.401875,18.174683,-43.159363,-15.823975,,,,,,
1478503425.85,-0.302511,1.119578,-0.452761,-1.339685,0.864048,1.883982,-0.129911,-0.899916,-0.416261,0.048093,-0.133470,0.430269,16.221985,-42.930969,-17.488770,,,,,,
1478503425.87,-0.343315,1.083196,-0.390774,-1.261860,0.681893,1.943235,-0.157704,-0.883460,-0.441167,0.061635,-0.124155,0.459173,16.221985,-42.930969,-17.488770,,,,,,
1478503425.89,-0.381444,1.046406,-0.332382,-1.208110,0.638009,2.011725,-0.186386,-0.865629,-0.464701,0.085312,-0.115862,0.474619,14.795715,-42.929321,-18.099487,,,,,,
1478503425.91,-0.415499,1.009025,-0.277963,-1.169984,0.627201,2.041757,-0.215017,-0.846313,-0.487363,0.120138,-0.103944,0.472638,13.819397,-42.777466,-18.931885,,,,,,
1478503425.93,-0.445609,0.971661,-0.227999,-1.106272,0.555776,2.034765,-0.243058,-0.825824,-0.508860,0.160279,-0.053510,0.446406,12.767151,-42.850464,-19.989746,,,,,,
1478503425.95,-0.473317,0.935373,-0.181847,-0.996626,0.467245,1.998245,-0.270550,-0.804820,-0.528267,0.172360,-0.033894,0.434975,9.914612,-42.471375,-21.736206,,,,,,
1478503425.97,-0.498460,0.901192,-0.139916,-0.881197,0.379886,1.889368,-0.296729,-0.784067,-0.545152,0.173209,-0.022360,0.421159,9.914612,-42.471375,-21.736206,,,,,,
1478503425.99,-0.519378,0.869719,-0.104009,-0.794920,0.329986,1.692986,-0.320160,-0.764148,-0.559978,0.176834,-0.016003,0.411068,7.739380,-42.319824,-22.052612,,,,,,
1478503426.01,-0.535612,0.841433,-0.074810,-0.712739,0.266340,1.462538,-0.340107,-0.745599,-0.573070,0.192462,-0.013694,0.407253,6.764282,-41.868408,-22.660156,,,,,,
1478503426.03,-0.548910,0.817175,-0.051173,-0.571019,0.167418,1.231407,-0.357030,-0.729215,-0.583759,0.210729,-0.008700,0.396167,4.739563,-40.890747,-23.725830,,,,,,
1478503426.05,-0.561527,0.798935,-0.031947,-0.337466,-0.009273,0.922126,-0.371389,-0.716614,-0.590369,0.207784,-0.009934,0.356498,4.063049,-40.964478,-24.405884,,,,,,
1478503426.07,-0.573413,0.789278,-0.020000,-0.089114,-0.277082,0.409745,-0.382116,-0.709845,-0.591699,0.175741,-0.029306,0.325982,4.063049,-40.964478,-24.405884,,,,,,
1478503426.09,-0.584867,0.791400,-0.017827,0.288694,-0.653487,-0.251853,-0.388035,-0.711338,-0.586026,0.131596,-0.128918,0.303922,3.237793,-40.813538,-24.712036,,,,,,
1478503426.11,-0.598632,0.809604,-0.025665,0.802073,-1.181069,-1.042345,-0.388703,-0.724014,-0.569836,0.074372,-0.322006,0.263684,2.562927,-40.813293,-24.642090,,,,,,
1478503426.13,-0.614464,0.844635,-0.043159,1.274851,-1.570482,-1.736402,-0.382812,-0.747729,-0.542546,0.066436,-0.431196,0.223012,3.163208,-41.490112,-23.662354,,,,,,
1478503426.15,-0.629338,0.890822,-0.067731,1.462017,-1.749008,-2.124708,-0.370102,-0.777589,-0.508311,0.102951,-0.325103,0.132792,3.688721,-41.941589,-22.833130,,,,,,
1478503426.17,-0.640192,0.939141,-0.098098,1.354935,-1.730460,-2.196646,-0.352724,-0.807051,-0.473555,0.206148,-0.089113,0.052931,3.688721,-41.941589,-22.833130,,,,,,
1478503426.19,-0.646092,0.984811,-0.130160,1.257762,-1.556028,-2.062254,-0.332957,-0.833168,-0.441555,0.276317,0.136207,0.008770,4.514038,-42.768860,-21.626587,,,,,,
1478503426.21,-0.648070,1.028829,-0.162354,1.244254,-1.418878,-2.040182,-0.311375,-0.856696,-0.411240,0.257298,0.303473,0.025909,5.640991,-42.921143,-20.493042,,,,,,
1478503426.23,-0.639162,1.074011,-0.201296,1.221898,-1.114440,-2.213217,-0.284304,-0.879119,-0.382519,0.197451,0.290679,0.081265,7.442627,-43.749878,-18.604126,,,,,,
1478503426.25,-0.609463,1.119398,-0.251721,1.138123,-0.534617,-2.291204,-0.249707,-0.899838,-0.357684,0.134427,0.055462,0.154254,9.168518,-43.826538,-18.066162,,,,,,
1478503426.27,-0.556642,1.161571,-0.313661,1.005335,-0.001672,-2.223552,-0.210225,-0.917429,-0.337830,0.072881,-0.213690,0.181855,9.168518,-43.826538,-18.066162,,,,,,
1478503426.29,-0.487787,1.199386,-0.386108,0.938853,0.089731,-2.101650,-0.170095,-0.931816,-0.320602,0.068395,-0.352302,0.163773,10.670166,-43.978760,-17.079712,,,,,,
1478503426.31,-0.413289,1.233376,-0.466436,0.929640,-0.145458,-1.952312,-0.132959,-0.943612,-0.303181,0.086588,-0.328803,0.096135,12.245789,-44.280518,-16.392700,,,,,,
1478503426.33,-0.337085,1.264374,-0.554192,0.944708,-0.479563,-1.822916,-0.099767,-0.953419,-0.284674,0.047231,-0.226070,0.021658,16.000427,-44.060547,-14.339844,,,,,,
1478503426.35,-0.257153,1.292566,-0.650631,0.943288,-0.687068,-1.711900,-0.069852,-0.961543,-0.265623,-0.074191,-0.138555,-0.024263,17.575684,-43.836060,-14.478027,,,,,,
1478503426.37,-0.167889,1.317486,-0.758583,0.910327,-0.823193,-1.627778,-0.041877,-0.968088,-0.247086,-0.145760,-0.099890,-0.064635,17.575684,-43.836060,-14.478027,,,,,,
1478503426.39,-0.069078,1.338636,-0.880027,0.864602,-0.987947,-1.562844,-0.015881,-0.973172,-0.229531,-0.185383,-0.096088,-0.060950,18.702332,-43.687561,-13.869629,,,,,,
1478503426.41,0.047732,1.355814,-1.018358,0.844700,-0.866708,-1.549300,0.010179,-0.976980,-0.213087,-0.270448,-0.103861,-0.043535,19.380127,-43.164001,-13.114868,,,,,,
1478503426.43,0.186884,1.368175,-1.176702,0.785667,-0.753759,-1.585989,0.037390,-0.979542,-0.197734,-0.351217,-0.099742,-0.066930,21.933472,-42.491577,-12.271118,,,,,,
1478503426.45,0.338137,1.374908,-1.348323,0.746922,-0.786670,-1.541443,0.064567,-0.980875,-0.183616,-0.388267,-0.126241,-0.018944,22.835144,-42.192749,-11.814453,,,,,,
1478503426.47,0.508134,1.374592,-1.524063,0.658644,0.088662,-1.585840,0.094852,-0.980814,-0.170317,-0.459125,-0.092749,-0.037278,22.835144,-42.192749,-11.814453,,,,,,
1478503426.49,0.672223,1.367964,-1.689023,0.624316,0.151369,-1.512674,0.125445,-0.979500,-0.157618,-0.468279,-0.068291,-0.060888,23.961914,-41.518311,-11.806274,,,,,,
1478503426.51,0.815455,1.357106,-1.829476,0.584256,0.213980,-1.374604,0.154394,-0.977255,-0.145381,-0.424306,-0.005274,-0.121892,25.239746,-40.844849,-11.197144,,,,,,
1478503426.53,0.918935,1.345796,-1.940088,0.536874,-0.383811,-1.116345,0.177360,-0.974794,-0.135351,-0.368033,0.035997,-0.174112,27.494324,-39.947693,-10.055664,,,,,,
1478503426.55,0.990842,1.335757,-2.024557,0.480752,-0.530705,-0.912046,0.194803,-0.972505,-0.127616,-0.384134,0.113542,-0.140756,28.170349,-39.422791,-10.200928,,,,,,
1478503426.57,1.037162,1.326973,-2.090356,0.405430,-1.013466,-0.721180,0.207849,-0.970422,-0.122799,-0.499963,0.146417,-0.194004,28.170349,-39.422791,-10.200928,,,,,,
1478503426.59,1.084561,1.316779,-2.142362,0.255666,0.915889,-0.905905,0.222169,-0.967911,-0.117430,-0.541627,0.198273,0.110228,28.920410,-39.273010,-10.345337,,,,,,
