timestamp(unix),attitude_roll(radians),attitude_pitch(radians),attitude_yaw(radians),rotation_rate_x(radians/s),rotation_rate_y(radians/s),rotation_rate_z(radians/s),gravity_x(G),gravity_y(G),gravity_z(G),user_acc_x(G),user_acc_y(G),user_acc_z(G),magnetic_field_x(microteslas),magnetic_field_y(microteslas),magnetic_field_z(microteslas),latitude(degree),longitude(degree),altitude(meter),speed(m/s),course(degree),timestamp(unix)
1478503162.15,-0.848242,1.472519,-1.488509,0.037603,-0.029965,-0.027669,-0.073601,-0.995175,-0.064887,-0.015953,0.003857,0.001624,-6.600769,-35.880127,-23.566284,,,,,,
1478503162.17,-0.851613,1.473502,-1.485545,0.040934,-0.016130,-0.041509,-0.073083,-0.995271,-0.063993,-0.001166,0.003327,0.002226,-6.600769,-35.880127,-23.566284,,,,,,
,,,,,,,,,,,,,,,,37.391947,-122.011798,10.474915,0.620000,301.640625,1478503124.00
,,,,,,,,,,,,,,,,37.391947,-122.011798,10.474915,0.620000,301.640625,1478503116.00
,,,,,,,,,,,,,,,,37.391947,-122.011798,10.474915,0.620000,301.640625,1478503124.00
1478503162.19,-0.850116,1.474611,-1.487260,0.029264,-0.002272,-0.041595,-0.072158,-0.995378,-0.063375,-0.000794,-0.001342,-0.003199,-6.449402,-35.730957,-23.040283,,,,,,
1478503162.21,-0.848444,1.475367,-1.488536,0.014348,0.027515,-0.024690,-0.071487,-0.995450,-0.062997,0.001892,-0.000476,-0.002402,-6.001038,-36.105591,-23.411621,,,,,,
,,,,,,,,,,,,,,,,37.392065,-122.011684,10.474915,-1.000000,-1.000000,1478503162.20
,,,,,,,,,,,,,,,,37.392085,-122.011385,10.474915,-1.000000,-1.000000,1478503162.21
1478503162.23,-0.846812,1.475718,-1.489695,0.013176,0.017930,-0.012972,-0.071123,-0.995484,-0.062882,-0.001128,-0.000168,-0.003478,-6.374329,-35.881348,-22.814575,,,,,,
1478503162.25,-0.847896,1.475979,-1.488312,0.003570,0.022204,-0.007709,-0.070996,-0.995508,-0.062633,-0.002262,-0.003851,0.005352,-6.076965,-36.330383,-23.562134,,,,,,
1478503162.27,-0.846975,1.475983,-1.488474,-0.014511,0.043512,-0.000389,-0.070935,-0.995509,-0.062696,-0.003878,-0.015157,0.003218,-6.076965,-36.330383,-23.562134,,,,,,
1478503162.29,-0.846516,1.475706,-1.488263,-0.018856,0.030757,0.005995,-0.071113,-0.995482,-0.062912,-0.004097,-0.009492,0.006485,-6.077148,-36.405396,-23.562134,,,,,,
1478503162.31,-0.847483,1.475518,-1.486827,-0.016744,0.021186,0.003893,-0.071314,-0.995464,-0.062967,-0.006399,-0.013431,0.010110,-5.775574,-35.955872,-23.335083,,,,,,
1478503162.33,-0.848220,1.475520,-1.485733,-0.019901,0.020144,-0.002510,-0.071359,-0.995465,-0.062913,0.000314,-0.002079,0.014237,-6.076965,-36.330383,-23.562134,,,,,,
1478503162.35,-0.848686,1.475917,-1.485146,0.000357,-0.000097,-0.016206,-0.071092,-0.995502,-0.062618,0.002412,0.005237,0.014660,-6.602051,-36.330017,-23.640991,,,,,,
1478503162.37,-0.850282,1.476815,-1.483390,0.016462,0.017941,-0.025726,-0.070520,-0.995587,-0.061915,0.004052,0.002865,0.014353,-6.602051,-36.330017,-23.640991,,,,,,
1478503162.39,-0.851400,1.477503,-1.481699,0.015450,0.032828,-0.025753,-0.070074,-0.995651,-0.061385,-0.008158,-0.010620,0.005141,-6.601868,-36.179871,-23.716187,,,,,,
1478503162.41,-0.852353,1.478021,-1.480115,0.015390,0.032811,-0.016172,-0.069744,-0.995699,-0.060978,-0.002415,-0.006605,0.001988,-5.926453,-36.180542,-23.485962,,,,,,
1478503162.43,-0.851623,1.478322,-1.480239,0.010015,0.026442,-0.011934,-0.069474,-0.995727,-0.060832,-0.000136,-0.005982,-0.002828,-6.526245,-36.105225,-23.490601,,,,,,
1478503162.45,-0.849261,1.478414,-1.482324,0.005681,0.004132,-0.012988,-0.069262,-0.995736,-0.060935,-0.002607,-0.007774,-0.009118,-6.450745,-36.030518,-23.340088,,,,,,
1478503162.47,-0.846393,1.478300,-1.485252,-0.011438,-0.005392,-0.006680,-0.069171,-0.995725,-0.061209,-0.004895,-0.006899,-0.003885,-6.450745,-36.030518,-23.340088,,,,,,
1478503162.49,-0.844155,1.477824,-1.487726,-0.023196,-0.012799,-0.004603,-0.069388,-0.995681,-0.061679,-0.008782,-0.008378,-0.002408,-6.076660,-36.255493,-23.487061,,,,,,
1478503162.51,-0.842029,1.477565,-1.490044,-0.019899,-0.003223,-0.015243,-0.069449,-0.995657,-0.061997,-0.007318,-0.004404,0.004823,-6.150330,-36.106140,-23.037842,,,,,,
1478503162.53,-0.839812,1.477496,-1.492032,-0.015496,0.020169,-0.024833,-0.069363,-0.995651,-0.062197,-0.011601,-0.006074,0.002733,-6.301086,-35.955139,-23.638916,,,,,,
1478503162.55,-0.835571,1.477504,-1.495799,-0.019663,0.027643,-0.035510,-0.069093,-0.995651,-0.062485,-0.009902,-0.009521,0.002976,-6.151917,-36.255249,-23.637695,,,,,,
1478503162.57,-0.831319,1.477988,-1.498396,-0.037628,0.099963,-0.017622,-0.068471,-0.995696,-0.062454,0.010350,-0.028062,0.047745,-6.151917,-36.255249,-23.637695,,,,,,
1478503162.59,-0.817741,1.478771,-1.511005,0.007121,0.033970,-0.055601,-0.067047,-0.995769,-0.062845,0.020630,0.026286,-0.001578,-6.151489,-36.180481,-23.487671,,,,,,
1478503162.61,-0.806649,1.480433,-1.521778,0.025048,0.000936,-0.044811,-0.065151,-0.995920,-0.062439,0.023830,0.002832,0.000061,-5.776245,-35.880188,-23.785034,,,,,,
1478503162.63,-0.799458,1.482125,-1.529616,0.035475,-0.052267,-0.038291,-0.063492,-0.996071,-0.061732,0.017930,-0.001030,-0.001470,-5.851746,-36.030029,-23.860474,,,,,,
1478503162.65,-0.798755,1.483639,-1.531549,0.065288,-0.061926,-0.041308,-0.062368,-0.996204,-0.060724,0.007925,0.001255,-0.004935,-5.550720,-35.880676,-23.558472,,,,,,
1478503162.67,-0.802981,1.484893,-1.528478,0.073733,-0.066223,-0.031674,-0.061725,-0.996313,-0.059592,-0.006451,-0.010737,-0.014016,-5.550720,-35.880676,-23.558472,,,,,,
1478503162.69,-0.812574,1.485416,-1.520518,0.055419,-0.091711,-0.013637,-0.061916,-0.996357,-0.058639,-0.015141,-0.006420,-0.010545,-5.777527,-36.254944,-23.934937,,,,,,
1478503162.71,-0.821078,1.485761,-1.513738,0.054444,-0.084247,-0.024296,-0.062161,-0.996387,-0.057876,-0.015308,-0.002911,-0.014313,-5.776489,-36.255737,-23.409912,,,,,,
1478503162.73,-0.828869,1.486324,-1.507303,0.066328,-0.053437,-0.033855,-0.062196,-0.996434,-0.057011,-0.017867,0.001622,-0.010967,-5.850952,-36.180908,-23.260498,,,,,,
1478503162.75,-0.840914,1.487059,-1.495819,0.089935,-0.017354,-0.041227,-0.062332,-0.996496,-0.055769,-0.027710,0.003820,-0.013399,-6.076538,-36.405823,-23.262085,,,,,,
1478503162.77,-0.855820,1.488011,-1.481245,0.094095,-0.022706,-0.028417,-0.062441,-0.996575,-0.054212,-0.019514,0.005715,-0.009509,-6.076538,-36.405823,-23.262085,,,,,,
1478503162.79,-0.870290,1.489015,-1.467511,0.082270,-0.047125,-0.025249,-0.062453,-0.996658,-0.052658,-0.011964,0.004287,-0.007447,-6.302368,-36.555359,-23.488647,,,,,,
1478503162.81,-0.880671,1.490079,-1.458091,0.072711,-0.048148,-0.030621,-0.062179,-0.996744,-0.051332,-0.006455,-0.004080,-0.007521,-5.925659,-36.406555,-22.811035,,,,,,
1478503162.83,-0.890092,1.491025,-1.449479,0.087687,-0.044992,-0.039057,-0.061927,-0.996820,-0.050150,-0.016992,-0.004141,-0.018423,-5.626648,-36.481018,-23.258667,,,,,,
1478503162.85,-0.904319,1.492140,-1.436171,0.108916,-0.062075,-0.036782,-0.061760,-0.996908,-0.048577,-0.018104,-0.001139,-0.018714,-6.375549,-36.256104,-22.964478,,,,,,
1478503162.87,-0.922977,1.493515,-1.418725,0.116126,-0.060043,0.003705,-0.061563,-0.997015,-0.046589,0.009973,0.010977,-0.008678,-6.375549,-36.256104,-22.964478,,,,,,
1478503162.89,-0.941516,1.495651,-1.400973,0.152731,-0.036686,-0.045099,-0.060694,-0.997178,-0.044186,0.012293,-0.005065,-0.017215,-5.926270,-36.781799,-22.660767,,,,,,
1478503162.91,-0.962994,1.498349,-1.379919,0.172270,-0.024962,-0.097168,-0.059420,-0.997377,-0.041336,-0.019300,-0.007475,-0.020569,-6.000977,-36.781982,-22.511353,,,,,,
1478503162.93,-0.987705,1.500983,-1.355725,0.187185,-0.046251,-0.109823,-0.058230,-0.997564,-0.038408,-0.030500,-0.000727,-0.027632,-6.000732,-36.631897,-22.586426,,,,,,
1478503162.95,-1.018044,1.503847,-1.326473,0.183844,-0.054777,-0.091728,-0.056937,-0.997760,-0.035124,-0.015206,-0.007642,-0.011705,-6.000671,-37.082764,-21.986206,,,,,,
1478503162.97,-1.046264,1.507262,-1.298501,0.198845,0.008925,-0.070455,-0.054955,-0.997982,-0.031797,0.023141,0.003659,-0.019076,-6.000671,-37.082764,-21.986206,,,,,,
1478503162.99,-1.070870,1.510995,-1.272997,0.218101,0.041898,-0.073568,-0.052451,-0.998212,-0.028649,0.028418,0.014433,-0.034934,-5.927002,-37.156921,-22.585693,,,,,,
1478503163.01,-1.100697,1.514393,-1.242416,0.247898,0.016306,-0.084013,-0.050258,-0.998410,-0.025536,0.010127,0.004284,-0.050102,-6.151001,-37.383057,-21.762207,,,,,,
1478503163.03,-1.146900,1.517362,-1.195980,0.263762,-0.000769,-0.076448,-0.048682,-0.998573,-0.021968,-0.006387,-0.000420,-0.050496,-5.476013,-37.308105,-21.907104,,,,,,
1478503163.05,-1.201373,1.519691,-1.141457,0.253989,-0.011407,-0.054130,-0.047637,-0.998694,-0.018445,-0.008591,-0.019799,-0.054950,-6.151367,-37.533081,-21.762085,,,,,,
1478503163.07,-1.275765,1.521742,-1.066993,0.245424,0.000293,-0.041420,-0.046916,-0.998797,-0.014258,0.006480,-0.016492,-0.042444,-6.151367,-37.533081,-21.762085,,,,,,
1478503163.09,-1.357926,1.524064,-0.984287,0.273374,0.037448,-0.061550,-0.045661,-0.998908,-0.009869,0.010459,0.013633,-0.046069,-5.775208,-37.534180,-21.159302,,,,,,
1478503163.11,-1.480769,1.526331,-0.860187,0.311872,0.060731,-0.072018,-0.044271,-0.999012,-0.003996,-0.003657,0.015094,-0.047090,-5.700806,-37.683899,-21.308716,,,,,,
1478503163.13,-1.592343,1.527766,-0.747230,0.348031,0.057414,-0.065427,-0.043007,-0.999074,0.000927,-0.000053,-0.001505,-0.048412,-5.250244,-37.909973,-20.780151,,,,,,
1478503163.15,-1.725504,1.528792,-0.612847,0.360833,0.040387,-0.079169,-0.041491,-0.999118,0.006471,0.000689,-0.007230,-0.045655,-5.699646,-38.060486,-20.258423,,,,,,
1478503163.17,-1.867823,1.529067,-0.469766,0.359699,0.026567,-0.077026,-0.039891,-0.999129,0.012210,-0.000087,-0.003480,-0.041018,-5.699646,-38.060486,-20.258423,,,,,,
1478503163.19,-2.007461,1.528300,-0.329340,0.358564,0.029740,-0.065327,-0.038498,-0.999097,0.017967,0.000274,0.006177,-0.037026,-5.774414,-38.210938,-19.958862,,,,,,
1478503163.21,-2.152593,1.526221,-0.183540,0.353199,0.021250,-0.064279,-0.037230,-0.999007,0.024487,0.002073,-0.000658,-0.026135,-5.401184,-38.735779,-20.180908,,,,,,
1478503163.23,-2.301070,1.523054,-0.034753,0.384251,0.004201,-0.099211,-0.035554,-0.998861,0.031835,-0.004439,0.003499,-0.022451,-5.473572,-38.361938,-19.356445,,,,,,
1478503163.25,-2.436087,1.518909,0.100448,0.405530,-0.001185,-0.098021,-0.033629,-0.998654,0.039483,-0.013841,0.013593,-0.006814,-5.623657,-38.587219,-19.132568,,,,,,
1478503163.27,-2.555685,1.513481,0.220337,0.420524,0.008347,-0.105404,-0.031675,-0.998358,0.047729,-0.025011,0.005575,0.010437,-5.623657,-38.587219,-19.132568,,,,,,
1478503163.29,-2.660336,1.507371,0.325614,0.429245,0.032804,-0.123490,-0.029340,-0.997989,0.056184,-0.032108,0.001133,0.024276,-5.323364,-38.813110,-18.680176,,,,,,
1478503163.31,-2.748512,1.500875,0.414884,0.420922,0.049880,-0.145916,-0.026761,-0.997557,0.064536,-0.025196,0.017683,0.039651,-5.923889,-39.263184,-18.384399,,,,,,
1478503163.33,-2.833058,1.493684,0.500810,0.468044,0.050860,-0.185045,-0.023393,-0.997028,0.073399,-0.037535,0.024952,0.044857,-4.797729,-39.339844,-17.701050,,,,,,
1478503163.35,-2.906572,1.485295,0.575536,0.496653,0.026296,-0.174205,-0.019886,-0.996347,0.083049,-0.041393,0.018228,0.036564,-4.946838,-39.340454,-17.252075,,,,,,
1478503163.37,-2.961867,1.476577,0.631484,0.469855,0.026336,-0.147740,-0.016818,-0.995565,0.092565,-0.030546,0.032201,0.051692,-4.946838,-39.340454,-17.252075,,,,,,
1478503163.39,-3.006788,1.468467,0.676705,0.419873,0.005281,-0.173531,-0.013729,-0.994769,0.101225,-0.024662,0.012225,0.037173,-4.722412,-39.715759,-17.100220,,,,,,
1478503163.41,-3.050598,1.461019,0.721502,0.382966,0.052240,-0.207869,-0.009955,-0.993980,0.109104,-0.035378,-0.004829,0.007610,-5.020996,-39.791870,-16.277466,,,,,,
1478503163.43,-3.092824,1.454243,0.765153,0.344771,0.056656,-0.230440,-0.005669,-0.993215,0.116151,-0.066887,-0.003748,-0.032899,-4.721191,-40.017212,-16.125122,,,,,,
1478503163.45,-3.131413,1.448082,0.804671,0.299860,0.021705,-0.223182,-0.001246,-0.992480,0.122400,-0.075979,-0.018155,-0.051187,-4.345398,-39.867737,-15.897339,,,,,,
1478503163.47,3.128651,1.444108,0.828779,0.262693,0.036730,-0.235110,0.001635,-0.991986,0.126339,-0.068591,-0.014789,-0.066173,-4.345398,-39.867737,-15.897339,,,,,,
1478503163.49,3.094472,1.439636,0.864447,0.185091,0.079512,-0.237730,0.006160,-0.991411,0.130639,-0.058223,-0.002364,-0.082788,-4.120850,-40.243164,-15.670532,,,,,,
1478503163.51,3.070851,1.439572,0.890942,0.051088,0.157545,-0.232192,0.009249,-0.991402,0.130521,-0.060808,-0.015266,-0.090650,-4.120850,-40.393555,-15.445435,,,,,,
1478503163.53,3.040471,1.440002,0.925978,-0.096690,0.256883,-0.224639,0.013166,-0.991459,0.129755,-0.081922,-0.026531,-0.091623,-3.669250,-40.470093,-14.541992,,,,,,
1478503163.55,3.012065,1.443427,0.961159,-0.259470,0.371114,-0.194837,0.016407,-0.991899,0.125962,-0.113331,-0.047468,-0.088730,-3.219482,-40.169556,-15.063843,,,,,,
1478503163.57,2.985203,1.449992,0.996990,-0.413788,0.473617,-0.161777,0.018770,-0.992712,0.119040,-0.124803,-0.071665,-0.077322,-3.219482,-40.169556,-15.063843,,,,,,
1478503163.59,2.960974,1.459708,1.032160,-0.573551,0.582477,-0.106401,0.019915,-0.993836,0.109056,-0.106798,-0.072738,-0.061068,-3.370117,-40.169067,-15.364868,,,,,,
1478503163.61,2.935553,1.473004,1.071001,-0.775826,0.713807,-0.054487,0.019975,-0.995222,0.095571,-0.088563,-0.103044,-0.057058,-2.845703,-39.868225,-16.036133,,,,,,
1478503163.63,2.898067,1.491106,1.124295,-1.047336,0.826247,-0.014635,0.019195,-0.996826,0.077257,-0.064666,-0.141708,-0.060319,-2.772034,-39.792236,-16.785645,,,,,,
1478503163.65,2.812909,1.514716,1.227709,-1.351596,0.960112,-0.006930,0.018093,-0.998428,0.053051,-0.019955,-0.164063,-0.062099,-2.396790,-38.966064,-17.683228,,,,,,
1478503163.67,2.482922,1.541332,1.578598,-1.606528,1.074791,-0.061730,0.018032,-0.999566,0.023298,0.003331,-0.183738,-0.075193,-2.396790,-38.966064,-17.683228,,,,,,
1478503163.69,1.088844,1.548718,2.994240,-1.753485,1.047669,-0.085915,0.019562,-0.999756,-0.010233,0.017960,-0.215667,-0.095465,-2.173035,-38.589478,-18.806763,,,,,,
1478503163.71,0.426588,1.520146,-2.606761,-1.869389,0.940532,-0.009745,0.020948,-0.998718,-0.046091,0.049425,-0.213441,-0.065115,-1.123840,-37.236816,-20.899536,,,,,,
1478503163.73,0.246754,1.483874,-2.409139,-1.983155,0.847197,0.072803,0.021205,-0.996225,-0.084183,0.127813,-0.157584,0.024033,-0.899414,-36.259705,-22.398315,,,,,,
1478503163.75,0.174276,1.445074,-2.317610,-1.996339,1.002494,0.053333,0.021742,-0.992107,-0.123492,0.215791,-0.107349,0.201968,-0.599426,-35.433289,-23.446411,,,,,,
1478503163.77,0.151450,1.407676,-2.275728,-1.849254,0.838476,-0.049930,0.024501,-0.986725,-0.160539,0.265355,-0.036544,0.174928,-0.599426,-35.433289,-23.446411,,,,,,
1478503163.79,0.148175,1.374160,-2.260170,-1.568851,0.417805,-0.151005,0.028843,-0.980729,-0.193230,0.255153,-0.017668,0.116418,0.075562,-34.306458,-24.866943,,,,,,
1478503163.81,0.145273,1.347258,-2.257408,-1.206810,-0.244637,-0.154394,0.032091,-0.975119,-0.219346,0.164000,-0.006479,0.037141,0.525269,-32.578247,-27.189331,,,,,,
1478503163.83,0.128867,1.326964,-2.250988,-0.934220,-0.630637,-0.008601,0.031025,-0.970420,-0.239422,0.043132,0.005591,0.098720,0.525696,-31.676880,-28.089966,,,,,,
1478503163.85,0.099862,1.310817,-2.235239,-0.768342,-0.712282,0.165948,0.025628,-0.966395,-0.255780,-0.003655,0.037089,0.207715,0.300659,-31.376221,-28.466797,,,,,,
1478503163.87,0.065622,1.298229,-2.214208,-0.578016,-0.675828,0.244647,0.017653,-0.963083,-0.268625,-0.012328,0.093393,0.230280,0.300659,-31.376221,-28.466797,,,,,,
1478503163.89,0.036772,1.289497,-2.195589,-0.375757,-0.460620,0.218819,0.010206,-0.960696,-0.277416,-0.031828,0.152590,0.240978,-0.673645,-30.925293,-28.699341,,,,,,
1478503163.91,0.017251,1.284660,-2.181877,-0.173296,-0.227299,0.170609,0.004869,-0.959342,-0.282205,-0.071397,0.211112,0.186090,-1.874634,-30.398071,-29.833496,,,,,,
1478503163.93,0.004454,1.283446,-2.170789,-0.006420,-0.054524,0.157425,0.001262,-0.958998,-0.283409,-0.118252,0.235091,0.135445,-2.023865,-30.323425,-29.534790,,,,,,
1478503163.95,-0.007838,1.285155,-2.156733,0.143975,0.140466,0.236728,-0.002209,-0.959481,-0.281765,-0.130345,0.204430,0.103069,-1.949707,-30.473145,-29.759155,,,,,,
1478503163.97,-0.022607,1.289471,-2.135602,0.252850,0.355778,0.323223,-0.006276,-0.960688,-0.277558,-0.055186,0.185847,0.013596,-1.949707,-30.473145,-29.759155,,,,,,
1478503163.99,-0.037973,1.294359,-2.109198,0.258665,0.602364,0.378263,-0.010362,-0.962034,-0.272733,0.031205,0.169553,-0.084628,-2.024109,-30.473511,-29.459595,,,,,,
1478503164.01,-0.054892,1.299307,-2.076484,0.276816,0.782872,0.472828,-0.014713,-0.963372,-0.267763,0.040088,0.175637,-0.242430,-2.324158,-30.698730,-29.236816,,,,,,
1478503164.03,-0.078850,1.303667,-2.036245,0.224881,0.677666,0.541896,-0.020792,-0.964533,-0.263143,0.034525,0.170282,-0.342096,-2.625366,-31.223633,-29.163818,,,,,,
1478503164.05,-0.111267,1.305817,-1.994902,0.118689,0.143272,0.529352,-0.029080,-0.965098,-0.260270,0.074475,0.106852,-0.412200,-2.175476,-31.148743,-29.310547,,,,,,
1478503164.07,-0.154149,1.304418,-1.954938,-0.110113,-0.398189,0.528919,-0.040418,-0.964731,-0.260118,0.195920,-0.046591,-0.502104,-2.175476,-31.148743,-29.310547,,,,,,
1478503164.09,-0.196405,1.296114,-1.926500,-0.459708,-0.995365,0.392716,-0.052931,-0.962512,-0.266026,0.312987,-0.150007,-0.497127,-2.848755,-30.473328,-29.315918,,,,,,
1478503164.11,-0.241574,1.286523,-1.907893,-0.314570,-1.591136,0.359292,-0.067095,-0.959866,-0.272316,0.249361,0.090557,-0.317115,-3.748413,-30.022339,-29.697876,,,,,,
1478503164.13,-0.306573,1.286223,-1.878513,0.414621,-1.918953,0.434055,-0.084728,-0.959781,-0.267658,0.032528,0.475742,-0.100033,-4.423767,-29.871399,-30.078003,,,,,,
1478503164.15,-0.407647,1.301514,-1.807580,1.462918,-1.400092,0.890373,-0.105472,-0.963962,-0.244240,-0.304257,0.378787,0.229561,-5.623169,-29.645813,-30.087158,,,,,,
1478503164.17,-0.575481,1.314535,-1.629695,1.523511,1.538321,2.044408,-0.137946,-0.967344,-0.212640,-0.916818,-1.190981,0.933450,-5.623169,-29.645813,-30.087158,,,,,,
1478503164.19,-0.654109,1.299914,-1.491926,-0.148848,3.182881,1.571787,-0.162811,-0.963535,-0.212350,-0.805482,-1.217953,-0.259055,-7.797729,-30.772217,-28.452881,,,,,,
1478503164.21,-0.617814,1.288901,-1.454236,0.152573,3.462871,0.204071,-0.161135,-0.960530,-0.226755,0.076373,0.059559,-0.076529,-8.323853,-31.372192,-28.231567,,,,,,
1478503164.23,-0.555404,1.310025,-1.466900,1.162938,1.898299,-1.254875,-0.135948,-0.966192,-0.219071,0.902031,0.541616,0.352830,-7.651184,-31.821716,-28.826294,,,,,,
1478503164.25,-0.492421,1.347231,-1.516328,1.300611,0.092684,-1.282240,-0.104815,-0.975113,-0.195367,1.101473,0.612000,0.536111,-4.576416,-31.823059,-28.953247,,,,,,
1478503164.27,-0.538754,1.372027,-1.484032,1.287176,-1.130659,0.353555,-0.101312,-0.980310,-0.169493,0.406884,0.051630,0.294035,-4.576416,-31.823059,-28.953247,,,,,,
1478503164.29,-0.739315,1.381402,-1.310096,1.422088,-1.595024,1.177861,-0.126849,-0.982118,-0.139114,-0.016569,-0.312559,0.170150,-3.452576,-33.175293,-27.819092,,,,,,
1478503164.31,-0.939341,1.390907,-1.139857,1.521024,-1.586440,0.352340,-0.144419,-0.983863,-0.105621,-0.171285,-0.162087,0.219985,-5.177185,-33.775818,-26.931641,,,,,,
1478503164.33,-1.108259,1.404912,-0.994179,1.375125,-1.011218,-0.015525,-0.147774,-0.986273,-0.073682,-0.204796,0.138235,0.212491,-6.602478,-34.526306,-26.116821,,,,,,
1478503164.35,-1.275093,1.412845,-0.835495,1.361386,-0.294992,0.197274,-0.150468,-0.987552,-0.045838,-0.148177,0.123645,0.259690,-7.578003,-36.253723,-24.173462,,,,,,
1478503164.37,-1.467389,1.414048,-0.648285,1.518282,-0.501764,0.204838,-0.155273,-0.987740,-0.016114,-0.077652,0.083871,0.139588,-7.578003,-36.253723,-24.173462,,,,,,
1478503164.39,-1.682822,1.412907,-0.444292,1.645537,-0.787741,-0.032475,-0.156249,-0.987561,0.017577,0.005431,0.062589,0.078736,-7.502625,-36.855042,-23.272583,,,,,,
1478503164.41,-1.897161,1.406511,-0.243173,1.643289,-0.788829,-0.014389,-0.154914,-0.986536,0.052433,-0.040322,-0.056006,0.085613,-7.802246,-37.832092,-21.849365,,,,,,
1478503164.43,-2.081716,1.392898,-0.072270,1.590490,-0.855739,0.043970,-0.154363,-0.984218,0.086531,-0.037684,0.029643,0.026964,-8.552429,-38.507812,-21.104736,,,,,,
1478503164.45,-2.231807,1.375629,0.061456,1.465424,-0.998837,0.031791,-0.153083,-0.981015,0.119057,-0.004769,0.017758,-0.017403,-8.701416,-39.410217,-19.455200,,,,,,
1478503164.47,-2.347074,1.356704,0.157560,1.311278,-1.084577,0.102396,-0.151596,-0.977170,0.148856,-0.023071,-0.027454,-0.050314,-8.701416,-39.410217,-19.455200,,,,,,
1478503164.49,-2.431714,1.336653,0.222100,1.180734,-1.090690,0.191106,-0.151211,-0.972713,0.175966,-0.028614,-0.035618,-0.093477,-9.525513,-40.612671,-17.510742,,,,,,
1478503164.51,-2.496389,1.317411,0.265775,1.029279,-1.164597,0.178677,-0.150751,-0.968069,0.200290,-0.037649,-0.055826,-0.136813,-10.799438,-41.063782,-16.395142,,,,,,
1478503164.53,-2.554280,1.300222,0.300132,0.943012,-1.272645,0.114498,-0.148109,-0.963618,0.222497,-0.058540,-0.034689,-0.132317,-10.723328,-41.290039,-15.569458,,,,,,
1478503164.55,-2.610033,1.282964,0.331105,0.984489,-1.337586,0.089277,-0.143890,-0.958861,0.244705,-0.039963,0.036407,-0.089889,-11.171997,-41.891968,-14.147583,,,,,,
1478503164.57,-2.665890,1.264609,0.360608,1.046201,-1.407905,0.062045,-0.138042,-0.953490,0.267958,0.032756,-0.014207,-0.019133,-11.171997,-41.891968,-14.147583,,,,,,
1478503164.59,-2.720091,1.245244,0.388629,1.063797,-1.347267,0.007760,-0.130853,-0.947474,0.291839,0.108331,-0.024770,-0.012161,-11.846497,-42.643433,-12.952271,,,,,,
1478503164.61,-2.767716,1.225986,0.411480,1.037040,-1.354650,0.023592,-0.123454,-0.941140,0.314667,0.082209,-0.062019,-0.050110,-11.995911,-42.718933,-12.578369,,,,,,
1478503164.63,-2.812250,1.207726,0.429693,0.938800,-1.404316,0.032708,-0.114862,-0.934811,0.336059,0.096826,-0.094456,-0.102737,-12.145264,-43.170166,-11.679077,,,,,,
1478503164.65,-2.855543,1.189392,0.443346,0.955104,-1.602127,0.040550,-0.105028,-0.928143,0.357099,0.072283,-0.090274,-0.187849,-12.969238,-44.222412,-9.884888,,,,,,
1478503164.67,-2.896453,1.171719,0.452221,0.858642,-1.661457,0.100787,-0.094302,-0.921420,0.376952,0.078006,-0.138761,-0.291198,-12.969238,-44.222412,-9.884888,,,,,,
1478503164.69,-2.931709,1.156158,0.452604,0.711480,-1.819576,0.206669,-0.083934,-0.915262,0.394019,0.061900,-0.201727,-0.398749,-12.966064,-44.074524,-8.459961,,,,,,
1478503164.71,-2.964953,1.142931,0.447729,0.593839,-1.939341,0.212592,-0.072912,-0.909854,0.408473,-0.007364,-0.154844,-0.444697,-13.416321,-44.600159,-7.937988,,,,,,
1478503164.73,-3.001280,1.132900,0.446859,0.410184,-1.797004,0.018692,-0.059302,-0.905646,0.419868,-0.159753,-0.059061,-0.383460,-13.565918,-44.976074,-7.264038,,,,,,
1478503164.75,-3.034291,1.131015,0.451000,-0.102732,-1.259287,-0.111620,-0.045595,-0.904845,0.423293,-0.197981,-0.151048,-0.195174,-14.466370,-45.651550,-6.670410,,,,,,
1478503164.77,-3.059543,1.137396,0.457490,-0.351018,-0.847932,-0.211545,-0.034419,-0.907543,0.418546,-0.098668,-0.072209,-0.297651,-14.466370,-45.651550,-6.670410,,,,,,
1478503164.79,-3.089139,1.148003,0.472624,-0.730227,-0.824087,-0.375469,-0.021512,-0.911946,0.409745,-0.424456,-0.576274,-0.210634,-13.493286,-45.575439,-7.713135,,,,,,
1478503164.81,-3.114929,1.170848,0.485348,-1.357376,-0.577686,-0.288807,-0.010381,-0.921081,0.389233,-0.164729,-0.320756,-0.365170,-12.894958,-45.574463,-8.533569,,,,,,
1478503164.83,3.138408,1.206902,0.507164,-2.106588,-0.500395,-0.538941,0.001133,-0.934518,0.355914,0.041118,-0.419135,-0.284564,-12.222473,-45.347534,-10.103638,,,,,,
1478503164.85,3.084940,1.256854,0.549513,-2.722507,-0.787337,-0.672822,0.017486,-0.951124,0.308315,0.208985,-0.215380,-0.297222,-10.056030,-44.816162,-15.037720,,,,,,
1478503164.87,3.006749,1.311999,0.613675,-2.887298,-0.836930,-0.583170,0.034404,-0.966699,0.253595,0.162617,-0.190162,-0.165323,-10.056030,-44.816162,-15.037720,,,,,,
1478503164.89,2.918952,1.366291,0.685245,-2.770150,-0.962488,-0.136310,0.044842,-0.979162,0.198070,-0.133694,-0.362498,0.072484,-8.409912,-43.762207,-18.250854,,,,,,
1478503164.91,2.860091,1.419884,0.729735,-2.703600,-0.520576,0.542534,0.041764,-0.988634,0.144422,-0.319032,-0.413633,0.253847,-6.613037,-42.633606,-21.238037,,,,,,
1478503164.93,2.857987,1.477099,0.733116,-2.828093,0.417996,0.873610,0.026180,-0.995614,0.089823,-0.339016,-0.275367,0.267294,-5.115112,-39.176208,-26.628418,,,,,,
1478503164.95,2.922564,1.538168,0.688750,-3.002798,1.380660,0.899926,0.007088,-0.999468,0.031843,-0.267891,-0.216765,0.283419,-3.763855,-37.224243,-28.419434,,,,,,
1478503164.97,-0.324416,1.540370,-2.312047,-3.063116,1.938109,0.806134,-0.009697,-0.999537,-0.028835,-0.160469,-0.206289,0.275615,-3.763855,-37.224243,-28.419434,,,,,,
1478503164.99,-0.235729,1.478579,-2.361792,-3.009981,1.937181,0.653170,-0.021507,-0.995751,-0.089540,-0.119972,-0.110847,0.291292,-2.187195,-35.122375,-30.208496,,,,,,
1478503165.01,-0.190942,1.418458,-2.371376,-2.934590,1.681966,0.549652,-0.028800,-0.988419,-0.148992,-0.095071,-0.030319,0.303671,0.665955,-32.796753,-31.538330,,,,,,
1478503165.03,-0.155157,1.361021,-2.372373,-2.784936,1.745351,0.503540,-0.032180,-0.978078,-0.205739,-0.142853,0.050481,0.388448,3.526245,-28.673096,-31.593872,,,,,,
1478503165.05,-0.133911,1.308108,-2.357347,-2.489985,1.858001,0.589085,-0.034670,-0.965696,-0.257352,-0.154234,0.091733,0.467023,4.430054,-26.948242,-31.812988,,,,,,
1478503165.07,-0.117789,1.262164,-2.334589,-2.108677,1.908787,0.629425,-0.035696,-0.952750,-0.301651,-0.159952,0.115637,0.501740,4.430054,-26.948242,-31.812988,,,,,,
1478503165.10,-0.108541,1.224442,-2.305809,-1.668706,1.794479,0.736338,-0.036774,-0.940617,-0.337473,-0.131759,0.145008,0.529200,4.733704,-25.523560,-31.736450,,,,,,
1478503165.12,-0.111853,1.195352,-2.266358,-1.196436,1.602328,0.915932,-0.040930,-0.930345,-0.364395,-0.064249,0.207246,0.559143,5.336426,-24.624146,-31.507446,,,,,,
1478503165.14,-0.125053,1.176023,-2.222187,-0.674018,1.224171,0.978991,-0.047970,-0.923084,-0.381596,0.004894,0.286258,0.574818,5.491577,-23.576172,-30.231812,,,,,,
1478503165.16,-0.149765,1.167850,-2.174587,-0.046038,0.779850,0.989505,-0.058508,-0.919910,-0.387741,0.107290,0.324573,0.612518,4.967712,-23.501587,-29.785645,,,,,,
1478503165.18,-0.186295,1.171704,-2.123005,0.595280,0.412113,0.954203,-0.071973,-0.921414,-0.381858,0.189313,0.380093,0.672462,4.967712,-23.501587,-29.785645,,,,,,
1478503165.20,-0.236148,1.185572,-2.063862,1.101446,0.193547,0.979671,-0.087914,-0.926714,-0.365338,0.243325,0.410357,0.660749,4.442444,-24.027100,-29.264404,,,,,,
1478503165.22,-0.295687,1.206603,-1.994256,1.492293,0.348676,0.915584,-0.103794,-0.934412,-0.340737,0.254383,0.414896,0.520928,3.765808,-24.852051,-29.044067,,,,,,
1478503165.24,-0.344669,1.232855,-1.927094,1.652725,1.002729,0.498186,-0.112024,-0.943439,-0.312046,0.124460,0.022953,-0.008709,2.415344,-26.654419,-27.028320,,,,,,
1478503165.26,-0.351788,1.258627,-1.878233,1.249179,2.554431,0.310513,-0.105828,-0.951670,-0.288315,-0.114585,-0.760840,-0.757294,2.265808,-27.481201,-25.753906,,,,,,
1478503165.28,-0.346862,1.260445,-1.833168,-0.187182,1.907483,0.851822,-0.103818,-0.952226,-0.287205,-0.421893,-0.926069,-1.695491,2.265808,-27.481201,-25.753906,,,,,,
1478503165.30,-0.365606,1.247498,-1.778850,-0.226369,1.689343,1.033968,-0.113581,-0.948193,-0.296699,-0.027059,0.047070,-0.448830,3.015381,-28.082397,-25.223022,,,,,,
1478503165.32,-0.419163,1.246559,-1.712534,0.732667,-0.543004,0.937251,-0.129663,-0.947894,-0.291006,0.265131,0.352450,-0.229029,3.390625,-27.406494,-25.970581,,,,,,
1478503165.34,-0.532217,1.267269,-1.630353,1.959591,-1.930208,0.381921,-0.151669,-0.954288,-0.257547,0.311185,0.017063,0.471750,1.738647,-28.756775,-25.232300,,,,,,
1478503165.36,-0.606502,1.291159,-1.557572,0.855884,0.943711,0.463028,-0.157323,-0.961155,-0.226781,-0.193903,-1.410350,0.188466,0.163086,-29.732239,-24.343628,,,,,,
1478503165.38,-0.617050,1.276107,-1.491396,-0.139520,3.309052,1.169301,-0.168059,-0.956892,-0.236882,-0.689210,-0.769655,0.167119,0.163086,-29.732239,-24.343628,,,,,,
1478503165.40,-0.567671,1.291806,-1.475575,1.362088,2.886025,-1.035962,-0.148066,-0.961334,-0.232193,0.269435,0.455307,0.951202,-0.062683,-30.558167,-23.669922,,,,,,
1478503165.42,-0.473708,1.338785,-1.539421,1.678662,1.029580,-2.103347,-0.104894,-0.973206,-0.204615,0.876317,1.044602,1.019420,0.010437,-31.308228,-23.669067,,,,,,
1478503165.44,-0.420481,1.383244,-1.572930,2.069096,1.073544,-0.629066,-0.076111,-0.982463,-0.170213,0.675827,0.536724,0.603944,4.061035,-31.911926,-22.588257,,,,,,
1478503165.46,-0.575660,1.421592,-1.401660,2.460840,0.412503,0.922939,-0.080924,-0.988890,-0.124694,-0.297234,-0.109713,0.547164,4.512024,-32.513916,-21.384644,,,,,,
1478503165.48,-0.891400,1.443047,-1.087653,2.116312,-0.643586,0.571369,-0.099113,-0.991851,-0.080050,-0.175560,-0.543290,0.136645,4.512024,-32.513916,-21.384644,,,,,,
1478503165.50,-1.208442,1.462683,-0.781800,2.047545,-0.546432,-0.132790,-0.100896,-0.994161,-0.038249,0.153798,-0.122477,0.166163,4.211853,-33.791016,-19.886230,,,,,,
1478503165.52,-1.592667,1.473338,-0.407569,1.905468,-0.691590,-0.151447,-0.097281,-0.995255,0.002128,0.049857,0.218292,-0.012595,2.638000,-35.819946,-16.747070,,,,,,
1478503165.54,-1.936172,1.463788,-0.075850,1.683357,-0.593911,0.328338,-0.099754,-0.994280,0.038161,-0.129692,0.094759,0.056092,3.088928,-36.346863,-15.618408,,,,,,
1478503165.56,-2.153880,1.440578,0.132527,1.623807,-0.598238,0.479176,-0.108395,-0.991534,0.071496,-0.196491,0.144274,-0.006249,1.664490,-36.797424,-14.803833,,,,,,
1478503165.58,-2.324693,1.415025,0.288071,1.707339,-0.982861,0.193871,-0.113103,-0.987892,0.106193,0.053167,0.016853,-0.044807,1.664490,-36.797424,-14.803833,,,,,,
1478503165.60,-2.470033,1.389984,0.414917,1.562338,-0.994868,0.035546,-0.111891,-0.983698,0.140779,0.120314,-0.127310,0.008253,1.665039,-37.699524,-13.378418,,,,,,
1478503165.62,-2.565677,1.367414,0.494210,1.264567,-0.833382,0.043245,-0.110000,-0.979389,0.169402,-0.102082,-0.041699,0.071412,0.691528,-38.902405,-11.135010,,,,,,
1478503165.64,-2.634938,1.346807,0.549927,1.187452,-0.691690,0.018122,-0.107785,-0.975019,0.194217,-0.202868,0.079191,0.037809,0.392883,-39.278931,-10.012085,,,,,,
1478503165.66,-2.692579,1.324484,0.597022,1.302908,-0.554940,0.030258,-0.105840,-0.969818,0.219660,-0.122034,0.025803,-0.005914,0.469421,-39.129822,-9.411621,,,,,,
1478503165.68,-2.744873,1.299742,0.639106,1.368867,-0.627401,0.004118,-0.103456,-0.963489,0.246953,0.044588,-0.042614,-0.055104,0.469421,-39.129822,-9.411621,,,,,,
1478503165.70,-2.793921,1.276175,0.675448,1.221944,-0.751164,-0.079531,-0.098934,-0.956912,0.273004,0.031048,-0.014188,-0.065759,-0.130066,-40.106812,-7.915649,,,,,,
1478503165.72,-2.839946,1.255811,0.706995,1.079312,-0.828201,-0.141939,-0.092040,-0.950801,0.295815,0.007812,-0.025090,-0.113411,-0.802429,-40.559265,-6.045532,,,,,,
1478503165.74,-2.882841,1.236267,0.733519,1.062804,-0.952562,-0.126937,-0.084010,-0.944565,0.317395,0.050440,-0.032669,-0.225476,-0.726746,-40.710083,-5.519897,,,,,,
1478503165.76,-2.922886,1.215953,0.752268,1.072825,-1.252585,-0.023169,-0.075384,-0.937701,0.339167,0.077368,-0.066846,-0.314249,-0.875122,-40.711304,-4.695923,,,,,,
1478503165.78,-2.960743,1.194812,0.761528,1.075190,-1.601495,0.084890,-0.066045,-0.930147,0.361200,0.075291,-0.087782,-0.351953,-0.875122,-40.711304,-4.695923,,,,,,
1478503165.80,-3.000138,1.174162,0.765818,1.000863,-1.853202,0.075284,-0.054464,-0.922366,0.382458,0.071691,-0.112393,-0.355724,-1.249084,-40.937317,-3.873535,,,,,,
1478503165.82,-3.041463,1.156777,0.771191,0.796313,-1.789578,-0.057934,-0.040214,-0.915511,0.400277,0.009040,-0.152863,-0.300393,-2.296997,-41.764954,-1.781006,,,,,,
1478503165.84,-3.084813,1.145200,0.783172,0.442848,-1.521183,-0.283830,-0.023430,-0.910793,0.412198,-0.136666,-0.151982,-0.236387,-3.045593,-42.066101,-0.736450,,,,,,
1478503165.86,-3.123033,1.144197,0.797410,-0.167374,-1.108882,-0.255876,-0.007679,-0.910378,0.413706,-0.133663,-0.244682,-0.208003,-2.595398,-41.991333,-0.733154,,,,,,
1478503165.88,3.135879,1.151850,0.804090,-0.460558,-0.860529,-0.081158,0.002324,-0.913518,0.406791,-0.013829,-0.195842,-0.429466,-2.595398,-41.991333,-0.733154,,,,,,
1478503165.90,3.108331,1.164017,0.812714,-0.812078,-1.148270,-0.247649,0.013158,-0.918400,0.395435,-0.330754,-0.658489,-0.451679,-2.295105,-41.916626,-0.656006,,,,,,
1478503165.92,3.067437,1.192726,0.831059,-1.851303,-1.048109,-0.274802,0.027348,-0.929379,0.368114,-0.437870,-0.611301,-0.335475,-3.198059,-42.740479,-1.112305,,,,,,
1478503165.94,3.021305,1.238889,0.867222,-2.666712,-0.437935,-0.544207,0.039101,-0.945423,0.323492,-0.121178,-0.322766,-0.287817,-2.825378,-42.663757,-2.384521,,,,,,
1478503165.96,2.935157,1.294338,0.949940,-3.041544,-0.337299,-0.854060,0.055947,-0.962028,0.267155,0.161780,-0.173150,-0.136662,-2.605347,-42.960693,-4.482666,,,,,,
1478503165.98,2.818007,1.348447,1.061074,-2.913465,-0.636237,-0.378134,0.070119,-0.975382,0.209077,0.025187,-0.205145,-0.028459,-2.605347,-42.960693,-4.482666,,,,,,
1478503166.00,2.720426,1.400647,1.144680,-2.654434,-0.788570,0.532635,0.069226,-0.985559,0.154533,-0.210569,-0.324225,0.176110,-2.089905,-42.653259,-9.654053,,,,,,
1478503166.02,2.670800,1.456925,1.185048,-2.730784,-0.205739,1.143415,0.051540,-0.993524,0.101264,-0.286601,-0.455649,0.282113,-2.543640,-42.424744,-11.832520,,,,,,
1478503166.04,2.607015,1.519189,1.255997,-2.988551,0.671934,1.287563,0.026281,-0.998669,0.044388,-0.294866,-0.392231,0.345948,-4.121582,-42.196350,-13.569580,,,,,,
1478503166.06,0.062757,1.553703,-2.459838,-3.142241,1.365738,1.210083,0.001072,-0.999854,-0.017059,-0.221409,-0.295602,0.395782,-4.725281,-41.517029,-16.274414,,,,,,
1478503166.08,-0.233789,1.489417,-2.133744,-3.078629,1.490314,0.987763,-0.018832,-0.996691,-0.079078,-0.123380,-0.167158,0.359596,-4.725281,-41.517029,-16.274414,,,,,,
1478503166.10,-0.232381,1.427254,-2.105677,-2.959476,1.460445,0.826660,-0.032944,-0.989716,-0.139205,-0.143860,-0.066147,0.348189,-5.705383,-39.559021,-21.232666,,,,,,
1478503166.12,-0.217642,1.369011,-2.091045,-2.735155,1.494939,0.749067,-0.043276,-0.979710,-0.195691,-0.208616,0.032079,0.401379,-5.931824,-38.130066,-23.785156,,,,,,
1478503166.14,-0.197469,1.316909,-2.078810,-2.410895,1.699289,0.628120,-0.049276,-0.967943,-0.246287,-0.221949,0.076601,0.505656,-5.708313,-36.776611,-26.184082,,,,,,
1478503166.16,-0.169819,1.272199,-2.068808,-2.048004,1.987499,0.509387,-0.049718,-0.955750,-0.289948,-0.198268,0.087617,0.571396,-5.033997,-35.273621,-28.429932,,,,,,
1478503166.18,-0.142881,1.235280,-2.053145,-1.637732,2.141272,0.575278,-0.046885,-0.944240,-0.325902,-0.147436,0.110775,0.585851,-5.033997,-35.273621,-28.429932,,,,,,
1478503166.20,-0.127200,1.206834,-2.024320,-1.180795,2.127785,0.751323,-0.045159,-0.934494,-0.353104,-0.082588,0.186966,0.596726,-3.234680,-33.019775,-31.567505,,,,,,
1478503166.22,-0.122966,1.187675,-1.987057,-0.680379,1.837957,0.804545,-0.045851,-0.927502,-0.370995,0.000639,0.266553,0.603691,-2.634644,-32.043274,-32.763428,,,,,,
1478503166.24,-0.126318,1.179399,-1.949411,-0.090087,1.415187,0.721144,-0.048060,-0.924377,-0.378441,0.086787,0.304107,0.644921,-2.409729,-31.742737,-33.211792,,,,,,
1478503166.26,-0.135215,1.183966,-1.913458,0.548790,1.152819,0.623926,-0.050855,-0.926110,-0.373811,0.149671,0.338890,0.710634,-1.134399,-31.518188,-33.352417,,,,,,
1478503166.28,-0.152288,1.199511,-1.871834,1.075477,1.080835,0.686542,-0.055039,-0.931862,-0.358614,0.143586,0.433174,0.688235,-1.134399,-31.518188,-33.352417,,,,,,
1478503166.30,-0.176319,1.223938,-1.820325,1.533437,1.344079,0.683336,-0.059629,-0.940445,-0.334675,0.072538,0.500595,0.563099,-0.685120,-32.344360,-32.673706,,,,,,
1478503166.32,-0.200638,1.256316,-1.763376,1.867268,1.520779,0.549710,-0.061646,-0.950957,-0.303117,0.007569,0.263152,0.257020,-0.761780,-33.545349,-31.998657,,,,,,
1478503166.34,-0.224231,1.288371,-1.703442,1.565237,1.754501,0.597726,-0.061968,-0.960382,-0.271709,0.049501,-0.394537,-0.430531,0.137024,-34.822266,-31.016357,,,,,,
1478503166.36,-0.254175,1.304117,-1.631856,0.632536,2.090860,0.874181,-0.066264,-0.964651,-0.255062,-0.257161,-0.803873,-1.094364,0.961060,-36.174622,-29.734497,,,,,,
1478503166.38,-0.276850,1.301551,-1.561836,-0.054531,2.319628,0.822155,-0.072706,-0.963972,-0.255874,-0.540240,-0.474047,-0.947113,0.961060,-36.174622,-29.734497,,,,,,
1478503166.40,-0.264211,1.301850,-1.531069,0.351202,1.787830,0.207785,-0.069391,-0.964051,-0.256496,-0.075323,0.120942,-0.331014,2.311279,-36.776611,-28.899048,,,,,,
1478503166.42,-0.287873,1.314905,-1.489097,1.163702,0.331418,0.468882,-0.071861,-0.967438,-0.242692,0.171379,0.494996,0.221071,3.285522,-37.452759,-28.441406,,,,,,
1478503166.44,-0.389091,1.341909,-1.389235,1.731679,-0.208998,0.821981,-0.086072,-0.973919,-0.209935,0.060559,0.091885,0.433796,3.660645,-37.828735,-27.913330,,,,,,
1478503166.46,-0.486635,1.346141,-1.270264,0.260739,1.789524,1.217495,-0.104180,-0.974871,-0.196910,-0.621299,-1.444593,0.024958,2.685608,-38.729919,-26.795044,,,,,,
1478503166.48,-0.479077,1.351050,-1.217179,0.911484,3.185819,-0.191516,-0.100481,-0.975953,-0.193442,-0.260939,-0.585937,0.411124,2.685608,-38.729919,-26.795044,,,,,,
1478503166.50,-0.403381,1.387147,-1.242812,1.745177,1.901955,-1.349544,-0.071683,-0.983184,-0.167961,0.325056,0.610961,0.672707,3.359192,-40.382263,-25.439209,,,,,,
1478503166.52,-0.292877,1.430811,-1.329408,1.859652,1.280556,-1.263874,-0.040283,-0.990218,-0.133587,0.688904,0.993132,0.737652,5.011292,-40.459778,-24.301880,,,,,,
1478503166.54,-0.248822,1.474137,-1.342424,2.231537,1.591186,-0.252093,-0.023766,-0.995332,-0.093536,-0.030646,0.179826,0.541626,7.037109,-40.837219,-23.386475,,,,,,
1478503166.56,-0.518182,1.512104,-1.046077,2.057664,1.115120,0.540728,-0.029054,-0.998278,-0.050958,-0.371016,-0.600950,0.349039,8.915955,-42.494080,-19.396484,,,,,,
1478503166.58,-1.107430,1.539557,-0.441894,1.828254,0.563617,-0.391130,-0.027941,-0.999512,-0.013961,-0.057585,-0.314178,0.135909,8.915955,-42.494080,-19.396484,,,,,,
1478503166.60,-2.533877,1.543488,0.992763,1.862047,0.265278,-0.681098,-0.015591,-0.999627,0.022416,-0.009525,0.230447,-0.056809,9.142700,-43.096619,-17.819580,,,,,,
1478503166.62,-3.048193,1.511925,1.510452,1.773249,0.144839,-0.347150,-0.005487,-0.998268,0.058581,-0.115896,0.142906,0.054349,10.044067,-43.849548,-16.162476,,,,,,
1478503166.64,-3.089393,1.477242,1.556476,1.764762,0.281282,0.064557,-0.004874,-0.995627,0.093290,-0.156716,-0.011941,0.042605,9.970764,-44.376709,-14.662720,,,,,,
1478503166.66,-3.099120,1.441419,1.569790,1.836137,0.048453,-0.065630,-0.005478,-0.991642,0.128900,-0.011520,0.011204,-0.017709,10.198486,-45.656250,-11.735229,,,,,,
1478503166.68,-3.137330,1.405085,1.605274,1.797241,-0.226355,-0.302808,-0.000703,-0.986301,0.164952,0.114976,-0.055950,0.025950,10.198486,-45.656250,-11.735229,,,,,,
1478503166.70,3.101355,1.372902,1.646699,1.486390,-0.128334,-0.453695,0.007909,-0.980483,0.196446,-0.003453,-0.080018,0.084057,10.651489,-45.884155,-9.931885,,,,,,
1478503166.72,3.062089,1.346039,1.687437,1.246957,0.097980,-0.539451,0.017700,-0.974848,0.222166,-0.232758,-0.040044,0.048205,10.953003,-46.486633,-8.429321,,,,,,
1478503166.74,3.030790,1.321687,1.722571,1.162672,0.144949,-0.493148,0.027261,-0.969132,0.245029,-0.328882,-0.030669,-0.009632,10.730164,-46.187622,-7.681152,,,,,,
1478503166.76,3.013727,1.297009,1.743667,1.240928,0.202948,-0.368259,0.034478,-0.962754,0.268172,-0.197274,0.014313,-0.015166,11.633850,-46.416199,-5.574341,,,,,,
1478503166.78,3.009578,1.270464,1.752255,1.337150,0.191811,-0.259135,0.038941,-0.955238,0.293263,-0.066346,-0.001076,-0.041997,11.633850,-46.416199,-5.574341,,,,,,
1478503166.80,3.008624,1.244503,1.755484,1.237301,0.040036,-0.220066,0.042496,-0.947237,0.317705,0.017014,0.012865,-0.065615,12.611450,-46.343506,-4.366821,,,,,,
1478503166.82,2.999887,1.221538,1.761771,1.075845,-0.255933,-0.290759,0.048330,-0.939627,0.338771,0.065898,-0.004938,-0.139979,12.688049,-46.494995,-3.391235,,,,,,
1478503166.84,2.981365,1.200406,1.771815,1.002636,-0.581975,-0.350277,0.057751,-0.932186,0.357342,0.053745,-0.026783,-0.220746,12.764465,-46.721497,-2.415649,,,,,,
1478503166.86,2.958581,1.179715,1.780050,1.008776,-0.870194,-0.300837,0.069373,-0.924497,0.374823,-0.034186,-0.062701,-0.278463,12.993347,-46.273743,-0.989136,,,,,,
1478503166.88,2.938956,1.159053,1.779763,1.027297,-1.049172,-0.125885,0.080543,-0.916425,0.392019,-0.114249,-0.135013,-0.325063,12.993347,-46.273743,-0.989136,,,,,,
1478503166.90,2.924434,1.138978,1.771779,1.010418,-1.125843,-0.024734,0.090173,-0.908206,0.408694,-0.165491,-0.147855,-0.407702,13.144958,-46.124756,-0.388062,,,,,,
1478503166.92,2.905953,1.120503,1.767286,0.841118,-1.131342,-0.211943,0.101611,-0.900320,0.423202,-0.197421,-0.075663,-0.472991,13.671326,-46.126038,0.290894,,,,,,
1478503166.94,2.874221,1.108518,1.779804,0.267439,-0.927998,-0.523045,0.117829,-0.895039,0.430142,-0.331955,-0.110027,-0.371502,13.447021,-46.577332,1.189331,,,,,,
1478503166.96,2.841666,1.107669,1.804224,-0.272729,-0.257606,-0.480196,0.131992,-0.894660,0.426805,-0.422931,-0.209695,-0.212724,13.447205,-46.502319,1.189331,,,,,,
1478503166.98,2.825513,1.114800,1.825333,-0.690864,0.286626,-0.260841,0.136882,-0.897823,0.418542,-0.795207,-0.735051,-0.223276,13.447205,-46.502319,1.189331,,,,,,
1478503167.00,2.811752,1.139257,1.849662,-1.734345,0.534143,-0.035924,0.135474,-0.908323,0.395722,-0.587135,-0.540575,-0.383851,14.197083,-46.352295,0.969849,,,,,,
1478503167.02,2.794837,1.179438,1.887518,-2.361724,1.074221,-0.089160,0.129633,-0.924392,0.358741,-0.112269,-0.233201,-0.351875,14.945984,-46.126465,0.150513,,,,,,
1478503167.04,2.759468,1.226702,1.949757,-2.738608,1.145908,-0.257402,0.125793,-0.941382,0.313013,0.158249,-0.268747,-0.225610,15.238281,-46.571716,-3.147095,,,,,,
1478503167.06,2.697167,1.274050,2.032787,-2.667310,0.600199,-0.209342,0.125719,-0.956293,0.264005,0.115141,-0.366324,-0.125836,15.160583,-46.043579,-5.173096,,,,,,
1478503167.08,2.616247,1.321019,2.122596,-2.681006,0.147692,0.194717,0.123968,-0.968967,0.213855,0.073908,-0.487743,0.026943,15.160583,-46.043579,-5.173096,,,,,,
1478503167.10,2.525725,1.371509,2.218902,-2.742070,0.204542,0.622224,0.114361,-0.980208,0.161598,-0.036709,-0.527116,0.142662,15.906677,-45.590088,-7.717651,,,,,,
1478503167.12,2.410153,1.426370,2.342135,-2.886728,0.395647,1.034164,0.096133,-0.989589,0.107111,-0.131839,-0.419347,0.304678,16.053711,-45.362671,-9.441528,,,,,,
1478503167.14,2.159499,1.483905,2.608415,-3.140969,0.851149,1.230070,0.072173,-0.996227,0.048188,-0.130050,-0.343983,0.370803,14.696411,-44.680176,-13.952148,,,,,,
1478503167.16,1.266515,1.522519,-2.759649,-3.247168,1.102240,1.317458,0.046041,-0.998835,-0.014459,-0.147222,-0.265753,0.393655,14.017761,-44.000793,-16.657593,,,,,,
1478503167.18,0.285187,1.489467,-1.753074,-3.225384,1.233243,1.143865,0.022856,-0.996695,-0.077958,-0.210951,-0.189371,0.385194,14.017761,-44.000793,-16.657593,,,,,,
1478503167.20,0.044346,1.430368,-1.485010,-3.090246,1.336388,0.885777,0.006205,-0.990156,-0.139829,-0.229471,-0.071123,0.425214,13.339294,-43.622131,-18.837769,,,,,,
1478503167.22,-0.015417,1.372211,-1.395098,-2.832208,1.561385,0.633502,-0.003041,-0.980347,-0.197259,-0.220713,0.045776,0.505258,12.963257,-42.193481,-21.166504,,,,,,
1478503167.24,-0.024403,1.319292,-1.349175,-2.537483,1.949655,0.568532,-0.006072,-0.968539,-0.248787,-0.228455,0.133761,0.565209,13.411743,-39.788147,-24.914185,,,,,,
1478503167.26,-0.024301,1.273175,-1.305944,-2.148823,2.146957,0.707688,-0.007126,-0.956037,-0.293160,-0.200684,0.185666,0.575600,14.086548,-38.586060,-26.484741,,,,,,
1478503167.28,-0.029048,1.236510,-1.256948,-1.623916,2.051409,0.871457,-0.009529,-0.944645,-0.327957,-0.129661,0.251789,0.575470,14.086548,-38.586060,-26.484741,,,,,,
1478503167.30,-0.037471,1.210520,-1.207821,-1.078306,1.797674,0.872712,-0.013207,-0.935800,-0.352285,-0.043876,0.323236,0.574712,14.388672,-37.535828,-26.782959,,,,,,
1478503167.32,-0.046179,1.195009,-1.164103,-0.552523,1.517568,0.792997,-0.016942,-0.930219,-0.366614,0.043523,0.349225,0.583319,14.987976,-37.159851,-27.603638,,,,,,
1478503167.34,-0.054352,1.189888,-1.126217,-0.016817,1.251332,0.667542,-0.020196,-0.928327,-0.371215,0.093484,0.340757,0.606444,16.039551,-36.861023,-27.145996,,,,,,
1478503167.36,-0.065003,1.195970,-1.092564,0.554515,0.907280,0.593497,-0.023781,-0.930571,-0.365338,0.121392,0.339568,0.579403,16.714539,-37.086731,-26.915771,,,,,,
1478503167.38,-0.087684,1.211189,-1.052597,0.949120,0.643187,0.716356,-0.030817,-0.936035,-0.350554,0.138056,0.338013,0.463210,16.714539,-37.086731,-26.915771,,,,,,
1478503167.40,-0.125064,1.231309,-0.998909,1.186137,0.745288,0.861210,-0.041538,-0.942926,-0.330403,0.033360,0.285043,0.160054,16.414429,-37.462280,-26.467773,,,,,,
1478503167.42,-0.170783,1.252382,-0.934720,1.126906,0.888982,0.873440,-0.053206,-0.949733,-0.308506,-0.195238,-0.062916,-0.335003,15.890503,-38.138977,-25.121460,,,,,,
1478503167.44,-0.211326,1.261339,-0.865854,0.348834,1.423798,1.065283,-0.063880,-0.952499,-0.297767,-0.206704,-0.593506,-0.966881,15.816040,-39.867676,-22.646240,,,,,,
1478503167.46,-0.244460,1.257562,-0.792509,-0.017565,2.113842,1.099477,-0.074579,-0.951342,-0.298975,-0.297613,-0.550001,-0.992589,15.816895,-40.018616,-22.046143,,,,,,
1478503167.48,-0.242121,1.252075,-0.751820,-0.138624,1.836981,0.371116,-0.075130,-0.949637,-0.304213,-0.002934,0.141043,-0.393251,15.816895,-40.018616,-22.046143,,,,,,
1478503167.50,-0.227913,1.253890,-0.747874,0.344871,0.307482,-0.118891,-0.070411,-0.950204,-0.303569,0.237174,0.336709,-0.153645,15.441772,-40.469238,-21.523682,,,,,,
1478503167.52,-0.248672,1.270174,-0.741293,1.137493,-1.178501,0.067627,-0.072879,-0.955152,-0.287006,0.304034,0.430967,0.167255,16.567627,-40.695740,-20.840088,,,,,,
1478503167.54,-0.336916,1.290008,-0.659046,1.206031,0.258543,1.326183,-0.091608,-0.960837,-0.261534,-0.495962,-0.764993,0.547728,16.267334,-40.995911,-20.617310,,,,,,
1478503167.56,-0.426056,1.292002,-0.535322,0.533082,2.213684,1.345057,-0.113734,-0.961388,-0.250595,-0.824865,-1.137138,0.299911,14.992493,-41.822021,-19.501343,,,,,,
1478503167.58,-0.402516,1.308050,-0.499727,1.221451,3.096203,-0.576054,-0.101747,-0.965680,-0.238975,0.001664,-0.005923,0.821007,14.992493,-41.822021,-19.501343,,,,,,
1478503167.60,-0.295240,1.343843,-0.559722,1.518735,1.890389,-1.601955,-0.065471,-0.974357,-0.215274,0.456111,0.656363,0.868930,13.641785,-43.248413,-18.085693,,,,,,
1478503167.62,-0.169886,1.380128,-0.655022,1.584014,1.732927,-1.055269,-0.032041,-0.981878,-0.186787,0.631544,0.702093,0.741337,18.073303,-43.255554,-14.827515,,,,,,
1478503167.64,-0.123476,1.418372,-0.666970,2.075026,1.522091,0.035669,-0.018700,-0.988406,-0.150679,0.065270,0.133303,0.550368,19.577942,-42.809021,-13.016602,,,,,,
1478503167.66,-0.239605,1.459891,-0.533749,2.202718,0.305555,0.571536,-0.026266,-0.993856,-0.107516,-0.357981,-0.527857,0.349246,19.806580,-43.037292,-10.914551,,,,,,
1478503167.68,-0.444887,1.497181,-0.332569,1.995585,-0.379714,0.091352,-0.031652,-0.997292,-0.066390,0.062872,-0.239769,0.091948,19.806580,-43.037292,-10.914551,,,,,,
1478503167.70,-0.875985,1.528603,0.091372,1.995727,-0.472076,0.016979,-0.032403,-0.999110,-0.027006,0.183724,0.093379,0.034117,19.584717,-43.415222,-8.891113,,,,,,
1478503167.72,-1.982367,1.534208,1.184594,2.124141,-0.809614,0.076746,-0.033526,-0.999331,0.014634,0.045626,0.154116,0.043365,19.439209,-44.320251,-5.516846,,,,,,
1478503167.74,-2.585592,1.501793,1.770919,2.211188,-0.902687,0.244492,-0.036391,-0.997620,0.058563,-0.047212,0.090043,0.056885,19.440308,-44.997375,-4.091309,,,,,,
1478503167.76,-2.772741,1.460212,1.939400,2.182134,-1.040747,0.213673,-0.039789,-0.993892,0.102936,-0.095159,0.117519,0.011947,19.218018,-45.074402,-2.667969,,,,,,
1478503167.78,-2.886211,1.419815,2.031303,2.071742,-1.113258,-0.061464,-0.037995,-0.988624,0.145530,-0.073623,0.017494,-0.002677,19.218018,-45.074402,-2.667969,,,,,,
1478503167.80,-2.977856,1.383565,2.105962,1.793412,-0.774850,-0.338150,-0.030342,-0.982523,0.183649,-0.120247,-0.066289,0.027654,18.544128,-45.675903,-1.397827,,,,,,
1478503167.82,-3.052154,1.353565,2.169343,1.460601,-0.557688,-0.488274,-0.019251,-0.976498,0.214665,-0.270697,0.045895,-0.054006,18.999512,-45.529968,1.155518,,,,,,
1478503167.84,-3.108947,1.327592,2.215899,1.285160,-0.598748,-0.394435,-0.007860,-0.970571,0.240685,-0.336714,0.016912,-0.107171,19.527100,-45.156433,1.984253,,,,,,
1478503167.86,-3.138702,1.302046,2.235253,1.314782,-0.488747,-0.129380,-0.000768,-0.964103,0.265526,-0.189830,-0.046746,-0.071404,19.979309,-45.233521,3.187744,,,,,,
1478503167.88,3.134010,1.275041,2.239246,1.370428,-0.261569,-0.042131,0.002210,-0.956582,0.291454,0.007937,-0.062003,-0.066540,19.979309,-45.233521,3.187744,,,,,,
1478503167.90,3.123401,1.248248,2.244742,1.326174,-0.319702,-0.152993,0.005766,-0.948431,0.316932,0.060213,0.009054,-0.104484,19.756409,-45.159851,4.161133,,,,,,
1478503167.92,3.102751,1.222582,2.256658,1.269544,-0.578716,-0.271069,0.013250,-0.939983,0.340963,0.034769,0.052746,-0.160665,19.835510,-44.712158,5.661499,,,,,,
1478503167.94,3.075914,1.197231,2.269416,1.259232,-0.834852,-0.298413,0.023951,-0.931032,0.364150,0.024495,-0.031401,-0.224837,20.515015,-43.814209,6.791016,,,,,,
1478503167.96,3.048959,1.172507,2.279105,1.191517,-0.934639,-0.258182,0.035876,-0.921726,0.386179,-0.033709,-0.130078,-0.296153,20.666077,-43.815063,7.317261,,,,,,
1478503167.98,3.026149,1.150335,2.282572,1.041180,-1.025830,-0.118355,0.047017,-0.912901,0.405465,-0.191839,-0.224612,-0.353570,20.666077,-43.815063,7.317261,,,,,,
1478503168.00,3.008998,1.131647,2.277306,0.906572,-1.137323,0.051427,0.056210,-0.905114,0.421438,-0.228924,-0.296348,-0.385336,21.194641,-43.291870,8.370850,,,,,,
1478503168.02,2.992754,1.114558,2.270095,0.853704,-1.140226,-0.013794,0.065333,-0.897716,0.435703,-0.141947,-0.160191,-0.444004,21.344910,-43.517700,8.822144,,,,,,
1478503168.04,2.967501,1.099771,2.273865,0.580030,-1.061172,-0.328380,0.078604,-0.891103,0.446941,-0.155326,-0.118113,-0.394588,21.346252,-43.293213,9.197021,,,,,,
1478503168.06,2.933261,1.094923,2.292521,-0.112348,-0.755610,-0.510422,0.094751,-0.888893,0.448209,-0.203058,-0.281792,-0.292844,22.470520,-43.143005,8.680420,,,,,,
1478503168.08,2.902694,1.101539,2.316179,-0.600557,-0.324728,-0.392407,0.107011,-0.891905,0.439380,-0.232728,-0.385195,-0.421649,22.470520,-43.143005,8.680420,,,,,,
1478503168.10,2.880850,1.115939,2.335941,-0.955119,-0.180447,-0.171030,0.113260,-0.898324,0.424484,-0.505746,-0.576164,-0.582367,22.920898,-42.467285,8.008423,,,,,,
1478503168.12,2.856606,1.142578,2.358460,-1.782456,-0.192823,-0.073366,0.116745,-0.909707,0.398502,-0.743042,-0.720023,-0.567371,23.294067,-42.841797,7.561401,,,,,,
1478503168.14,2.817314,1.188533,2.403627,-2.918769,0.416196,-0.304082,0.118854,-0.927823,0.353579,-0.434528,-0.489658,-0.404086,23.741455,-42.990295,6.439819,,,,,,
1478503168.16,2.733527,1.248876,2.506243,-3.717228,0.596902,-0.628094,0.125554,-0.948630,0.290410,0.085170,-0.308115,-0.355504,23.811707,-43.212158,4.340576,,,,,,
1478503168.18,2.598007,1.310130,2.655172,-3.644671,0.132724,-0.394928,0.133297,-0.966218,0.220576,0.081913,-0.355330,-0.095134,23.811707,-43.212158,4.340576,,,,,,
1478503168.20,2.423084,1.365153,2.829462,-3.285396,-0.423524,0.274270,0.134415,-0.978930,0.153717,0.006713,-0.622694,0.206680,25.076782,-42.904785,-0.975220,,,,,,
1478503168.22,2.218778,1.419218,3.028671,-3.076480,-0.236322,1.042637,0.120392,-0.988534,0.091140,-0.030273,-0.748420,0.369035,25.071655,-42.600403,-3.900269,,,,,,
1478503168.24,1.902429,1.472021,-2.936168,-2.981820,0.057985,1.572830,0.093241,-0.995126,0.032108,-0.274989,-0.459876,0.498166,24.315674,-42.896118,-6.530884,,,,,,
1478503168.26,1.097741,1.506940,-2.122841,-3.222276,0.538613,1.963577,0.056805,-0.997962,-0.029074,-0.431119,-0.370767,0.552313,23.335999,-43.117432,-8.638062,,,,,,
1478503168.28,0.205407,1.474231,-1.207101,-3.361563,1.345110,1.860457,0.019665,-0.995341,-0.094389,-0.305493,-0.228871,0.424833,23.335999,-43.117432,-8.638062,,,,,,
1478503168.30,-0.047808,1.409960,-0.919470,-3.304144,1.748632,1.421585,-0.007653,-0.987094,-0.159961,-0.350379,-0.042722,0.414645,20.700195,-43.859497,-13.082520,,,,,,
1478503168.32,-0.103879,1.346410,-0.823875,-3.034153,2.003696,0.978783,-0.023072,-0.974931,-0.221309,-0.291045,0.061082,0.506801,19.721985,-43.631104,-14.964966,,,,,,
1478503168.34,-0.097488,1.289336,-0.785360,-2.679532,2.333727,0.672589,-0.027035,-0.960651,-0.276440,-0.232334,0.174503,0.612453,19.420593,-42.878540,-16.617676,,,,,,
1478503168.36,-0.068599,1.239290,-0.761619,-2.355474,2.753927,0.534281,-0.022309,-0.945553,-0.324702,-0.243697,0.233654,0.681407,19.795837,-41.751770,-17.890381,,,,,,
1478503168.38,-0.033012,1.197031,-0.736712,-1.930610,3.060804,0.567019,-0.012051,-0.930959,-0.364925,-0.244998,0.232595,0.718303,19.795837,-41.751770,-17.890381,,,,,,
1478503168.40,-0.000839,1.165436,-0.704481,-1.363443,3.123573,0.705231,-0.000331,-0.918960,-0.394350,-0.178624,0.246460,0.722201,21.070679,-40.474915,-19.606445,,,,,,
1478503168.42,0.023280,1.145987,-0.666044,-0.768387,2.861004,0.801512,0.009594,-0.911117,-0.412036,-0.068203,0.307724,0.695361,21.596985,-40.250671,-19.227539,,,,,,
1478503168.44,0.040028,1.138576,-0.627163,-0.169926,2.466784,0.790498,0.016763,-0.908038,-0.418553,0.049140,0.348818,0.664814,22.121704,-40.476196,-19.073486,,,,,,
1478503168.46,0.052880,1.143394,-0.592902,0.440747,2.050361,0.688038,0.021909,-0.910045,-0.413929,0.150912,0.383312,0.683903,22.798279,-40.627991,-18.093384,,,,,,
1478503168.48,0.061950,1.161680,-0.566157,1.164973,1.442271,0.548172,0.024628,-0.917473,-0.397035,0.192810,0.429497,0.678407,22.798279,-40.627991,-18.093384,,,,,,
1478503168.50,0.060969,1.191796,-0.543874,1.613101,0.709395,0.537911,0.022544,-0.929035,-0.369305,0.284569,0.461795,0.578396,22.801270,-41.306519,-15.767944,,,,,,
1478503168.52,0.041184,1.227777,-0.514203,1.882320,0.256445,0.674207,0.013848,-0.941744,-0.336047,0.335594,0.438310,0.343264,22.577820,-42.134033,-13.969360,,,,,,
1478503168.54,0.006091,1.268141,-0.472550,2.040287,0.161191,0.743348,0.001816,-0.954549,-0.298050,0.203842,0.175969,-0.046875,22.427979,-43.261230,-12.469971,,,,,,
1478503168.56,-0.037205,1.297907,-0.404321,0.839450,1.784544,1.177110,-0.010025,-0.962996,-0.269329,-0.062821,-0.755769,-0.770588,21.083618,-44.241699,-8.429443,,,,,,
1478503168.58,-0.111812,1.288995,-0.274488,-0.494983,2.472059,2.008621,-0.031029,-0.960556,-0.276350,-0.692345,-1.309616,-1.895922,21.083618,-44.241699,-8.429443,,,,,,
1478503168.60,-0.162276,1.280715,-0.176440,-0.042999,1.883185,1.121015,-0.046212,-0.958221,-0.282272,-0.247916,0.206939,-0.575531,20.333862,-44.767456,-7.609863,,,,,,
1478503168.62,-0.209110,1.291941,-0.116293,1.234854,-0.285482,0.502219,-0.057140,-0.961371,-0.269259,0.173702,0.421271,-0.264265,19.133301,-45.367554,-7.168457,,,,,,
1478503168.64,-0.286130,1.332203,-0.059114,2.461329,-1.130844,0.151510,-0.066704,-0.971671,-0.226728,0.238030,0.700584,0.448468,18.682312,-46.118042,-6.721558,,,,,,
1478503168.66,-0.363824,1.349801,0.025220,0.296549,0.975741,0.829396,-0.078003,-0.975680,-0.204852,-0.662308,-1.496259,0.188510,17.561890,-46.797180,-3.579468,,,,,,
1478503168.68,-0.328987,1.346390,0.047774,0.236731,3.820745,-0.280213,-0.071895,-0.974926,-0.210594,-0.619450,-1.823154,0.254020,17.561890,-46.797180,-3.579468,,,,,,
1478503168.70,-0.157682,1.383259,-0.038040,1.456548,4.053186,-1.691812,-0.029277,-0.982466,-0.184127,0.400370,1.153472,0.833586,17.111084,-47.547729,-3.057495,,,,,,
1478503168.72,0.144676,1.417430,-0.304297,1.821713,1.214347,-2.219862,0.022025,-0.988262,-0.151170,0.520227,1.354336,0.938508,17.490295,-47.475891,-1.029785,,,,,,
1478503168.74,0.379421,1.454148,-0.512763,2.279819,1.623766,-0.118776,0.043107,-0.993204,-0.108107,-0.117463,0.709742,0.441878,19.747070,-46.204834,0.786499,,,,,,
1478503168.76,0.387721,1.504911,-0.501532,2.310265,0.564962,1.576622,0.024892,-0.997830,-0.060951,-0.518926,-0.832828,0.407112,20.209961,-44.486450,5.064209,,,,,,
1478503168.78,0.299442,1.553445,-0.412790,2.159077,-0.169044,0.299510,0.005118,-0.999849,-0.016578,-0.015998,-0.842939,0.204811,20.209961,-44.486450,5.064209,,,,,,
1478503168.80,2.576050,1.544106,-2.687210,1.887653,0.247166,-0.697922,0.014301,-0.999644,0.022531,0.288327,0.103434,-0.075800,19.237793,-45.089233,7.232056,,,,,,
1478503168.82,2.720471,1.505733,-2.830999,1.858481,-0.090142,-0.480411,0.026578,-0.997884,0.059337,0.107364,0.361394,-0.172420,19.091431,-44.941650,8.880859,,,,,,
1478503168.84,2.854361,1.469133,-2.968842,1.972549,-0.175600,0.140949,0.028751,-0.994837,0.097330,-0.218143,0.078135,0.011770,20.374634,-43.896423,11.665161,,,,,,
1478503168.86,2.989449,1.431871,-3.108588,2.012765,-0.232700,0.492542,0.020988,-0.990365,0.136879,-0.255973,0.025262,-0.007073,20.005188,-42.923584,13.236816,,,,,,
1478503168.88,3.049688,1.393381,3.103437,1.972796,-0.661510,0.170432,0.016197,-0.984303,0.175742,-0.073738,0.109166,-0.070914,20.005188,-42.923584,13.236816,,,,,,
1478503168.90,3.044758,1.356546,3.095408,1.760420,-0.577181,-0.233244,0.020556,-0.977136,0.211619,-0.008914,-0.027594,-0.021815,19.932068,-43.000183,14.286255,,,,,,
1478503168.92,3.021035,1.324820,3.112358,1.451820,-0.230303,-0.434529,0.029285,-0.969900,0.241736,-0.167194,-0.063974,0.007349,19.562683,-42.027283,15.857910,,,,,,
1478503168.94,2.995168,1.297426,3.138507,1.269243,0.071347,-0.541377,0.039390,-0.962866,0.267089,-0.307365,0.054755,-0.003310,20.243958,-41.130676,17.887573,,,,,,
1478503168.96,2.979624,1.270139,-3.124740,1.373628,0.244125,-0.442068,0.047757,-0.955142,0.292272,-0.333661,0.088061,-0.046163,21.148010,-40.382751,18.944092,,,,,,
1478503168.98,2.980939,1.239588,-3.120522,1.547637,0.166591,-0.202546,0.052018,-0.945650,0.320998,-0.202302,0.004290,-0.074584,21.148010,-40.382751,18.944092,,,,,,
1478503169.00,2.992565,1.208322,-3.130610,1.632378,0.130058,-0.143443,0.052648,-0.935022,0.350659,0.006541,-0.085913,-0.067547,20.927063,-39.634338,20.067139,,,,,,
1478503169.02,2.992551,1.176144,-3.131173,1.547042,-0.112916,-0.261702,0.057093,-0.923130,0.380225,0.085882,-0.105297,-0.122245,21.005798,-38.885681,20.967407,,,,,,
1478503169.04,2.982975,1.148553,-3.126314,1.257179,-0.310616,-0.356669,0.064730,-0.912172,0.404663,0.096555,-0.023405,-0.192673,21.839478,-37.089233,23.072632,,,,,,
1478503169.06,2.964213,1.123949,-3.114159,1.145658,-0.437610,-0.481635,0.076249,-0.901814,0.425345,0.010238,-0.100353,-0.308707,21.542114,-36.339722,23.445068,,,,,,
1478503169.08,2.947122,1.100891,-3.107125,1.102272,-0.588808,-0.271937,0.087503,-0.891611,0.444267,-0.077325,-0.219717,-0.403449,21.542114,-36.339722,23.445068,,,,,,
1478503169.10,2.937522,1.079182,-3.112406,1.088029,-0.832695,-0.004454,0.095664,-0.881572,0.462254,-0.124488,-0.261830,-0.490559,22.220032,-35.515686,23.899658,,,,,,
1478503169.12,2.927984,1.057931,-3.122442,1.096378,-0.938980,-0.036182,0.104017,-0.871342,0.479524,-0.145063,-0.206936,-0.540727,22.598328,-34.691772,24.502075,,,,,,
1478503169.14,2.907618,1.039211,-3.120725,0.689342,-0.966822,-0.379016,0.117523,-0.862005,0.493089,-0.315917,-0.238292,-0.381059,23.875732,-34.093079,24.961426,,,,,,
1478503169.16,2.874304,1.034437,-3.102090,-0.213159,-0.740310,-0.564220,0.134967,-0.859575,0.492865,-0.239261,-0.370101,-0.286734,24.551514,-33.793457,24.966309,,,,,,
1478503169.18,2.847908,1.041186,-3.079997,-0.575778,-0.163298,-0.345675,0.146245,-0.863004,0.483566,-0.360417,-0.485400,-0.458283,24.551514,-33.793457,24.966309,,,,,,
1478503169.20,2.835632,1.053699,-3.066437,-0.833019,-0.011030,-0.009874,0.148906,-0.869258,0.471400,-0.751292,-0.763448,-0.559978,25.151917,-33.117920,24.370483,,,,,,
1478503169.22,2.825634,1.081889,-3.057656,-1.877939,-0.181630,0.381702,0.145937,-0.882846,0.446413,-0.752397,-0.681683,-0.565615,25.526428,-33.343079,24.373413,,,,,,
1478503169.24,2.808132,1.136022,-3.035371,-3.194684,0.341530,0.336413,0.137867,-0.906965,0.398004,-0.177769,-0.565325,-0.439554,24.768250,-35.139954,22.568604,,,,,,
1478503169.26,2.763165,1.202457,-2.972962,-3.652565,0.688394,-0.183978,0.133030,-0.932926,0.334591,0.134761,-0.395534,-0.192654,24.909546,-37.162231,20.695679,,,,,,
