timestamp(unix),attitude_roll(radians),attitude_pitch(radians),attitude_yaw(radians),rotation_rate_x(radians/s),rotation_rate_y(radians/s),rotation_rate_z(radians/s),gravity_x(G),gravity_y(G),gravity_z(G),user_acc_x(G),user_acc_y(G),user_acc_z(G),magnetic_field_x(microteslas),magnetic_field_y(microteslas),magnetic_field_z(microteslas),latitude(degree),longitude(degree),altitude(meter),speed(m/s),course(degree),timestamp(unix)
1478502979.28,-0.001950,1.438470,-2.415957,0.006739,0.019734,-0.011991,-0.000257,-0.991258,-0.131940,-0.009051,-0.005935,-0.000888,4.277466,-29.678467,-22.136108,,,,,,
,,,,,,,,,,,,,,,,37.392598,-122.003842,10.837952,-1.000000,-1.000000,1478502884.92
1478502979.30,-0.001923,1.438483,-2.415439,0.005694,0.031426,-0.008820,-0.000254,-0.991259,-0.131928,-0.008810,-0.003507,-0.003189,4.277161,-29.678223,-22.286011,,,,,,
,,,,,,,,,,,,,,,,37.391856,-122.011729,10.837952,-1.000000,-1.000000,1478502568.23
,,,,,,,,,,,,,,,,37.392598,-122.003842,10.837952,-1.000000,-1.000000,1478502884.92
1478502979.32,-0.002462,1.438614,-2.414306,0.014169,0.029261,-0.002382,-0.000325,-0.991277,-0.131797,-0.006054,0.000905,-0.002312,4.202576,-29.678528,-22.061646,,,,,,
1478502979.34,-0.002340,1.438917,-2.413919,0.019476,0.023928,-0.002344,-0.000308,-0.991316,-0.131497,-0.001462,-0.002031,-0.003039,4.279297,-29.229004,-21.761353,,,,,,
,,,,,,,,,,,,,,,,37.392598,-122.003842,10.837952,-1.000000,-1.000000,1478502979.35
1478502979.36,-0.001065,1.439046,-2.414794,0.012023,0.017581,-0.006633,-0.000140,-0.991333,-0.131370,0.001529,-0.006454,-0.007455,4.279297,-29.229004,-21.761353,,,,,,
,,,,,,,,,,,,,,,,37.392598,-122.003843,10.837952,-1.000000,-1.000000,1478502979.36
1478502979.38,0.000435,1.439104,-2.416086,0.008769,0.006955,-0.003441,0.000057,-0.991341,-0.131312,0.001118,-0.003257,-0.004415,4.277893,-29.378235,-22.286133,,,,,,
1478502979.40,0.001609,1.439233,-2.417148,0.008745,0.005886,-0.000247,0.000211,-0.991358,-0.131184,0.003085,-0.002569,-0.001903,3.829285,-29.228760,-21.764771,,,,,,
1478502979.42,0.001705,1.439539,-2.417119,0.009788,0.006938,0.004015,0.000223,-0.991398,-0.130881,0.000463,-0.002987,0.004416,4.126038,-30.053040,-22.362061,,,,,,
1478502979.44,0.001297,1.439842,-2.416601,0.009774,0.002686,0.004022,0.000169,-0.991438,-0.130580,0.001921,-0.007616,0.001613,4.125610,-30.052734,-22.587036,,,,,,
1478502979.46,0.001967,1.440002,-2.417380,0.008700,-0.011120,-0.002351,0.000257,-0.991459,-0.130421,0.004413,-0.005322,-0.000163,4.125610,-30.052734,-22.587036,,,,,,
1478502979.48,0.004794,1.440314,-2.420507,0.017285,-0.012192,-0.012948,0.000624,-0.991499,-0.130111,0.006350,0.001311,0.002273,4.278442,-29.453796,-21.911133,,,,,,
1478502979.50,0.007317,1.440941,-2.423055,0.033362,0.007963,-0.017148,0.000947,-0.991581,-0.129488,-0.002199,0.001102,0.003038,3.901978,-29.903442,-22.063721,,,,,,
1478502979.52,0.007226,1.441826,-2.422588,0.044059,0.028120,-0.012860,0.000929,-0.991695,-0.128610,-0.013823,-0.000462,0.000024,4.125977,-29.902771,-22.587036,,,,,,
1478502979.54,0.005518,1.442710,-2.420279,0.046192,0.036611,-0.008601,0.000705,-0.991808,-0.127734,-0.016223,-0.002714,-0.001096,4.350830,-30.203247,-22.285156,,,,,,
1478502979.56,0.004710,1.443422,-2.418654,0.041999,0.050451,-0.011836,0.000598,-0.991899,-0.127029,-0.011188,0.001527,-0.004090,4.350830,-30.203247,-22.285156,,,,,,
1478502979.58,0.007981,1.444200,-2.420559,0.045398,0.087670,-0.023583,0.001008,-0.991997,-0.126254,-0.002976,0.000146,-0.003613,4.502686,-29.829041,-21.834351,,,,,,
1478502979.60,0.012246,1.444827,-2.423346,0.032400,0.058976,-0.005514,0.001539,-0.992076,-0.125627,0.003695,-0.017109,-0.012022,4.501892,-29.903625,-22.134277,,,,,,
1478502979.62,0.014406,1.445409,-2.424038,0.035429,0.034491,0.007315,0.001802,-0.992149,-0.125046,0.000396,-0.005241,-0.028519,3.977356,-29.753418,-22.063232,,,,,,
1478502979.64,0.013556,1.446155,-2.422735,0.048107,0.004681,0.007430,0.001685,-0.992242,-0.124307,0.002984,0.013757,-0.007666,4.501587,-29.828247,-22.359375,,,,,,
1478502979.66,0.015839,1.447351,-2.424925,0.077043,0.016320,-0.013720,0.001950,-0.992390,-0.123117,0.006320,0.008122,0.000741,4.501587,-29.828247,-22.359375,,,,,,
1478502979.68,0.025026,1.449174,-2.433032,0.099816,0.077961,-0.043496,0.003036,-0.992613,-0.121285,0.005326,-0.011476,-0.004493,4.576965,-29.978821,-21.983643,,,,,,
1478502979.70,0.034382,1.450607,-2.440759,0.091232,0.080097,-0.032902,0.004122,-0.992786,-0.119829,-0.000231,-0.014126,-0.017256,4.652527,-29.528442,-22.283325,,,,,,
1478502979.72,0.038642,1.451159,-2.444381,0.053469,-0.001643,-0.002060,0.004611,-0.992852,-0.119263,0.008847,-0.019523,-0.016708,4.726685,-29.978699,-22.132568,,,,,,
1478502979.74,0.043740,1.451796,-2.449980,0.050184,-0.037767,-0.008412,0.005191,-0.992928,-0.118606,0.021466,-0.023170,-0.013977,3.902344,-30.053955,-21.688721,,,,,,
1478502979.76,0.053745,1.452581,-2.460529,0.090739,-0.017696,-0.009290,0.006336,-0.993021,-0.117770,0.032269,-0.003271,-0.019544,3.902344,-30.053955,-21.688721,,,,,,
1478502979.78,0.060410,1.454223,-2.467479,0.161183,0.029909,-0.004721,0.007022,-0.993213,-0.116097,0.017896,0.013263,-0.019324,4.502930,-29.904419,-21.609253,,,,,,
1478502979.80,0.065983,1.456669,-2.473212,0.217613,-0.003205,-0.019265,0.007509,-0.993495,-0.113632,0.006056,0.018137,-0.041550,4.427002,-30.279358,-21.609741,,,,,,
1478502979.82,0.068640,1.460349,-2.476469,0.223731,-0.062778,-0.009559,0.007560,-0.993907,-0.109964,-0.005591,0.002696,-0.038916,4.201904,-30.354309,-21.536255,,,,,,
1478502979.84,0.068093,1.464242,-2.475616,0.209118,-0.015914,-0.032059,0.007236,-0.994328,-0.106106,-0.038685,-0.008464,-0.031696,4.351868,-30.504578,-21.385132,,,,,,
1478502979.86,0.076053,1.467892,-2.482503,0.186213,0.122383,-0.039847,0.007805,-0.994710,-0.102426,-0.053169,0.000020,-0.018805,4.351868,-30.504578,-21.385132,,,,,,
1478502979.88,0.081274,1.471119,-2.483981,0.174706,0.215989,-0.020850,0.008079,-0.995036,-0.099184,-0.047431,-0.012395,-0.021498,4.427124,-30.354492,-21.459595,,,,,,
1478502979.90,0.089393,1.474405,-2.487695,0.160701,0.217052,0.004619,0.008592,-0.995358,-0.095858,-0.028123,0.000653,-0.035520,3.152832,-30.429565,-21.019165,,,,,,
1478502979.92,0.092924,1.476765,-2.487931,0.154986,0.129870,0.017494,0.008712,-0.995582,-0.093488,0.002701,-0.000679,-0.041278,5.026855,-30.880615,-20.929810,,,,,,
1478502979.94,0.093371,1.479898,-2.486505,0.160084,0.079870,0.026115,0.008463,-0.995872,-0.090377,0.012731,0.005866,-0.026596,4.726868,-31.030884,-20.707031,,,,,,
1478502979.96,0.095746,1.483031,-2.487150,0.179309,0.094692,0.026196,0.008380,-0.996151,-0.087251,0.016477,0.003918,-0.016234,4.726868,-31.030884,-20.707031,,,,,,
1478502979.98,0.097501,1.486832,-2.486764,0.194357,0.113799,0.015605,0.008164,-0.996477,-0.083467,0.007934,0.001619,-0.008284,4.952087,-30.805664,-20.855469,,,,,,
1478502980.00,0.099623,1.490512,-2.486913,0.185773,0.094692,0.014523,0.007976,-0.996779,-0.079801,-0.003841,-0.006044,-0.009555,4.877625,-31.106567,-20.255981,,,,,,
1478502980.02,0.100004,1.494023,-2.485944,0.173929,0.068143,0.019821,0.007657,-0.997054,-0.076315,-0.011396,0.001663,-0.002604,4.502258,-31.256409,-20.258667,,,,,,
1478502980.04,0.102339,1.497702,-2.486384,0.199789,0.113858,-0.001355,0.007461,-0.997330,-0.072647,-0.011626,-0.003815,-0.005707,4.502441,-31.481934,-19.883545,,,,,,
1478502980.06,0.110449,1.501853,-2.492026,0.220144,0.144625,-0.002355,0.007593,-0.997624,-0.068469,-0.014627,0.004552,-0.011579,4.502441,-31.481934,-19.883545,,,,,,
1478502980.08,0.118042,1.506122,-2.496596,0.249082,0.157326,-0.023503,0.007611,-0.997909,-0.064180,-0.023236,0.006073,-0.022658,4.577759,-31.407104,-19.807983,,,,,,
1478502980.10,0.129243,1.510634,-2.504854,0.272507,0.155124,-0.023368,0.007749,-0.998191,-0.059625,-0.024976,0.010993,-0.034217,4.803894,-31.257751,-19.431396,,,,,,
1478502980.12,0.133026,1.515026,-2.505284,0.309941,0.182660,-0.032779,0.007393,-0.998445,-0.055249,-0.029610,0.003191,-0.038836,4.954163,-31.182922,-19.355347,,,,,,
1478502980.15,0.134650,1.519847,-2.503081,0.321703,0.207063,-0.027422,0.006837,-0.998702,-0.050466,-0.034226,-0.002015,-0.042811,4.803223,-31.708130,-19.206177,,,,,,
1478502980.17,0.120059,1.524000,-2.484375,0.313142,0.212392,-0.020016,0.005603,-0.998905,-0.046443,-0.028430,0.001682,-0.040746,4.803223,-31.708130,-19.206177,,,,,,
1478502980.19,0.129495,1.528522,-2.489885,0.300263,0.189042,-0.018983,0.005457,-0.999107,-0.041908,-0.014002,0.006889,-0.038537,5.027588,-32.158569,-18.979248,,,,,,
1478502980.21,0.157777,1.533047,-2.515007,0.300216,0.145486,-0.037011,0.005930,-0.999288,-0.037271,-0.004557,-0.016780,-0.034476,5.253845,-32.009338,-18.527588,,,,,,
1478502980.23,0.211592,1.537936,-2.566398,0.305490,0.114654,-0.046515,0.006900,-0.999460,-0.032121,0.000836,-0.004705,-0.020308,5.404236,-32.084900,-18.226562,,,,,,
1478502980.25,0.279169,1.543544,-2.631851,0.327801,0.103944,-0.043181,0.007509,-0.999629,-0.026194,-0.013505,0.010539,-0.009451,4.803711,-32.610107,-17.855713,,,,,,
1478502980.27,0.407550,1.549685,-2.758521,0.349007,0.079419,-0.040898,0.008367,-0.999777,-0.019381,-0.022527,0.015539,0.006548,4.803711,-32.610107,-17.855713,,,,,,
1478502980.29,0.623562,1.555793,-2.973209,0.342537,0.060300,-0.038774,0.008761,-0.999887,-0.012180,-0.021273,0.011469,0.014011,5.254028,-32.385132,-18.002563,,,,,,
1478502980.31,1.029660,1.559861,2.904895,0.322177,0.050773,-0.025032,0.009372,-0.999940,-0.005633,-0.009022,0.005479,0.016054,5.479126,-32.460510,-17.850708,,,,,,
1478502980.33,1.634433,1.560745,2.301043,0.314822,0.047639,-0.043164,0.010031,-0.999949,0.000639,0.003824,-0.006780,0.010942,5.329651,-32.986877,-16.876709,,,,,,
1478502980.35,2.125449,1.557402,1.810964,0.325735,0.049802,-0.083559,0.011386,-0.999910,0.007054,-0.000446,-0.001249,0.002757,5.254333,-33.211975,-16.802002,,,,,,
1478502980.37,2.369101,1.551884,1.568371,0.323694,0.058331,-0.093163,0.013199,-0.999821,0.013544,-0.009704,0.014470,-0.002771,5.254333,-33.211975,-16.802002,,,,,,
1478502980.39,2.489355,1.545999,1.449391,0.299230,0.066917,-0.094375,0.015050,-0.999693,0.019705,-0.013860,0.004743,-0.002875,5.029114,-33.211731,-16.878784,,,,,,
1478502980.41,2.555271,1.540644,1.384789,0.254529,0.069198,-0.099945,0.016681,-0.999545,0.025112,-0.014575,-0.016339,-0.009549,5.405151,-32.987244,-16.651001,,,,,,
1478502980.43,2.577796,1.536294,1.363855,0.207871,0.094901,-0.120464,0.018435,-0.999405,0.029157,-0.019960,-0.013565,-0.022336,5.780151,-33.288025,-16.272949,,,,,,
1478502980.45,2.581377,1.533194,1.363065,0.176338,0.158849,-0.153727,0.019976,-0.999293,0.031847,-0.031969,-0.001668,-0.030901,5.706360,-33.288879,-15.673462,,,,,,
1478502980.47,2.571935,1.530962,1.375747,0.120822,0.160058,-0.134867,0.021479,-0.999207,0.033535,-0.026606,-0.005539,-0.027691,5.706360,-33.288879,-15.673462,,,,,,
1478502980.49,2.547444,1.529589,1.403181,0.055588,0.138958,-0.107513,0.023062,-0.999151,0.034136,-0.013098,-0.004282,-0.023134,5.929871,-33.663574,-15.971680,,,,,,
1478502980.51,2.527876,1.528543,1.425286,0.033098,0.128376,-0.094843,0.024327,-0.999107,0.034533,-0.017491,0.001045,-0.006975,5.780640,-33.588867,-15.672852,,,,,,
1478502980.53,2.522448,1.527421,1.433782,0.023641,0.170926,-0.091762,0.025164,-0.999059,0.035312,-0.024356,0.006765,0.003628,5.856079,-33.288757,-15.822388,,,,,,
1478502980.55,2.520642,1.526623,1.439856,-0.005903,0.238013,-0.099472,0.025692,-0.999025,0.035915,-0.030926,-0.003295,0.007648,6.381531,-33.289307,-15.593506,,,,,,
1478502980.57,2.507815,1.526927,1.458196,-0.078209,0.294574,-0.089304,0.025971,-0.999038,0.035338,-0.035370,-0.024018,0.003694,6.381531,-33.289307,-15.593506,,,,,,
1478502980.59,2.478028,1.528839,1.495078,-0.172835,0.386271,-0.067602,0.025835,-0.999120,0.033044,-0.040239,-0.040873,0.003958,6.381165,-33.439270,-15.593384,,,,,,
1478502980.61,2.416630,1.533653,1.565321,-0.294307,0.467375,-0.018353,0.024625,-0.999310,0.027796,-0.025510,-0.030231,-0.019603,6.305969,-33.213745,-15.969116,,,,,,
1478502980.63,2.273208,1.538899,1.718887,-0.421036,0.533648,0.011720,0.024342,-0.999491,0.020604,-0.005620,-0.031148,-0.034871,7.055786,-33.213989,-16.038452,,,,,,
1478502980.65,2.000881,1.544750,2.002727,-0.553028,0.598893,0.031121,0.023672,-0.999661,0.010859,-0.006368,-0.070057,-0.062876,6.980408,-32.837952,-16.714355,,,,,,
1478502980.67,1.485742,1.547603,2.531135,-0.737971,0.696261,0.018247,0.023107,-0.999731,-0.001970,-0.026174,-0.122705,-0.104780,6.980408,-32.837952,-16.714355,,,,,,
1478502980.69,0.879686,1.540438,-3.130565,-0.992987,0.809855,-0.023778,0.023388,-0.999539,-0.019347,-0.049008,-0.155048,-0.154405,6.979553,-32.837280,-17.164307,,,,,,
1478502980.71,0.533145,1.521422,-2.767034,-1.304647,0.843923,-0.080896,0.025084,-0.998781,-0.042505,-0.055632,-0.185804,-0.170905,7.954895,-31.936401,-18.057373,,,,,,
1478502980.73,0.380103,1.494209,-2.598391,-1.533696,0.712964,-0.153277,0.028387,-0.997069,-0.071051,-0.009588,-0.121217,-0.123987,7.954407,-31.485168,-18.882568,,,,,,
1478502980.75,0.316801,1.462731,-2.521746,-1.647328,0.656080,-0.242168,0.033600,-0.994167,-0.102488,0.112640,-0.075581,-0.042531,8.404785,-30.508789,-19.929688,,,,,,
1478502980.77,0.295316,1.428504,-2.484946,-1.748420,0.846855,-0.323916,0.041273,-0.989894,-0.135673,0.205477,-0.042653,0.047325,8.404785,-30.508789,-19.929688,,,,,,
1478502980.79,0.295999,1.393236,-2.465698,-1.717455,1.055246,-0.388997,0.051522,-0.984278,-0.168947,0.270957,0.014765,0.092531,8.403687,-29.981995,-21.129883,,,,,,
1478502980.81,0.306583,1.359921,-2.456367,-1.576141,0.878376,-0.428402,0.063172,-0.977848,-0.199556,0.231002,0.037464,0.037416,9.753723,-28.029053,-23.595825,,,,,,
1478502980.83,0.313640,1.328670,-2.451690,-1.478727,0.398588,-0.431394,0.073974,-0.970830,-0.228071,0.165818,-0.018336,0.066511,10.654907,-27.053528,-24.189575,,,,,,
1478502980.85,0.315779,1.299459,-2.451929,-1.341574,-0.046188,-0.466156,0.083235,-0.963413,-0.254767,0.110185,-0.075588,0.120215,10.955200,-26.452820,-24.787720,,,,,,
1478502980.87,0.315501,1.273499,-2.454678,-1.164391,-0.163797,-0.416037,0.090896,-0.956132,-0.278478,0.032364,-0.072433,0.141851,10.955200,-26.452820,-24.787720,,,,,,
1478502980.89,0.312944,1.251883,-2.454160,-0.958252,-0.055219,-0.270297,0.096525,-0.949577,-0.298307,-0.044768,-0.025323,0.176512,11.405762,-25.401489,-25.834839,,,,,,
1478502980.91,0.308980,1.235184,-2.449911,-0.739250,0.022538,-0.154246,0.100150,-0.944209,-0.313751,-0.052161,0.055140,0.159866,10.881042,-24.048828,-27.414429,,,,,,
1478502980.93,0.305358,1.222918,-2.446218,-0.532994,-0.029227,-0.116841,0.102488,-0.940098,-0.325133,-0.048609,0.113743,0.147765,11.106323,-23.673523,-27.712891,,,,,,
1478502980.95,0.302604,1.214341,-2.444575,-0.354338,-0.077689,-0.093431,0.103991,-0.937140,-0.333100,-0.047518,0.138571,0.161515,11.482117,-23.298584,-27.785278,,,,,,
1478502980.97,0.300134,1.209067,-2.444050,-0.202363,-0.110147,-0.053160,0.104628,-0.935286,-0.338072,-0.069777,0.154830,0.163420,11.482117,-23.298584,-27.785278,,,,,,
1478502980.99,0.297350,1.206640,-2.442187,-0.078934,-0.001193,0.031448,0.104351,-0.934424,-0.340532,-0.080745,0.149314,0.173875,11.032043,-23.072876,-28.088745,,,,,,
1478502981.01,0.296382,1.207341,-2.439100,0.077948,0.147071,0.069342,0.103830,-0.934674,-0.340005,-0.063043,0.172467,0.162729,10.881287,-23.222473,-28.314819,,,,,,
1478502981.03,0.298795,1.211263,-2.438039,0.247306,0.165633,0.084083,0.103570,-0.936061,-0.336248,-0.024057,0.211330,0.089971,11.031738,-23.147766,-28.163696,,,,,,
1478502981.05,0.300563,1.218875,-2.437241,0.437285,0.101091,0.161869,0.102052,-0.938712,-0.329249,0.054579,0.217917,-0.023076,10.956421,-23.147583,-28.314331,,,,,,
1478502981.07,0.295790,1.231258,-2.431716,0.641094,-0.048770,0.365472,0.097083,-0.942909,-0.318588,0.119119,0.192054,-0.112931,10.956421,-23.147583,-28.314331,,,,,,
1478502981.09,0.270492,1.248383,-2.409707,0.766762,-0.334733,0.723206,0.084666,-0.948473,-0.305336,0.173162,0.161334,-0.163170,11.030823,-23.447693,-28.238525,,,,,,
1478502981.11,0.219850,1.267595,-2.366560,0.766668,-0.576458,0.943925,0.065115,-0.954386,-0.291390,0.164454,0.099100,-0.203376,10.354919,-24.573853,-27.268066,,,,,,
1478502981.13,0.153583,1.284760,-2.313486,0.633882,-0.873532,0.887293,0.043164,-0.959370,-0.278830,0.187168,-0.015560,-0.297235,9.304504,-25.174072,-26.750610,,,,,,
1478502981.15,0.083936,1.293039,-2.256114,0.074905,-0.552705,0.846476,0.022988,-0.961673,-0.273234,0.118384,-0.273068,-0.454213,8.179993,-25.324158,-26.309082,,,,,,
1478502981.17,0.021535,1.289953,-2.198344,-0.230192,-0.317573,0.703927,0.005968,-0.960822,-0.277102,-0.055193,-0.146005,-0.384839,8.179993,-25.324158,-26.309082,,,,,,
1478502981.19,-0.017650,1.290927,-2.165044,0.279895,-0.419575,0.337504,-0.004875,-0.961092,-0.276187,0.007408,0.171007,-0.167325,6.530029,-24.947693,-26.771484,,,,,,
1478502981.21,-0.052253,1.307962,-2.143511,1.271553,-0.900007,0.262783,-0.013570,-0.965657,-0.259464,-0.004374,0.233937,0.033207,5.854187,-25.096924,-27.001587,,,,,,
1478502981.23,-0.114179,1.339449,-2.097197,1.584984,-0.574135,0.579101,-0.026123,-0.973358,-0.227796,-0.114777,-0.358810,0.068799,5.479858,-25.322693,-26.404297,,,,,,
1478502981.25,-0.186466,1.352695,-2.007407,0.333830,1.652119,1.048926,-0.040113,-0.976310,-0.212625,-0.406816,-1.159997,-0.052862,4.279419,-25.998047,-25.738037,,,,,,
1478502981.27,-0.206766,1.349706,-1.937366,-0.006335,2.495352,0.380462,-0.045020,-0.975659,-0.214623,0.001395,-0.854053,-0.102516,4.279419,-25.998047,-25.738037,,,,,,
1478502981.29,-0.153804,1.360262,-1.953489,0.854039,1.351310,-0.537054,-0.032016,-0.977919,-0.206516,0.376849,0.463744,0.093845,4.428284,-26.748718,-25.361450,,,,,,
1478502981.31,-0.106324,1.387675,-1.991822,1.540117,0.005104,-0.440752,-0.019325,-0.983280,-0.181072,0.431526,0.875629,0.507335,5.851624,-27.198975,-25.650513,,,,,,
1478502981.33,-0.139167,1.422428,-1.969318,1.812119,-0.714701,0.294214,-0.020506,-0.989014,-0.146396,0.132567,0.660080,0.463916,6.525940,-27.649719,-25.420288,,,,,,
1478502981.35,-0.318813,1.450605,-1.806656,1.424664,-1.053672,0.905752,-0.037582,-0.992786,-0.113860,-0.256027,-0.095471,0.086334,6.150513,-28.550781,-24.522583,,,,,,
1478502981.37,-0.537635,1.463941,-1.605857,0.941484,-0.828331,0.615339,-0.054617,-0.994296,-0.091606,-0.295984,-0.474759,-0.000542,6.150513,-28.550781,-24.522583,,,,,,
1478502981.39,-0.718840,1.474253,-1.435045,0.960649,-0.456822,0.313626,-0.063476,-0.995343,-0.072543,-0.121476,-0.150851,-0.010007,3.826233,-29.376770,-23.114624,,,,,,
1478502981.41,-0.921059,1.483009,-1.238911,0.930392,-0.262181,0.320615,-0.069811,-0.996149,-0.053041,-0.135680,0.187510,0.023134,3.224792,-30.427368,-22.518677,,,,,,
1478502981.43,-1.125751,1.485408,-1.033878,0.767460,0.129514,0.359575,-0.076977,-0.996357,-0.036715,-0.182560,0.155872,0.052004,2.924927,-30.577515,-22.295776,,,,,,
1478502981.45,-1.306113,1.484560,-0.846389,0.749575,0.398647,0.303713,-0.083130,-0.996284,-0.022532,-0.065231,0.048393,0.022517,2.774902,-31.028381,-21.696655,,,,,,
1478502981.47,-1.493724,1.481599,-0.651458,0.864161,0.239892,0.289681,-0.088815,-0.996025,-0.006859,0.047372,0.058296,0.005104,2.774902,-31.028381,-21.696655,,,,,,
1478502981.49,-1.678890,1.475379,-0.464975,0.846873,-0.099229,0.309264,-0.094717,-0.995451,0.010278,-0.034601,0.016768,-0.007822,2.623779,-31.929077,-21.172363,,,,,,
1478502981.51,-1.826111,1.466261,-0.321253,0.769638,-0.240388,0.315441,-0.100963,-0.994541,0.026352,-0.055501,-0.018322,-0.016053,2.399048,-32.154663,-20.723999,,,,,,
1478502981.53,-1.950978,1.456244,-0.199900,0.821444,-0.185137,0.238998,-0.106140,-0.993446,0.042416,0.034714,0.034858,-0.014630,1.799377,-32.229614,-20.503418,,,,,,
1478502981.55,-2.074787,1.445126,-0.078174,0.946656,-0.138649,0.173616,-0.109755,-0.992114,0.060529,0.084365,0.067523,0.025988,2.098572,-32.905579,-20.050781,,,,,,
1478502981.57,-2.195245,1.432238,0.040380,1.038661,-0.160079,0.099639,-0.112051,-0.990416,0.080749,0.021277,0.058379,0.062836,2.098572,-32.905579,-20.050781,,,,,,
1478502981.59,-2.302854,1.417733,0.145550,1.065302,-0.187777,0.082796,-0.113405,-0.988309,0.101909,-0.061095,0.072888,0.047078,1.723145,-33.731506,-19.228271,,,,,,
1478502981.61,-2.395018,1.401022,0.234263,1.119235,-0.264534,0.103435,-0.114746,-0.985623,0.124020,-0.072571,0.069867,0.011798,1.348389,-34.107239,-18.630859,,,,,,
1478502981.63,-2.472008,1.382652,0.306101,1.111377,-0.350652,0.119490,-0.116086,-0.982353,0.146651,-0.020053,0.040810,-0.024199,1.872498,-34.858215,-18.176514,,,,,,
1478502981.65,-2.532054,1.363900,0.359111,1.043735,-0.431301,0.158628,-0.117603,-0.978673,0.168429,0.022251,-0.006755,-0.061740,1.122864,-35.158691,-17.582031,,,,,,
1478502981.67,-2.579116,1.345385,0.397090,0.986823,-0.537453,0.171251,-0.119193,-0.974702,0.189073,0.034964,-0.018538,-0.106187,1.122864,-35.158691,-17.582031,,,,,,
1478502981.69,-2.621335,1.326830,0.429233,1.008182,-0.554501,0.153298,-0.120077,-0.970388,0.209594,0.053488,-0.031688,-0.085311,1.348816,-35.986023,-16.079834,,,,,,
1478502981.71,-2.661998,1.307590,0.459155,1.040022,-0.630046,0.130169,-0.120051,-0.965561,0.230825,0.075526,-0.021683,-0.085394,1.348022,-36.661743,-15.629517,,,,,,
1478502981.73,-2.700432,1.287609,0.484330,1.064995,-0.772615,0.145426,-0.119308,-0.960170,0.252665,0.109283,-0.011815,-0.127161,0.823303,-36.736816,-15.408447,,,,,,
1478502981.75,-2.737744,1.267152,0.504969,1.062230,-0.948031,0.148872,-0.117495,-0.954253,0.274947,0.092699,-0.005616,-0.170913,0.748230,-37.788696,-14.133545,,,,,,
1478502981.77,-2.774459,1.246270,0.521954,1.083078,-1.082051,0.147062,-0.114452,-0.947802,0.297611,0.056850,-0.032224,-0.208011,0.748230,-37.788696,-14.133545,,,,,,
1478502981.79,-2.811294,1.225927,0.536796,1.007333,-1.174239,0.112722,-0.109646,-0.941120,0.319799,-0.021183,-0.177060,-0.242819,0.973877,-38.465637,-12.931396,,,,,,
1478502981.81,-2.844146,1.208071,0.547048,0.847769,-1.139669,0.094761,-0.103992,-0.934933,0.339242,-0.162701,-0.170215,-0.266076,0.148560,-38.765503,-12.712524,,,,,,
1478502981.83,-2.871912,1.195407,0.555094,0.502968,-0.912986,-0.006478,-0.097680,-0.930365,0.353383,-0.202094,-0.157190,-0.228490,-0.002014,-39.366089,-12.263428,,,,,,
1478502981.85,-2.890004,1.192081,0.559597,-0.005993,-0.585964,-0.035320,-0.092041,-0.929141,0.358087,-0.068283,-0.185895,-0.251947,0.595215,-40.416321,-12.333374,,,,,,
1478502981.87,-2.897612,1.197063,0.555499,-0.385848,-0.634824,0.033989,-0.088195,-0.930971,0.354281,0.124862,-0.218031,-0.446886,0.595215,-40.416321,-12.333374,,,,,,
1478502981.89,-2.908123,1.206288,0.549060,-0.522896,-0.974444,-0.046085,-0.082476,-0.934299,0.346818,0.163546,-0.220776,-0.563722,1.269958,-40.040833,-12.928467,,,,,,
1478502981.91,-2.934714,1.223101,0.549114,-1.082655,-1.502748,-0.266579,-0.069988,-0.940160,0.333467,-0.078831,-0.511637,-0.479783,1.568542,-39.889587,-13.826294,,,,,,
1478502981.93,-2.968555,1.254201,0.556159,-1.722504,-1.201511,-0.503678,-0.053604,-0.950301,0.306684,0.110916,-0.236177,-0.307981,1.865845,-40.037964,-15.024048,,,,,,
1478502981.95,-3.011411,1.295108,0.578756,-2.144670,-1.037127,-0.704245,-0.035337,-0.962238,0.269906,0.043897,-0.369702,-0.235009,4.034424,-39.057373,-19.433228,,,,,,
1478502981.97,-3.070466,1.343914,0.616384,-2.533079,-1.176245,-0.680620,-0.015986,-0.974373,0.224372,0.024271,-0.309014,-0.165809,4.034424,-39.057373,-19.433228,,,,,,
1478502981.99,-3.128444,1.397477,0.653540,-2.731670,-0.988039,-0.333906,-0.002267,-0.985018,0.172438,0.023508,-0.251844,0.034914,6.506836,-38.079895,-21.965210,,,,,,
1478502982.01,3.137994,1.450655,0.654807,-2.612263,-0.659756,0.176146,0.000431,-0.992792,0.119851,-0.031300,-0.344534,0.286261,7.480652,-36.576660,-24.433716,,,,,,
1478502982.03,-3.039491,1.499871,0.540482,-2.453300,-0.245229,0.541511,-0.007223,-0.997486,0.070497,-0.144236,-0.334103,0.300002,9.504089,-34.998474,-27.194336,,,,,,
1478502982.05,-2.392191,1.541545,-0.106602,-2.504743,0.212913,0.676787,-0.019923,-0.999572,0.021412,-0.287236,-0.295792,0.220821,12.356140,-31.244446,-30.849609,,,,,,
1478502982.07,-0.818616,1.525761,-1.670713,-2.682595,0.709041,0.604798,-0.032873,-0.998986,-0.030759,-0.203668,-0.221809,0.213285,12.356140,-31.244446,-30.849609,,,,,,
1478502982.09,-0.434746,1.476181,-2.034813,-2.744949,1.200976,0.288615,-0.039791,-0.995527,-0.085686,-0.025029,-0.132067,0.252038,14.233826,-29.293640,-31.961548,,,,,,
1478502982.11,-0.268326,1.424837,-2.175783,-2.697688,1.369346,-0.020087,-0.038559,-0.989367,-0.140237,0.019638,-0.018888,0.271570,16.187805,-27.569519,-32.097900,,,,,,
1478502982.13,-0.159807,1.372910,-2.258998,-2.704192,1.311296,-0.205193,-0.031284,-0.980484,-0.194092,0.045490,0.035736,0.296235,18.369080,-25.396179,-31.707520,,,,,,
1478502982.15,-0.081599,1.321647,-2.312120,-2.562710,1.361001,-0.315199,-0.020098,-0.969122,-0.245759,0.042864,0.079962,0.351198,21.381592,-21.274414,-30.562012,,,,,,
1478502982.17,-0.019413,1.274805,-2.347557,-2.254240,1.427082,-0.373216,-0.005662,-0.956513,-0.291633,0.026017,0.111299,0.386085,21.381592,-21.274414,-30.562012,,,,,,
1478502982.19,0.029320,1.234628,-2.369657,-1.875536,1.354541,-0.326316,0.009670,-0.944026,-0.329731,-0.007534,0.149104,0.386814,22.586487,-19.850952,-29.878662,,,,,,
1478502982.21,0.061289,1.202175,-2.376893,-1.476871,1.209332,-0.104617,0.022070,-0.932825,-0.359653,-0.017966,0.206263,0.399951,23.266785,-18.427551,-29.049316,,,,,,
1478502982.23,0.076269,1.178044,-2.369755,-1.062489,0.997087,0.121528,0.029162,-0.923859,-0.381620,0.003034,0.259339,0.392438,23.348755,-17.230591,-27.024292,,,,,,
1478502982.25,0.080713,1.163247,-2.358558,-0.569973,0.573336,0.170653,0.031957,-0.918095,-0.395071,0.053294,0.297749,0.395330,23.651001,-16.856689,-26.422241,,,,,,
1478502982.27,0.075280,1.158545,-2.348041,-0.060879,-0.009914,0.205209,0.030134,-0.916221,-0.399538,0.106798,0.333091,0.404833,23.651001,-16.856689,-26.422241,,,,,,
1478502982.29,0.057991,1.163626,-2.336172,0.417321,-0.491104,0.296923,0.022952,-0.918245,-0.395347,0.125745,0.376436,0.438682,23.127136,-17.082764,-25.526001,,,,,,
1478502982.31,0.026557,1.177674,-2.317422,0.828254,-0.847854,0.482818,0.010172,-0.923717,-0.382940,0.098806,0.389873,0.445241,22.378113,-17.233398,-24.856689,,,,,,
1478502982.33,-0.021086,1.198380,-2.283767,1.155898,-0.806867,0.751746,-0.007672,-0.931451,-0.363786,0.034878,0.352075,0.407610,19.903015,-18.584595,-23.224365,,,,,,
1478502982.35,-0.088075,1.222879,-2.226533,1.322325,-0.527248,1.040714,-0.029989,-0.940085,-0.339619,-0.083917,0.241126,0.147663,19.002319,-19.335083,-22.630859,,,,,,
1478502982.37,-0.152092,1.242754,-2.150896,0.939510,1.125884,1.172350,-0.048814,-0.946675,-0.318471,-0.214888,-0.274135,-0.386058,19.002319,-19.335083,-22.630859,,,,,,
1478502982.39,-0.179245,1.244385,-2.084551,-0.156381,1.961282,0.907447,-0.057167,-0.947199,-0.315509,-0.177254,-0.864309,-1.400830,17.801392,-20.460938,-21.664307,,,,,,
1478502982.41,-0.178415,1.236117,-2.051703,-0.282100,1.314112,0.376557,-0.058293,-0.944516,-0.323252,0.102086,-0.322086,-0.629598,17.802612,-21.062927,-20.313965,,,,,,
1478502982.43,-0.167381,1.237345,-2.044107,0.387373,0.481218,0.007864,-0.054529,-0.944918,-0.322732,0.388514,0.137515,-0.185661,16.828613,-21.213501,-19.646240,,,,,,
1478502982.45,-0.183775,1.258699,-2.039789,1.399938,-1.255690,-0.194698,-0.056112,-0.951692,-0.301885,0.367529,0.045304,0.270986,15.852112,-21.662781,-19.803345,,,,,,
1478502982.47,-0.209527,1.280419,-2.031736,0.529190,-0.422125,0.163307,-0.059553,-0.958136,-0.280052,-0.123095,-0.898340,-0.020149,15.852112,-21.662781,-19.803345,,,,,,
1478502982.49,-0.255970,1.276564,-1.960713,0.123780,2.207234,1.388702,-0.073425,-0.957025,-0.280556,-0.551682,-1.100989,0.597512,14.876770,-21.887329,-19.735474,,,,,,
1478502982.51,-0.260813,1.286249,-1.904179,1.094122,2.286119,0.094161,-0.072389,-0.959789,-0.271229,-0.000548,0.267162,0.671208,13.751770,-22.037170,-19.518921,,,,,,
1478502982.53,-0.226887,1.317239,-1.917488,1.550632,0.329950,-0.748759,-0.056427,-0.968026,-0.244420,0.297791,0.918283,0.626271,13.450256,-23.012634,-19.070679,,,,,,
1478502982.55,-0.219229,1.352710,-1.920358,1.898943,0.467037,-0.153063,-0.047054,-0.976313,-0.211183,0.238719,0.677836,0.767533,13.823975,-23.537903,-19.067627,,,,,,
1478502982.57,-0.266668,1.392407,-1.856466,2.118098,0.831301,0.269129,-0.046760,-0.984131,-0.171173,-0.104546,-0.046738,0.595382,13.823975,-23.537903,-19.067627,,,,,,
1478502982.59,-0.365853,1.425691,-1.744283,1.682723,0.367007,0.296185,-0.051729,-0.989491,-0.135027,-0.185500,-0.530788,0.181963,13.598694,-24.289001,-18.243896,,,,,,
1478502982.61,-0.465756,1.452216,-1.637373,1.463267,0.285176,0.080075,-0.053130,-0.992978,-0.105701,0.053298,-0.205402,-0.057186,14.423645,-25.115845,-17.262329,,,,,,
1478502982.63,-0.638419,1.476745,-1.461976,1.598570,-0.129017,0.187899,-0.055965,-0.995580,-0.075416,0.112652,0.135671,-0.039483,14.498535,-26.543457,-15.536011,,,,,,
1478502982.65,-0.962716,1.496174,-1.148171,1.591367,-0.791508,0.287866,-0.061190,-0.997217,-0.042592,-0.004606,0.187677,-0.009563,14.273743,-26.994324,-14.862427,,,,,,
1478502982.67,-1.400184,1.498848,-0.725372,1.429000,-0.732994,0.561526,-0.070843,-0.997413,-0.012205,-0.114384,0.006415,0.016371,14.273743,-26.994324,-14.862427,,,,,,
1478502982.69,-1.777958,1.486584,-0.361554,1.460624,-0.848959,0.550167,-0.082315,-0.996456,0.017301,-0.081565,0.026089,-0.100507,13.748230,-27.594910,-14.341064,,,,,,
1478502982.71,-2.076271,1.468337,-0.083799,1.564287,-1.196505,0.303237,-0.089489,-0.994756,0.049526,0.060101,0.052739,-0.073513,13.448120,-28.496277,-13.292969,,,,,,
1478502982.73,-2.296291,1.447770,0.115778,1.462801,-0.973676,0.132021,-0.091813,-0.992442,0.081423,0.003769,-0.029317,0.066984,12.773865,-29.849121,-11.197388,,,,,,
1478502982.75,-2.442338,1.427555,0.247776,1.274750,-0.659305,0.055994,-0.091882,-0.989759,0.109251,-0.219825,0.013349,0.051546,12.248901,-30.374817,-10.526001,,,,,,
1478502982.77,-2.537690,1.407781,0.334368,1.160400,-0.393213,0.092218,-0.092160,-0.986742,0.133589,-0.259234,0.052950,0.023531,12.248901,-30.374817,-10.526001,,,,,,
1478502982.79,-2.606018,1.387572,0.398310,1.163359,-0.208184,0.063211,-0.092984,-0.983261,0.156689,-0.111042,0.082321,0.029102,11.724426,-31.051331,-9.404663,,,,,,
1478502982.81,-2.665281,1.367105,0.455094,1.157526,-0.183579,-0.012437,-0.092749,-0.979326,0.179770,0.029532,0.018633,-0.009512,12.101868,-31.729492,-7.376343,,,,,,
1478502982.83,-2.718712,1.347556,0.505314,1.089551,-0.239592,-0.076596,-0.090856,-0.975185,0.201888,0.024633,-0.036671,-0.034789,12.101929,-32.405884,-6.475952,,,,,,
1478502982.85,-2.764803,1.329363,0.546344,0.999623,-0.345635,-0.065219,-0.087972,-0.970996,0.222322,0.045018,0.033405,-0.062486,11.653076,-32.631836,-5.654297,,,,,,
1478502982.87,-2.806238,1.311030,0.581145,1.026023,-0.455181,-0.089390,-0.084532,-0.966450,0.242546,0.099409,0.004750,-0.152840,11.653076,-32.631836,-5.654297,,,,,,
1478502982.89,-2.844923,1.291910,0.608538,1.027870,-0.724278,-0.024036,-0.080476,-0.961363,0.263260,0.087861,-0.059298,-0.216339,11.429688,-32.632935,-4.831055,,,,,,
1478502982.91,-2.882332,1.272186,0.628454,1.038344,-1.031608,0.003102,-0.075421,-0.955746,0.284360,0.030179,-0.090869,-0.288846,11.356873,-33.235779,-2.956299,,,,,,
,,,,,,,,,,,,,,,,37.392598,-122.003843,10.837952,-1.000000,-1.000000,1478502982.90
1478502982.93,-2.920774,1.252625,0.644489,0.988673,-1.233433,-0.003251,-0.068519,-0.949809,0.305234,-0.014260,-0.125356,-0.323010,10.983887,-33.161926,-2.059082,,,,,,
,,,,,,,,,,,,,,,,37.392598,-122.003843,10.837952,-1.000000,-1.000000,1478502982.92
1478502982.95,-2.958128,1.234017,0.657302,0.941794,-1.271518,-0.023675,-0.060286,-0.943824,0.324903,-0.015977,-0.121469,-0.320341,10.159973,-33.462830,-1.165161,,,,,,
1478502982.97,-2.995361,1.216834,0.671071,0.849181,-1.176371,-0.152069,-0.050506,-0.938007,0.342918,-0.039506,-0.047360,-0.285163,10.159973,-33.462830,-1.165161,,,,,,
1478502982.99,-3.034865,1.204664,0.690423,0.478934,-1.007986,-0.305519,-0.038137,-0.933719,0.355969,-0.111613,-0.140225,-0.214047,9.786133,-33.613831,-0.417725,,,,,,
1478502983.01,-3.065684,1.202660,0.705881,-0.065899,-0.705479,-0.233394,-0.027291,-0.933000,0.358841,-0.046256,-0.248107,-0.216629,9.186157,-34.214722,0.402954,,,,,,
1478502983.03,-3.088249,1.208485,0.717257,-0.377620,-0.586460,-0.233159,-0.018898,-0.935080,0.353932,0.090446,-0.147043,-0.434483,8.885803,-34.364563,0.400757,,,,,,
1478502983.05,-3.122434,1.218415,0.737123,-0.560633,-0.976654,-0.486921,-0.006612,-0.938553,0.345071,-0.072566,-0.358795,-0.543450,8.136108,-34.289307,0.470215,,,,,,
1478502983.07,3.097096,1.237212,0.778461,-1.259736,-1.238623,-0.762875,0.014565,-0.944875,0.327107,-0.306191,-0.562571,-0.400517,8.136108,-34.289307,0.470215,,,,,,
1478502983.09,3.019138,1.270782,0.842321,-2.040594,-0.629794,-0.936284,0.036099,-0.955332,0.293321,-0.168393,-0.389410,-0.334428,7.906738,-34.736694,-1.181396,,,,,,
1478502983.11,2.910984,1.313222,0.948430,-2.504392,-0.165488,-1.125826,0.058225,-0.967011,0.247992,0.042193,-0.205063,-0.188055,8.503052,-35.109985,-2.526733,,,,,,
1478502983.13,2.759171,1.355881,1.102201,-2.593597,-0.150479,-0.992149,0.079584,-0.976994,0.197860,0.028006,-0.148173,-0.083739,8.948730,-35.106995,-4.698364,,,,,,
1478502983.15,2.584401,1.393382,1.274160,-2.317999,-0.389514,-0.393086,0.093326,-0.984303,0.149791,-0.176120,-0.220332,0.101857,9.094482,-35.179016,-6.722290,,,,,,
1478502983.17,2.430588,1.431168,1.423765,-2.254576,-0.163779,0.494711,0.090825,-0.990268,0.105454,-0.362569,-0.355832,0.228012,9.094482,-35.179016,-6.722290,,,,,,
1478502983.19,2.229825,1.476373,1.632068,-2.573917,0.622211,0.894140,0.074539,-0.995545,0.057734,-0.482147,-0.446181,0.288274,9.315857,-35.026062,-8.745483,,,,,,
1478502983.21,1.663930,1.512526,2.221169,-2.758711,1.375835,0.713142,0.057985,-0.998303,0.005416,-0.453219,-0.314747,0.293137,7.658752,-34.794495,-12.583252,,,,,,
1478502983.23,0.789701,1.503871,3.131296,-2.703294,1.889557,0.485926,0.047491,-0.997761,-0.047084,-0.256918,-0.151622,0.296611,7.280518,-34.416138,-14.686157,,,,,,
1478502983.25,0.417665,1.464447,-2.739367,-2.555969,1.967002,0.308847,0.043057,-0.994350,-0.097024,-0.197262,0.023647,0.212564,7.502686,-33.587585,-17.160034,,,,,,
1478502983.27,0.284839,1.420137,-2.567677,-2.409151,1.836897,0.267272,0.042176,-0.988672,-0.144043,-0.235306,0.038828,0.241592,7.502686,-33.587585,-17.160034,,,,,,
1478502983.29,0.224928,1.377610,-2.470277,-2.190837,1.830858,0.275932,0.042820,-0.981397,-0.187151,-0.263691,0.037428,0.338549,8.398254,-32.081909,-21.203979,,,,,,
1478502983.31,0.197951,1.339575,-2.403133,-1.926215,2.024484,0.316478,0.045068,-0.973387,-0.224692,-0.277795,0.035139,0.411413,9.298157,-30.579468,-23.147949,,,,,,
1478502983.33,0.180481,1.306151,-2.342342,-1.705415,2.115949,0.493195,0.046952,-0.965185,-0.257318,-0.238206,0.054083,0.419123,9.972656,-29.903137,-24.268188,,,,,,
1478502983.35,0.159666,1.277720,-2.278335,-1.475112,1.970211,0.721420,0.045932,-0.957360,-0.285224,-0.179919,0.116112,0.383857,10.872131,-28.851196,-25.837158,,,,,,
1478502983.37,0.133398,1.254847,-2.212440,-1.160297,1.755264,0.854411,0.041327,-0.950502,-0.307958,-0.120611,0.194871,0.387731,10.872131,-28.851196,-25.837158,,,,,,
1478502983.39,0.107654,1.238662,-2.151511,-0.781945,1.523311,0.868553,0.035034,-0.945349,-0.324174,-0.051208,0.214483,0.435441,11.771851,-27.874634,-27.180786,,,,,,
1478502983.41,0.086529,1.229602,-2.098924,-0.396319,1.391421,0.797422,0.028918,-0.942356,-0.333361,-0.000475,0.238285,0.480669,12.670166,-27.948975,-27.924072,,,,,,
1478502983.43,0.068617,1.227572,-2.052452,-0.033546,1.239288,0.792196,0.023073,-0.941675,-0.335733,0.023390,0.244897,0.482614,12.894409,-27.948547,-28.297363,,,,,,
1478502983.45,0.043151,1.231436,-2.000608,0.235673,1.124385,0.947138,0.014360,-0.942968,-0.332574,0.010359,0.246557,0.461191,13.344788,-27.798767,-28.294067,,,,,,
1478502983.47,0.002069,1.239445,-1.936451,0.475464,0.901055,1.147857,0.000673,-0.945604,-0.325320,-0.033571,0.186586,0.351840,13.344788,-27.798767,-28.294067,,,,,,
1478502983.49,-0.054501,1.251131,-1.858740,0.700625,0.893760,1.253427,-0.017119,-0.949341,-0.313782,-0.037905,0.123764,0.193756,13.493896,-28.699829,-27.617432,,,,,,
1478502983.51,-0.101761,1.266059,-1.783164,0.923015,1.530365,0.969459,-0.030480,-0.953926,-0.298490,0.048669,0.080864,0.084837,12.892578,-29.525146,-27.246582,,,,,,
1478502983.53,-0.115127,1.281146,-1.727312,0.627029,2.233558,0.653799,-0.032810,-0.958344,-0.283727,0.089176,-0.057602,-0.358256,12.592102,-30.501465,-26.273315,,,,,,
1478502983.55,-0.120009,1.276839,-1.676548,-0.489332,2.112329,0.912910,-0.034688,-0.957105,-0.287658,-0.137614,-0.462741,-1.144868,14.018311,-30.803589,-25.287598,,,,,,
1478502983.57,-0.156364,1.266043,-1.603052,-0.205744,1.528239,1.233642,-0.046727,-0.953921,-0.296398,-0.230983,-0.056272,-0.657277,14.018311,-30.803589,-25.287598,,,,,,
1478502983.59,-0.221664,1.267723,-1.520525,0.645212,0.064901,1.133032,-0.065616,-0.954424,-0.291152,0.112903,0.133272,-0.251130,15.293640,-30.579041,-25.428101,,,,,,
1478502983.61,-0.303235,1.287475,-1.441638,1.572872,-0.183968,0.689290,-0.083475,-0.960132,-0.266792,0.065195,0.044880,0.271934,14.616211,-31.553650,-25.432739,,,,,,
1478502983.63,-0.358427,1.301557,-1.367094,0.387851,1.528044,0.857943,-0.093312,-0.963974,-0.249094,-0.355677,-0.803330,-0.034079,13.639771,-32.528992,-24.914551,,,,,,
1478502983.65,-0.347010,1.303691,-1.310630,0.593120,4.244847,0.216236,-0.089763,-0.964539,-0.248208,-0.540425,-1.268020,0.451714,14.389832,-33.957092,-23.108032,,,,,,
1478502983.67,-0.244909,1.324687,-1.339376,1.070723,3.124860,-0.976996,-0.059073,-0.969868,-0.236362,0.234519,0.002155,1.004475,14.389832,-33.957092,-23.108032,,,,,,
1478502983.69,-0.154757,1.351588,-1.391861,1.290200,1.492798,-0.700794,-0.033519,-0.976070,-0.214859,0.679897,1.079067,0.952453,17.015381,-34.635132,-21.963013,,,,,,
1478502983.71,-0.108595,1.383985,-1.403026,1.784439,1.977014,-0.078212,-0.020129,-0.982601,-0.184633,0.353122,0.854016,0.371294,19.041809,-34.637146,-21.272949,,,,,,
1478502983.73,-0.162711,1.421166,-1.320713,1.972682,0.709712,0.797641,-0.024149,-0.988826,-0.147103,-0.429388,-0.409642,0.205346,19.944519,-34.940186,-19.540894,,,,,,
1478502983.75,-0.382026,1.452361,-1.106008,1.831177,-0.720861,0.820332,-0.044050,-0.992995,-0.109641,-0.259295,-0.929918,0.168936,20.020386,-37.119934,-16.389282,,,,,,
1478502983.77,-0.595782,1.480759,-0.899169,1.716541,-0.187516,0.029031,-0.050457,-0.995949,-0.074424,0.076046,-0.081748,0.042320,20.020386,-37.119934,-16.389282,,,,,,
1478502983.79,-0.859540,1.507440,-0.635298,1.640333,-0.012644,-0.122812,-0.047963,-0.997994,-0.041331,-0.001292,0.330025,-0.022161,19.121033,-37.946472,-15.045532,,,,,,
1478502983.81,-1.392851,1.519982,-0.101712,1.643248,-0.017585,0.260431,-0.049990,-0.998709,-0.008991,-0.134550,0.281790,0.057391,19.423035,-38.173645,-13.768311,,,,,,
1478502983.83,-1.976733,1.506830,0.482776,1.776974,-0.031208,0.503892,-0.058728,-0.997955,0.025242,-0.145694,0.069427,0.062679,19.272644,-39.300415,-12.493896,,,,,,
1478502983.85,-2.316167,1.480457,0.820565,1.805579,-0.191419,0.269039,-0.066295,-0.995922,0.061189,0.024012,-0.035267,0.041930,18.450684,-40.429443,-9.574463,,,,,,
1478502983.87,-2.529435,1.453890,1.031571,1.656633,-0.114869,-0.060826,-0.067026,-0.993174,0.095460,0.030206,-0.056539,0.060393,18.450684,-40.429443,-9.574463,,,,,,
1478502983.89,-2.668049,1.429166,1.171590,1.464031,0.082605,-0.155861,-0.064374,-0.989987,0.125624,-0.118487,-0.046054,0.031770,18.452393,-40.956665,-8.074097,,,,,,
1478502983.91,-2.759038,1.405546,1.265870,1.342757,0.109599,-0.168278,-0.061406,-0.986377,0.152608,-0.218699,0.027515,-0.029958,18.003235,-41.558228,-6.877197,,,,,,
1478502983.93,-2.821132,1.382157,1.330274,1.287683,0.037344,-0.089697,-0.059070,-0.982260,0.177976,-0.149456,0.037100,-0.082349,18.679199,-41.934937,-5.971924,,,,,,
1478502983.95,-2.859097,1.357632,1.368497,1.303483,-0.067144,0.051063,-0.058971,-0.977366,0.203168,-0.008152,-0.039021,-0.084058,18.608643,-41.938293,-3.722534,,,,,,
1478502983.97,-2.885383,1.331850,1.391971,1.328171,-0.249090,0.089798,-0.059978,-0.971588,0.228953,0.081585,-0.050995,-0.046824,18.608643,-41.938293,-3.722534,,,,,,
1478502983.99,-2.915012,1.306125,1.414653,1.320539,-0.484899,-0.014206,-0.058766,-0.965178,0.254906,0.113041,-0.018907,-0.039711,18.611450,-41.790039,-2.522583,,,,,,
1478502984.01,-2.952428,1.281125,1.439650,1.289043,-0.789788,-0.088430,-0.053711,-0.958338,0.280542,0.074264,0.054163,-0.085001,18.762817,-42.016541,-1.546265,,,,,,
1478502984.03,-2.987808,1.256465,1.457106,1.248277,-1.019449,-0.001015,-0.047360,-0.951003,0.305532,0.019421,0.020232,-0.154638,18.614380,-42.243103,-0.497314,,,,,,
1478502984.05,-3.014824,1.232377,1.462775,1.188554,-1.130033,0.118049,-0.041974,-0.943281,0.329332,-0.013476,-0.081881,-0.209887,18.768127,-42.245972,1.378906,,,,,,
1478502984.07,-3.038189,1.209270,1.463844,1.119309,-1.145741,0.109176,-0.036509,-0.935358,0.351813,-0.048940,-0.151297,-0.290229,18.768127,-42.245972,1.378906,,,,,,
1478502984.09,-3.062182,1.189206,1.464384,0.927647,-1.190763,0.068805,-0.029541,-0.928073,0.371224,-0.069366,-0.181652,-0.354652,18.244202,-42.471985,2.200073,,,,,,
1478502984.11,-3.085355,1.173002,1.464697,0.755624,-1.116764,0.020910,-0.021774,-0.921918,0.386773,-0.087555,-0.140842,-0.413080,18.020386,-42.397644,2.723267,,,,,,
1478502984.13,-3.111916,1.160874,1.470965,0.495224,-1.008106,-0.185007,-0.011825,-0.917152,0.398362,-0.111557,-0.090279,-0.395372,18.020630,-42.698425,3.248413,,,,,,
1478502984.15,3.139994,1.156760,1.485195,0.035283,-0.846924,-0.309133,0.000643,-0.915504,0.402307,-0.083086,-0.162544,-0.371088,18.322510,-42.474426,3.850586,,,,,,
1478502984.17,3.115889,1.159652,1.497127,-0.216998,-0.570970,-0.186393,0.010271,-0.916664,0.399527,-0.146777,-0.253380,-0.459555,18.322510,-42.474426,3.850586,,,,,,
1478502984.19,3.089521,1.167226,1.510357,-0.608271,-0.909658,-0.327477,0.020439,-0.919665,0.392172,-0.454094,-0.663328,-0.489615,18.547729,-42.324463,3.777222,,,,,,
1478502984.21,3.047691,1.191005,1.537729,-1.578855,-0.598992,-0.481248,0.034761,-0.928742,0.369094,-0.293458,-0.489837,-0.366149,18.396362,-42.548828,3.401245,,,,,,
1478502984.23,3.004138,1.228536,1.582223,-2.171787,0.166540,-0.635766,0.045987,-0.941999,0.332451,-0.049161,-0.348758,-0.335671,19.367004,-42.320618,0.933472,,,,,,
1478502984.25,2.938825,1.275270,1.658661,-2.722441,0.419611,-0.853141,0.058651,-0.956649,0.285277,0.139149,-0.294526,-0.286314,20.262451,-42.167358,-1.534912,,,,,,
1478502984.27,2.837617,1.326257,1.769010,-2.854589,0.060435,-0.705355,0.072467,-0.970249,0.231010,0.080517,-0.224118,-0.144645,20.262451,-42.167358,-1.534912,,,,,,
1478502984.29,2.714665,1.374237,1.890646,-2.647306,-0.306930,-0.156504,0.080867,-0.980744,0.177766,-0.064876,-0.344436,0.111449,21.160339,-41.489990,-3.403564,,,,,,
1478502984.31,2.595435,1.422690,2.007629,-2.639633,-0.052898,0.462690,0.076647,-0.989052,0.126099,-0.122514,-0.501228,0.211594,21.156799,-40.886169,-5.953857,,,,,,
1478502984.33,2.434477,1.474731,2.176172,-2.787783,0.538084,0.804810,0.062313,-0.995389,0.072921,-0.300746,-0.447589,0.265824,21.149109,-40.053894,-10.829346,,,,,,
1478502984.35,1.912909,1.523709,2.716005,-3.009126,1.041539,0.877342,0.044342,-0.998892,0.015791,-0.348893,-0.272288,0.278139,20.397400,-39.526245,-12.335327,,,,,,
1478502984.37,0.590544,1.517834,-2.217604,-3.061828,1.461998,0.681609,0.029477,-0.998598,-0.043972,-0.223202,-0.159407,0.289349,20.397400,-39.526245,-12.335327,,,,,,
1478502984.39,0.211743,1.465054,-1.805334,-3.010046,1.695215,0.367511,0.022182,-0.994415,-0.103188,-0.176296,-0.062455,0.295235,20.543945,-39.072815,-14.659302,,,,,,
1478502984.41,0.142577,1.407633,-1.700786,-2.930363,1.750728,0.092160,0.023082,-0.986718,-0.160792,-0.146083,-0.027778,0.318675,20.542725,-37.944763,-16.685059,,,,,,
1478502984.43,0.135690,1.351995,-1.658327,-2.759273,1.747170,-0.012280,0.029363,-0.976158,-0.215065,-0.151433,-0.002434,0.393776,21.965759,-35.539551,-20.650513,,,,,,
1478502984.45,0.139549,1.300769,-1.627405,-2.506448,1.677111,0.063731,0.037105,-0.963764,-0.264164,-0.161388,0.048908,0.457707,22.866943,-34.188293,-21.769409,,,,,,
1478502984.47,0.142980,1.256299,-1.595152,-2.139665,1.717133,0.206199,0.044079,-0.950952,-0.306182,-0.156628,0.099267,0.509200,22.866943,-34.188293,-21.769409,,,,,,
1478502984.49,0.141422,1.220470,-1.559193,-1.705686,1.585662,0.409975,0.048375,-0.939261,-0.339778,-0.139943,0.157935,0.515757,23.918030,-32.686768,-23.112305,,,,,,
1478502984.51,0.132960,1.193764,-1.520012,-1.254802,1.302218,0.551269,0.048807,-0.929761,-0.364913,-0.082117,0.241392,0.513214,24.819092,-31.711304,-23.780884,,,,,,
1478502984.53,0.121096,1.176600,-1.483628,-0.746904,0.972014,0.577982,0.046395,-0.923306,-0.381253,-0.014260,0.291790,0.515546,25.644958,-30.585266,-24.750366,,,,,,
1478502984.55,0.108676,1.169982,-1.453348,-0.185144,0.668357,0.524048,0.042319,-0.920744,-0.387866,0.055506,0.329084,0.544681,25.869812,-30.660400,-24.748657,,,,,,
1478502984.57,0.095303,1.174471,-1.429459,0.388022,0.287041,0.476682,0.036734,-0.922486,-0.384279,0.079706,0.399643,0.569399,25.869812,-30.660400,-24.748657,,,,,,
1478502984.59,0.073524,1.188108,-1.403738,0.769805,0.034662,0.612227,0.027430,-0.927664,-0.372407,0.058263,0.404532,0.532853,25.570129,-30.510193,-24.750977,,,,,,
1478502984.61,0.038244,1.207781,-1.364785,1.066876,0.117261,0.853246,0.013577,-0.934830,-0.354835,-0.012829,0.341630,0.386482,25.795044,-31.036194,-24.148926,,,,,,
1478502984.63,-0.002118,1.231859,-1.314660,1.236173,0.445176,0.880289,-0.000704,-0.943108,-0.332485,-0.123960,0.152902,0.045039,24.818237,-32.837769,-22.805420,,,,,,
1478502984.65,-0.031282,1.251645,-1.264996,0.792369,1.186855,0.714918,-0.009813,-0.949502,-0.313607,-0.085188,-0.207145,-0.435661,24.368286,-33.739136,-21.683350,,,,,,
1478502984.67,-0.043663,1.253995,-1.222662,-0.283798,1.384946,0.687413,-0.013598,-0.950237,-0.311232,-0.059889,-0.790654,-1.454103,24.368286,-33.739136,-21.683350,,,,,,
1478502984.69,-0.065014,1.245218,-1.168463,-0.332652,1.468750,0.880756,-0.020781,-0.947466,-0.319181,-0.105837,-0.334837,-0.799624,24.444336,-34.115784,-20.632568,,,,,,
1478502984.71,-0.078345,1.244073,-1.131196,0.290787,0.721210,0.425456,-0.025119,-0.947099,-0.319957,0.267199,0.143663,-0.264988,24.445984,-33.966736,-20.032715,,,,,,
1478502984.73,-0.092627,1.263171,-1.118602,1.472913,-0.541600,-0.051537,-0.028007,-0.953055,-0.301498,0.295310,0.397025,0.193817,24.369812,-34.792358,-19.582886,,,,,,
1478502984.75,-0.118978,1.296840,-1.111351,1.422665,-0.765891,0.021979,-0.032113,-0.962708,-0.268629,0.048791,-0.105972,0.622633,24.594604,-35.092896,-19.281006,,,,,,
1478502984.77,-0.160149,1.293295,-1.057537,-0.450823,1.601614,1.113030,-0.043686,-0.961743,-0.270448,-0.844665,-2.017459,-0.184829,24.594604,-35.092896,-19.281006,,,,,,
1478502984.79,-0.140443,1.297968,-1.014054,0.696658,3.552921,-0.033294,-0.037719,-0.963013,-0.266803,0.138137,-0.783997,0.796832,24.370850,-35.319092,-18.382568,,,,,,
1478502984.81,-0.028711,1.324976,-1.075293,1.494320,1.410456,-1.361601,-0.006986,-0.969938,-0.243252,0.393262,0.955198,0.773937,25.272034,-36.597900,-16.200195,,,,,,
1478502984.83,0.100122,1.357436,-1.203172,1.894166,0.183924,-1.081831,0.021165,-0.977325,-0.210684,0.375686,1.361282,0.810355,26.850342,-36.601135,-14.538330,,,,,,
1478502984.85,0.159583,1.399963,-1.245800,2.258845,1.106110,0.402681,0.027015,-0.985443,-0.167843,-0.063956,0.910309,0.569516,27.378662,-36.378418,-13.184448,,,,,,
1478502984.87,0.073859,1.443592,-1.147373,1.881352,0.007674,1.211299,0.009361,-0.991920,-0.126516,-0.434120,-0.684990,0.204213,27.378662,-36.378418,-13.184448,,,,,,
1478502984.89,-0.021583,1.478773,-1.056092,1.686342,-0.219312,0.070494,-0.001983,-0.995769,-0.091872,-0.334366,-0.916493,0.059737,28.205200,-37.356873,-11.152832,,,,,,
1478502984.91,0.008610,1.511140,-1.086551,1.630215,0.107630,-0.141083,0.000513,-0.998221,-0.059619,0.073660,-0.000253,-0.102307,27.232422,-38.635437,-8.459473,,,,,,
1478502984.93,0.077155,1.543684,-1.156847,1.640973,-0.268959,-0.027613,0.002090,-0.999632,-0.027028,0.005067,0.317824,-0.148280,27.234741,-38.862610,-7.034302,,,,,,
1478502984.95,-2.868037,1.565938,1.781747,1.565333,-0.269318,0.313676,-0.001312,-0.999988,0.004677,-0.140274,0.202640,-0.017556,26.636047,-39.239014,-5.913574,,,,,,
1478502984.97,-2.825590,1.533860,1.735376,1.540465,-0.189986,0.586995,-0.011476,-0.999318,0.035100,-0.247542,0.075978,-0.066899,26.636047,-39.239014,-5.913574,,,,,,
1478502984.99,-2.846073,1.500010,1.747882,1.694035,-0.566417,0.349964,-0.020598,-0.997496,0.067661,-0.061189,0.130430,-0.128498,26.862366,-39.465576,-4.936890,,,,,,
1478502985.01,-2.938137,1.467139,1.828976,1.638494,-0.478281,-0.089049,-0.020907,-0.994632,0.101337,0.138949,-0.083050,0.008114,26.040405,-40.444336,-2.167480,,,,,,
1478502985.03,-3.016398,1.439043,1.904141,1.367267,-0.009359,-0.236025,-0.016404,-0.991333,0.130344,-0.123794,-0.110596,-0.017338,25.667114,-40.670776,-1.045288,,,,,,
1478502985.05,-3.055512,1.414308,1.947533,1.234508,0.281136,-0.138198,-0.013399,-0.987781,0.155273,-0.310514,0.039401,-0.049286,26.119324,-40.747864,0.158203,,,,,,
1478502985.07,-3.070009,1.389705,1.969172,1.280134,0.368028,-0.060371,-0.012882,-0.983648,0.179642,-0.304562,0.162923,-0.012833,26.119324,-40.747864,0.158203,,,,,,
1478502985.09,-3.076051,1.362204,1.982147,1.459638,0.280204,-0.024122,-0.013563,-0.978323,0.206639,-0.134859,0.078909,0.024929,26.271912,-40.374146,0.984253,,,,,,
1478502985.11,-3.086032,1.332337,1.995346,1.513634,0.077076,-0.084193,-0.013117,-0.971703,0.235841,0.032496,-0.036094,0.055724,26.427551,-39.927612,3.235229,,,,,,
1478502985.13,-3.103350,1.302936,2.013261,1.471442,-0.030931,-0.211937,-0.010119,-0.964339,0.264475,0.066973,-0.013016,0.051596,26.428711,-40.604736,4.660400,,,,,,
1478502985.15,-3.126024,1.274684,2.036274,1.407114,-0.028413,-0.315551,-0.004543,-0.956478,0.291769,0.028194,0.019939,0.012934,26.507080,-40.156433,5.785767,,,,,,
1478502985.17,3.135241,1.247676,2.057509,1.328868,-0.140876,-0.301971,0.002017,-0.948249,0.317521,0.018232,-0.054070,-0.099640,26.507080,-40.156433,5.785767,,,,,,
1478502985.19,3.117151,1.222539,2.070448,1.216464,-0.402243,-0.190418,0.008340,-0.939969,0.341158,0.024939,-0.183948,-0.260012,26.584656,-40.158386,7.061523,,,,,,
1478502985.21,3.101635,1.199874,2.073859,1.081092,-0.765665,-0.040514,0.014480,-0.931993,0.362186,0.015778,-0.289228,-0.428806,27.490540,-39.411865,9.092896,,,,,,
1478502985.23,3.086122,1.180748,2.069250,0.897987,-1.110818,0.086745,0.021081,-0.924891,0.379648,-0.005441,-0.223379,-0.517481,27.566956,-39.187561,9.468384,,,,,,
1478502985.25,3.068477,1.164438,2.062171,0.807149,-1.261422,0.048153,0.028875,-0.918566,0.394211,-0.013128,-0.121534,-0.560272,27.492371,-39.413269,9.992920,,,,,,
1478502985.27,3.040293,1.149251,2.065074,0.682108,-1.294514,-0.247350,0.041378,-0.912458,0.407074,-0.080654,-0.063739,-0.527161,27.492371,-39.413269,9.992920,,,,,,
1478502985.29,2.999734,1.141896,2.082851,0.060883,-1.129441,-0.472430,0.058797,-0.909424,0.411693,-0.184484,-0.177612,-0.353451,28.092712,-39.338684,10.072388,,,,,,
1478502985.31,2.959778,1.146310,2.108922,-0.477249,-0.607776,-0.497472,0.074469,-0.911250,0.405064,-0.171072,-0.287373,-0.327794,28.394165,-38.588501,9.849243,,,,,,
1478502985.33,2.927240,1.157386,2.137392,-0.775539,-0.197605,-0.437994,0.085455,-0.915756,0.392541,-0.307012,-0.479630,-0.463143,29.143311,-38.437988,9.254883,,,,,,
1478502985.35,2.897953,1.177963,2.167176,-1.425030,-0.068254,-0.251214,0.092347,-0.923828,0.371502,-0.618684,-0.760727,-0.561932,29.742432,-38.212219,8.509155,,,,,,
1478502985.37,2.862321,1.215959,2.205726,-2.417297,0.130554,-0.236744,0.095773,-0.937703,0.333977,-0.584558,-0.624461,-0.464592,29.742432,-38.212219,8.509155,,,,,,
1478502985.39,2.786117,1.268404,2.294881,-3.239117,0.579607,-0.763548,0.103647,-0.954627,0.279187,-0.010263,-0.310571,-0.297406,30.187561,-38.509399,6.487549,,,,,,
1478502985.41,2.629051,1.322672,2.473911,-3.570941,0.818589,-1.229857,0.120434,-0.969375,0.214029,0.375553,-0.131562,-0.158548,30.707092,-38.730896,4.016602,,,,,,
1478502985.43,2.380146,1.364379,2.739663,-3.303813,0.196484,-1.024122,0.141413,-0.978771,0.148354,0.087957,-0.434208,-0.029580,31.603821,-37.977356,1.398071,,,,,,
1478502985.45,2.112668,1.393771,3.003925,-2.683531,-0.676953,-0.021948,0.150875,-0.984372,0.090823,-0.107967,-0.654651,0.191861,32.802612,-36.699829,-0.768555,,,,,,
1478502985.47,1.842084,1.427057,-3.019084,-2.550599,-0.590044,1.086794,0.138006,-0.989687,0.038386,-0.288122,-0.469846,0.393728,32.802612,-36.699829,-0.768555,,,,,,
1478502985.49,1.444549,1.460226,-2.625082,-2.669536,-0.157884,1.609216,0.109467,-0.993893,-0.013894,-0.493927,-0.257999,0.427056,32.193176,-36.842529,-5.348145,,,,,,
1478502985.51,0.841122,1.467570,-2.012636,-2.870618,0.577348,1.637862,0.076807,-0.994677,-0.068691,-0.529017,-0.204389,0.421093,31.212830,-37.138672,-7.605225,,,,,,
1478502985.53,0.387536,1.435172,-1.535057,-2.947480,1.333145,1.233909,0.051096,-0.990817,-0.125182,-0.502284,-0.138822,0.410979,30.233398,-37.585754,-9.262573,,,,,,
1478502985.55,0.207824,1.384342,-1.317435,-2.928367,2.011125,0.770989,0.038249,-0.982668,-0.181387,-0.449595,-0.088850,0.434470,29.104675,-37.582336,-11.145996,,,,,,
1478502985.57,0.154886,1.330701,-1.216342,-2.774753,2.469353,0.482657,0.036684,-0.971315,-0.234949,-0.405626,0.001299,0.512796,29.104675,-37.582336,-11.145996,,,,,,
1478502985.59,0.150269,1.280893,-1.156615,-2.481160,2.760958,0.374183,0.042794,-0.958272,-0.282638,-0.398583,0.086369,0.583465,29.103271,-36.153687,-13.621582,,,,,,
1478502985.61,0.162122,1.237170,-1.107520,-2.180079,3.079860,0.446673,0.052858,-0.944861,-0.323177,-0.335146,0.121420,0.632198,29.702637,-35.702576,-14.517334,,,,,,
1478502985.63,0.178284,1.200999,-1.057488,-1.779172,3.196251,0.626471,0.064096,-0.932401,-0.355698,-0.249689,0.158841,0.623612,30.527588,-35.477600,-14.811279,,,,,,
1478502985.65,0.190455,1.174715,-1.003896,-1.310061,3.031735,0.815586,0.073035,-0.922580,-0.378830,-0.165382,0.209445,0.589249,31.655212,-34.503235,-14.728271,,,,,,
1478502985.67,0.197135,1.158483,-0.950197,-0.820882,2.675930,0.925266,0.078487,-0.916196,-0.392968,-0.052242,0.232755,0.573068,31.655212,-34.503235,-14.728271,,,,,,
1478502985.69,0.198696,1.152352,-0.899204,-0.316406,2.292568,0.958428,0.080208,-0.913722,-0.398345,0.064827,0.238795,0.586028,32.182495,-34.505188,-13.599365,,,,,,
1478502985.71,0.200211,1.156038,-0.855945,0.211219,1.892358,0.857616,0.080141,-0.915214,-0.394919,0.144377,0.273811,0.599174,32.482178,-35.331726,-12.696655,,,,,,
1478502985.73,0.200474,1.169248,-0.822985,0.669102,1.321237,0.740713,0.077830,-0.920457,-0.383016,0.182973,0.359834,0.572454,32.258606,-35.558105,-11.723267,,,,,,
1478502985.75,0.191505,1.187323,-0.793616,0.820111,0.648828,0.747889,0.071213,-0.927371,-0.367304,0.233276,0.425204,0.457346,31.136169,-36.310913,-9.481323,,,,,,
1478502985.77,0.167367,1.208257,-0.761669,1.002445,0.111326,0.761419,0.059080,-0.934999,-0.349694,0.252413,0.409288,0.258278,31.136169,-36.310913,-9.481323,,,,,,
1478502985.79,0.137842,1.231190,-0.728471,1.044595,0.222880,0.727416,0.045772,-0.942886,-0.329956,0.182606,0.225784,0.016266,30.685669,-37.211975,-8.584106,,,,,,
1478502985.81,0.113775,1.251102,-0.685236,0.781647,1.238683,0.925616,0.035680,-0.949332,-0.312244,-0.014211,-0.213403,-0.258191,30.460693,-37.813049,-7.835571,,,,,,
1478502985.83,0.077536,1.258293,-0.616886,-0.104781,1.458954,1.233372,0.023814,-0.951567,-0.306518,-0.115916,-0.525560,-1.098863,30.163025,-37.964905,-6.487793,,,,,,
1478502985.85,0.010090,1.254401,-0.519942,-0.194502,1.054679,1.556038,0.003139,-0.950363,-0.311127,-0.321636,-0.511673,-1.063705,28.513977,-38.791321,-4.999756,,,,,,
1478502985.87,-0.059825,1.257234,-0.433471,0.511356,0.221714,1.160933,-0.018442,-0.951241,-0.307897,0.001337,0.294579,-0.192256,28.513977,-38.791321,-4.999756,,,,,,
1478502985.89,-0.118677,1.280913,-0.376070,1.674873,-0.201982,0.551627,-0.033843,-0.958277,-0.283829,-0.174348,0.400065,0.499772,27.612427,-39.691406,-4.631104,,,,,,
1478502985.91,-0.167927,1.318368,-0.318791,1.933323,0.595597,0.553962,-0.041744,-0.968309,-0.246243,-0.781285,-0.329314,0.319638,26.335938,-40.441040,-4.415283,,,,,,
1478502985.93,-0.204326,1.330798,-0.251925,0.079578,2.510133,0.448250,-0.048231,-0.971338,-0.232756,-0.570803,-2.043630,-0.195299,25.963257,-40.968567,-2.617798,,,,,,
1478502985.95,-0.078992,1.338400,-0.280314,0.550624,5.814003,-0.799655,-0.018174,-0.973117,-0.229592,0.427552,-0.685711,0.747795,25.592834,-41.648071,0.529785,,,,,,
1478502985.97,0.129960,1.354194,-0.388093,1.052892,4.384468,-1.339743,0.027852,-0.976633,-0.213100,0.531826,0.785471,0.902538,25.592834,-41.648071,0.529785,,,,,,
1478502985.99,0.315190,1.374656,-0.525955,1.495577,1.719043,-0.878711,0.060414,-0.980826,-0.185285,0.538768,1.295920,0.661420,26.349121,-41.352600,3.310303,,,,,,
1478502986.01,0.424118,1.407865,-0.612534,2.040677,0.875114,0.408291,0.066753,-0.986756,-0.147840,0.057927,1.039307,0.247785,27.854980,-40.305786,4.896118,,,,,,
1478502986.03,0.397062,1.458314,-0.580736,2.223197,-0.437493,1.663143,0.043407,-0.993681,-0.103513,-0.392955,-0.429278,0.075071,28.161255,-39.408997,6.922852,,,,,,
1478502986.05,0.205481,1.507114,-0.413247,2.078503,-1.376619,0.936725,0.012985,-0.997973,-0.062301,-0.047760,-0.922407,0.246505,25.766541,-40.163147,10.505371,,,,,,
1478502986.07,0.434878,1.543039,-0.657246,1.752562,-0.301645,-0.344102,0.011693,-0.999615,-0.025170,0.159252,-0.234943,0.128732,25.766541,-40.163147,10.505371,,,,,,
1478502986.09,1.965385,1.548263,-2.186515,1.709158,0.288636,-0.398464,0.020800,-0.999746,0.008662,-0.065905,0.295812,0.010656,25.544189,-39.939636,11.553467,,,,,,
1478502986.11,2.677202,1.521388,-2.888757,1.813445,0.556372,0.110532,0.022120,-0.998780,0.044158,-0.359125,0.223908,0.111680,26.071472,-40.091980,12.907471,,,,,,
1478502986.13,2.948884,1.488267,3.131357,1.869974,0.366622,0.334739,0.015788,-0.996596,0.080910,-0.349833,0.090911,0.037209,26.376404,-39.269226,14.334351,,,,,,
1478502986.15,3.050714,1.451300,3.032820,1.924628,0.118008,0.143808,0.010819,-0.992869,0.118720,-0.062333,0.042674,0.001977,25.560852,-38.148804,17.627808,,,,,,
1478502986.17,3.074546,1.414189,3.012745,1.815873,0.275064,-0.094412,0.010449,-0.987762,0.155617,0.046893,-0.091080,0.022331,25.560852,-38.148804,17.627808,,,,,,
1478502986.19,3.073653,1.380596,3.021937,1.598013,0.469522,-0.240677,0.012835,-0.981966,0.188620,-0.056353,-0.099943,-0.040579,25.189514,-38.000977,19.274902,,,,,,
1478502986.21,3.063315,1.351466,3.041844,1.360991,0.441766,-0.343064,0.017014,-0.976043,0.216910,-0.178727,-0.007752,-0.124502,25.419006,-37.328247,20.701294,,,,,,
1478502986.23,3.051289,1.325492,3.061785,1.262406,0.324030,-0.316814,0.021901,-0.970063,0.241862,-0.200490,0.041719,-0.177318,25.047546,-36.804749,21.823242,,,,,,
1478502986.25,3.049996,1.298899,3.068609,1.374882,0.237209,-0.123389,0.024565,-0.963263,0.267434,-0.093870,-0.033472,-0.154870,25.506165,-34.932922,23.775757,,,,,,
1478502986.27,3.061904,1.270856,3.059184,1.428511,0.075097,0.068762,0.023520,-0.955354,0.294525,0.042764,-0.059706,-0.128708,25.506165,-34.932922,23.775757,,,,,,
1478502986.29,3.070632,1.243642,3.048550,1.342792,-0.149929,0.021796,0.022784,-0.946961,0.320540,0.083982,-0.015426,-0.102263,25.359497,-34.409485,24.824463,,,,,,
1478502986.31,3.064895,1.217941,3.049411,1.262644,-0.301317,-0.193443,0.026479,-0.938390,0.344562,0.034434,0.006353,-0.089817,25.064026,-33.586060,26.021729,,,,,,
1478502986.33,3.049426,1.193292,3.058202,1.197827,-0.387089,-0.268183,0.033925,-0.929587,0.367037,0.007488,-0.057305,-0.172030,25.594360,-32.538452,27.375244,,,,,,
1478502986.35,3.038978,1.169885,3.060573,1.142998,-0.450018,-0.053360,0.039976,-0.920706,0.388205,-0.031568,-0.157694,-0.291281,24.248047,-31.413391,27.814575,,,,,,
1478502986.37,3.038509,1.149131,3.049619,1.006869,-0.587125,0.173904,0.042116,-0.912409,0.407108,-0.004564,-0.206671,-0.389179,24.248047,-31.413391,27.814575,,,,,,
1478502986.39,3.035257,1.131318,3.038020,0.861793,-0.765141,0.105250,0.045157,-0.904974,0.423065,0.034479,-0.155085,-0.490096,26.200012,-31.040161,28.354004,,,,,,
1478502986.41,3.021153,1.115819,3.034409,0.730254,-0.965292,-0.096359,0.052798,-0.898271,0.436258,-0.064105,-0.083144,-0.552881,26.277710,-30.441040,28.954224,,,,,,
